volcanoName,eruptionCertainty,startDate,maxVEI,activityArea,evidenceMethod,stopDate,latitude,longitude,volcanoHeight,country,primaryVolcanoType,population5km,population10km,population30km,population100km
Bagana,Confirmed Eruption,1865,2,,Historical Observations,1883,-6.137,155.196,1855 m,Papua New Guinea,Lava cone,198,404,"7,861","115,257"
Kelimutu,Confirmed Eruption,1865,2,,Historical Observations,Unknown,-8.77,121.82,1639 m,Indonesia,Complex,746,"9,896","118,605","606,946"
Makaturing,Confirmed Eruption,1865,2,,Historical Observations,Unknown,7.644,124.317,1818 m,Philippines,Stratovolcano,"1,501","9,752","418,007","6,142,586"
Akutan,Confirmed Eruption,1865,--,,Historical Observations,Unknown,54.134,-165.986,1303 m,United States,Stratovolcano,0,24,233,"4,361"
Shishaldin,Uncertain Eruption,1865,--,, ,[ Unknown ],54.756,-163.97,2857 m,United States,Stratovolcano,0,0,10,197
Makushin,Confirmed Eruption,1865,--,,Historical Observations,Unknown,53.891,-166.923,1800 m,United States,Stratovolcano,0,0,"3,437","3,850"
Baker,Uncertain Eruption,1865,--,Sherman Crater, ,[ Unknown ],48.777,-121.813,3285 m,United States,Stratovolcano(es),0,46,"8,568","1,990,504"
Farallon de Pajaros,Discredited Eruption,1865,--,, ,[ Unknown ],20.546,144.893,337 m,United States,Stratovolcano,0,0,0,0
Ubinas,Confirmed Eruption,1865,2,,Historical Observations,Unknown,-16.355,-70.903,5672 m,Peru,Stratovolcano,180,"1,195","14,607","1,136,785"
Olca-Paruma,Uncertain Eruption,1865,--,, ,[ 1867 ],-20.939,-68.413,5705 m,Chile-Bolivia,Stratovolcano(es),20,225,"2,318","16,180"
Nyamulagira,Confirmed Eruption,1865,--,,Historical Observations,Unknown,-1.408,29.2,3058 m,DR Congo,Shield,"3,751","27,027","711,356","8,333,476"
Gamalama,Confirmed Eruption,1864 Dec 27,2,,Historical Observations,1865 Jan 2,0.8,127.33,1715 m,Indonesia,Stratovolcano(es),"103,429","204,820","308,691","536,972"
Tongariro,Confirmed Eruption,1864 Dec,2,Ngauruhoe,Historical Observations,1865 Jan,-39.157,175.632,1978 m,New Zealand,Stratovolcano(es),27,286,"7,591","81,567"
"Chillan, Nevados de",Confirmed Eruption,1864 Nov 30,3,NW flank of Cerro Blanco (Santa Gertrudis),Historical Observations,1865 Feb 3 ± 1 days,-36.868,-71.378,3180 m,Chile,Stratovolcano,68,371,"3,733","512,325"
Mocho-Choshuenco,Confirmed Eruption,1864 Nov 1,2,SW flank of El Mocho (Chaiquemahuida),Historical Observations,1864 Nov 3 ± 1 days,-39.927,-72.027,2422 m,Chile,Stratovolcano(es),81,789,"16,633","401,631"
Villarrica,Confirmed Eruption,1864 Oct,2,,Historical Observations,Unknown,-39.42,-71.93,2847 m,Chile,Stratovolcano,477,"1,067","35,118","667,788"
Callaqui,Uncertain Eruption,1864 Oct,--,, ,[ Unknown ],-37.92,-71.45,3164 m,Chile,Stratovolcano,56,294,"4,354","400,426"
Makian,Confirmed Eruption,1864 Oct,1,,Historical Observations,1864 Oct,0.32,127.4,1357 m,Indonesia,Stratovolcano,"4,986","8,466","21,360","441,768"
Irazu,Confirmed Eruption,1864 Sep 16,2,,Historical Observations,1864 Sep 17,9.979,-83.852,3432 m,Costa Rica,Stratovolcano,"1,978","25,442","1,667,528","3,432,860"
Turrialba,Confirmed Eruption,1864 Aug 17,2,Central and SW summit craters,Historical Observations,1865 Mar,10.025,-83.767,3340 m,Costa Rica,Stratovolcano,"1,891","6,867","672,428","3,390,544"
Etna,Confirmed Eruption,1864 Aug 5,2,Central Crater,Historical Observations,1864 Sep 19,37.748,14.999,3320 m,Italy,Stratovolcano(es),78,"3,291","1,016,540","3,052,770"
Raung,Confirmed Eruption,1864 Jul 2,2,,Historical Observations,1864 Dec,-8.119,114.056,3260 m,Indonesia,Stratovolcano,152,572,"581,515","8,123,987"
Semeru,Discredited Eruption,1864 Jul 2,--,, ,[ Unknown ],-8.108,112.922,3657 m,Indonesia,Stratovolcano,"2,686","8,375","1,022,197","20,098,931"
Lamongan,Confirmed Eruption,1864 Jun 9,2,,Historical Observations,1864 Jul,-7.981,113.341,1641 m,Indonesia,Stratovolcano,"6,588","66,387","2,193,829","15,322,387"
Lopevi,Confirmed Eruption,1864 Jun 9,3,,Historical Observations,Unknown,-16.507,168.346,1413 m,Vanuatu,Stratovolcano,690,793,"7,942","50,310"
Karangetang,Confirmed Eruption,1864 Jun 6,2,,Historical Observations,Unknown,2.781,125.407,1797 m,Indonesia,Stratovolcano,892,"4,478","11,066","65,667"
Gamalama,Uncertain Eruption,1864 Jun 4,1,, ,[ 1864 Jun 25 ± 5 days ],0.8,127.33,1715 m,Indonesia,Stratovolcano(es),"103,429","204,820","308,691","536,972"
Izalco,Confirmed Eruption,1864 May 15,2,Summit and NE flank,Historical Observations,1865 Jun 15 ± 5 days,13.813,-89.633,1950 m,El Salvador,Stratovolcano,937,"55,665","1,272,308","6,415,818"
Vesuvius,Confirmed Eruption,1864 Feb 10,2,Summit and upper SE flank,Historical Observations,1868 Nov 26,40.821,14.426,1281 m,Italy,Stratovolcano,"19,162","675,705","3,907,941","6,009,961"
Gamalama,Confirmed Eruption,1864 Jan 20,2,,Historical Observations,1864 Feb 17,0.8,127.33,1715 m,Indonesia,Stratovolcano(es),"103,429","204,820","308,691","536,972"
Farallon de Pajaros,Confirmed Eruption,1864 Jan 7,2,SW side,Historical Observations,Unknown,20.546,144.893,337 m,United States,Stratovolcano,0,0,0,0
Kelud,Confirmed Eruption,1864 Jan 4,2,,Historical Observations,1864 Jan 4 (?),-7.935,112.314,1730 m,Indonesia,Stratovolcano,279,"50,901","2,087,876","24,999,627"
Alamagan,Uncertain Eruption,1864 Jan,--,, ,[ Unknown ],17.6,145.83,744 m,United States,Stratovolcano,0,0,0,0
Pagan,Confirmed Eruption,1864,1,South Pagan,Historical Observations,Unknown,18.13,145.8,570 m,United States,Stratovolcano(es),0,0,0,0
Lewotolok,Confirmed Eruption,1864,2,,Historical Observations,Unknown,-8.274,123.508,1431 m,Indonesia,Stratovolcano,"4,390","10,032","159,023","695,083"
Llaima,Confirmed Eruption,1864,3,,Historical Observations,Unknown,-38.692,-71.729,3125 m,Chile,Stratovolcano,86,811,"18,568","630,458"
"Fournaise, Piton de la",Confirmed Eruption,1863 Dec 20,0,,Historical Observations,1864 Jan 29,-21.244,55.708,2632 m,France,Shield,"55,859","55,859","246,792","717,820"
Antuco,Confirmed Eruption,1863 Dec,2,,Historical Observations,Unknown,-37.406,-71.349,2979 m,Chile,Stratovolcano,117,474,"3,872","381,623"
Makian,Confirmed Eruption,1863 Aug 25,1,,Historical Observations,1863 Aug 31,0.32,127.4,1357 m,Indonesia,Stratovolcano,"4,986","8,466","21,360","441,768"
Campi Flegrei del Mar di Sicilia,Confirmed Eruption,1863 Aug 12,2,Giulia Ferdinandeo,Historical Observations,Unknown,37.1,12.7,-8 m,Italy,Submarine,"230,578","230,578","230,578","633,350"
Isluga,Confirmed Eruption,1863 Aug,1,,Historical Observations,Unknown,-19.15,-68.83,5550 m,Chile,Stratovolcano,1,703,"5,961","32,205"
Baker,Confirmed Eruption,1863 Jul,2,Sherman Crater,Historical Observations,Unknown,48.777,-121.813,3285 m,United States,Stratovolcano(es),0,46,"8,568","1,990,504"
Mayon,Uncertain Eruption,1863 May 30,--,, ,[ Unknown ],13.257,123.685,2462 m,Philippines,Stratovolcano,"4,350","248,448","1,166,441","4,142,375"
Marapi,Confirmed Eruption,1863 May 23,2,,Historical Observations,Unknown,-0.38,100.474,2885 m,Indonesia,Complex,706,"57,453","818,039","4,059,773"
Gamalama,Uncertain Eruption,1863 May 1,2,, ,[ 1863 Jun (?) ],0.8,127.33,1715 m,Indonesia,Stratovolcano(es),"103,429","204,820","308,691","536,972"
Etna,Confirmed Eruption,1863 May 1,3,Central Crater,Historical Observations,1863 Jul 25 (?),37.748,14.999,3320 m,Italy,Stratovolcano(es),78,"3,291","1,016,540","3,052,770"
Iwakisan,Confirmed Eruption,1863 Mar 23,1,,Historical Observations,Unknown,40.656,140.303,1625 m,Japan,Stratovolcano,918,"13,229","465,065","1,617,801"
Tajumulco,Uncertain Eruption,1863,2,, ,[ Unknown ],15.043,-91.903,4203 m,Guatemala,Stratovolcano,"2,398","71,560","796,805","5,255,535"
Longonot,Confirmed Eruption,1863,0,Northern flank,Anthropology,Unknown,-0.914,36.446,2776 m,Kenya,Stratovolcano,809,"17,893","410,677","8,750,154"
Dubbi,Uncertain Eruption,1863,2,, ,[ Unknown ],13.579,41.809,1625 m,Eritrea,Stratovolcano,0,0,18,"14,867"
"Tair, Jebel at",Confirmed Eruption,1863,2,,Historical Observations,Unknown,15.55,41.83,244 m,Yemen,Stratovolcano,0,0,0,"14,493"
Lopevi,Confirmed Eruption,1863,2,,Historical Observations,Unknown,-16.507,168.346,1413 m,Vanuatu,Stratovolcano,690,793,"7,942","50,310"
Ambrym,Confirmed Eruption,1863,2,,Historical Observations,1864,-16.25,168.12,1334 m,Vanuatu,Pyroclastic shield,9,186,"10,826","63,999"
Tongariro,Confirmed Eruption,1863,2,Ngauruhoe,Historical Observations,1864 Apr,-39.157,175.632,1978 m,New Zealand,Stratovolcano(es),27,286,"7,591","81,567"
Izalco,Confirmed Eruption,1863,0,,Historical Observations,Unknown,13.813,-89.633,1950 m,El Salvador,Stratovolcano,937,"55,665","1,272,308","6,415,818"
Cotopaxi,Confirmed Eruption,1863,2,,Historical Observations,Unknown,-0.677,-78.436,5911 m,Ecuador,Stratovolcano,251,"7,299","152,139","3,631,492"
Gamalama,Confirmed Eruption,1862 Jul 15,2,,Historical Observations,1862 Oct,0.8,127.33,1715 m,Indonesia,Stratovolcano(es),"103,429","204,820","308,691","536,972"
Bardarbunga,Confirmed Eruption,1862 Jun 30,2,Trollagigar,Historical Observations,1864 Oct 15 ± 45 days,64.633,-17.516,2000 m,Iceland,Stratovolcano,0,0,0,"1,348"
Merapi,Confirmed Eruption,1862 May 26,2,,Historical Observations,1864,-7.54,110.446,2910 m,Indonesia,Stratovolcano,"49,205","185,849","4,348,473","24,728,414"
Tutupaca,Uncertain Eruption,1862 Apr,2,Volcano Uncertain: reported from Tutupaca, ,[ 1862 May ],-17.026,-70.372,5801 m,Peru,Stratovolcano(es),18,"1,125","21,124","213,931"
Antuco,Uncertain Eruption,1862 Jan,--,, ,[ 1862 Mar 3 ],-37.406,-71.349,2979 m,Chile,Stratovolcano,117,474,"3,872","381,623"
San Miguel,Confirmed Eruption,1862 Jan,2,,Historical Observations,Unknown,13.434,-88.269,2130 m,El Salvador,Stratovolcano,"1,232","63,007","796,482","3,633,885"
Tongariro,Confirmed Eruption,1862 Jan,2,Ngauruhoe,Historical Observations,Unknown,-39.157,175.632,1978 m,New Zealand,Stratovolcano(es),27,286,"7,591","81,567"
Karthala,Uncertain Eruption,1862,2,, ,[ Unknown ],-11.75,43.38,2361 m,Comoros,Shield,"225,379","225,379","278,330","399,067"
Camiguin,Confirmed Eruption,1862,2,Hibok-Hibok,Historical Observations,Unknown,9.203,124.673,1552 m,Philippines,Stratovolcano(es),"12,173","51,587","92,178","2,871,353"
Mayon,Confirmed Eruption,1862,2,,Historical Observations,Unknown,13.257,123.685,2462 m,Philippines,Stratovolcano,"4,350","248,448","1,166,441","4,142,375"
Akutan,Uncertain Eruption,1862,--,, ,[ Unknown ],54.134,-165.986,1303 m,United States,Stratovolcano,0,24,233,"4,361"
Llaima,Confirmed Eruption,1862,3,,Historical Observations,Unknown,-38.692,-71.729,3125 m,Chile,Stratovolcano,86,811,"18,568","630,458"
Ubinas,Confirmed Eruption,1862,2,,Historical Observations,Unknown,-16.355,-70.903,5672 m,Peru,Stratovolcano,180,"1,195","14,607","1,136,785"
Makian,Confirmed Eruption,1861 Dec 28,4,,Historical Observations,1862 Oct,0.32,127.4,1357 m,Indonesia,Stratovolcano,"4,986","8,466","21,360","441,768"
Fuego,Uncertain Eruption,1861 Nov 21,2,, ,[ Unknown ],14.473,-90.88,3763 m,Guatemala,Stratovolcano(es),"1,373","54,332","1,016,339","7,677,809"
"Chillan, Nevados de",Confirmed Eruption,1861 Jun,2,NW flank of Cerro Blanco (Santa Gertrudis),Historical Observations,1863,-36.868,-71.378,3180 m,Chile,Stratovolcano,68,371,"3,733","512,325"
Ruapehu,Confirmed Eruption,1861 May 16,2,,Historical Observations,Unknown,-39.28,175.57,2797 m,New Zealand,Stratovolcano,14,298,"6,901","119,709"
Dubbi,Confirmed Eruption,1861 May 8,3,,Historical Observations,1861 Oct (?),13.579,41.809,1625 m,Eritrea,Stratovolcano,0,0,18,"14,867"
Lewotobi,Confirmed Eruption,1861 May 4,2,Lewotobi Lakilaki,Historical Observations,1861 May 18,-8.542,122.775,1703 m,Indonesia,Stratovolcano(es),"18,686","59,084","284,976","906,184"
Grimsvotn,Uncertain Eruption,1861 May,2,, ,[ Unknown ],64.416,-17.316,1719 m,Iceland,Caldera,0,0,0,"1,736"
Marapi,Confirmed Eruption,1861 Apr,2,,Historical Observations,Unknown,-0.38,100.474,2885 m,Indonesia,Complex,706,"57,453","818,039","4,059,773"
"Fournaise, Piton de la",Confirmed Eruption,1861 Mar 19,2,Brulant,Historical Observations,1861 Mar 19,-21.244,55.708,2632 m,France,Shield,"55,859","55,859","246,792","717,820"
Antuco,Confirmed Eruption,1861 Feb,0,,Historical Observations,1861 Aug (?),-37.406,-71.349,2979 m,Chile,Stratovolcano,117,474,"3,872","381,623"
Tupungatito,Confirmed Eruption,1861,2,,Historical Observations,Unknown,-33.425,-69.797,5660 m,Chile-Argentina,Stratovolcano,612,923,"6,161","6,169,105"
Turrialba,Uncertain Eruption,1861,--,, ,[ Unknown ],10.025,-83.767,3340 m,Costa Rica,Stratovolcano,"1,891","6,867","672,428","3,390,544"
Sete Cidades,Confirmed Eruption,1861,0,Volcano Uncertain: submarine vent off Sao Miguel,Unknown,Unknown,37.865,-25.785,842 m,Portugal,Stratovolcano,"3,515","10,365","102,848","127,154"
Suretamatai,Confirmed Eruption,1861,2,,Historical Observations,Unknown,-13.8,167.47,921 m,Vanuatu,Complex,68,"3,509","5,555","9,242"
Merapi,Confirmed Eruption,1861,2,,Historical Observations,Unknown,-7.54,110.446,2910 m,Indonesia,Stratovolcano,"49,205","185,849","4,348,473","24,728,414"
Lamongan,Confirmed Eruption,1861,2,,Historical Observations,Unknown,-7.981,113.341,1641 m,Indonesia,Stratovolcano,"6,588","66,387","2,193,829","15,322,387"
Mayon,Confirmed Eruption,1861,1,,Historical Observations,Unknown,13.257,123.685,2462 m,Philippines,Stratovolcano,"4,350","248,448","1,166,441","4,142,375"
Karthala,Confirmed Eruption,1860 Dec 29,0,"SE flank (Badjini Massif, 1200 m)",Historical Observations,Unknown,-11.75,43.38,2361 m,Comoros,Shield,"225,379","225,379","278,330","399,067"
Baker,Uncertain Eruption,1860 Dec,--,Sherman Crater, ,[ Unknown ],48.777,-121.813,3285 m,United States,Stratovolcano(es),0,46,"8,568","1,990,504"
Cagua,Confirmed Eruption,1860 Oct,2,,Historical Observations,Unknown,18.222,122.123,1133 m,Philippines,Stratovolcano,99,"1,137","34,018","1,480,952"
Sangeang Api,Confirmed Eruption,1860 Sep 11,2,,Historical Observations,1860 Oct,-8.2,119.07,1912 m,Indonesia,Complex,204,"1,155","39,301","809,132"
Raung,Confirmed Eruption,1860 Sep,2,,Historical Observations,Unknown,-8.119,114.056,3260 m,Indonesia,Stratovolcano,152,572,"581,515","8,123,987"
Fuego,Confirmed Eruption,1860 Aug 18,2,,Historical Observations,1860 Sep 23,14.473,-90.88,3763 m,Guatemala,Stratovolcano(es),"1,373","54,332","1,016,339","7,677,809"
"Chillan, Nevados de",Confirmed Eruption,1860 Jul 25,2,W flank of Volcán Viejo (Volcán Renegado),Historical Observations,Unknown,-36.868,-71.378,3180 m,Chile,Stratovolcano,68,371,"3,733","512,325"
Alaid,Confirmed Eruption,1860 Jul 7,3,,Historical Observations,1860 Jul 9,50.861,155.565,2285 m,Russia,Stratovolcano,0,64,64,"2,887"
Tengger Caldera,Confirmed Eruption,1860 Jun 12,2,Bromo,Historical Observations,1860 Jun 14,-7.942,112.95,2329 m,Indonesia,Stratovolcano(es),"27,826","69,451","1,420,878","22,628,278"
Gamalama,Uncertain Eruption,1860 Jun,1,, ,[ Unknown ],0.8,127.33,1715 m,Indonesia,Stratovolcano(es),"103,429","204,820","308,691","536,972"
Katla,Confirmed Eruption,1860 May 8,4,,Historical Observations,1860 May 27,63.633,-19.083,1490 m,Iceland,Subglacial,0,0,473,"11,326"
Semeru,Confirmed Eruption,1860 Apr,2,,Historical Observations,1860 Jun,-8.108,112.922,3657 m,Indonesia,Stratovolcano,"2,686","8,375","1,022,197","20,098,931"
Slamet,Confirmed Eruption,1860 Mar 19,2,,Historical Observations,1860 Apr 11,-7.242,109.208,3428 m,Indonesia,Stratovolcano,856,"13,401","2,904,026","20,217,467"
"Fournaise, Piton de la",Confirmed Eruption,1860 Jan 22,2,Dolomieu and l'Enclos,Historical Observations,1860 Mar 20,-21.244,55.708,2632 m,France,Shield,"55,859","55,859","246,792","717,820"
Mayon,Confirmed Eruption,1860,--,,Historical Observations,Unknown,13.257,123.685,2462 m,Philippines,Stratovolcano,"4,350","248,448","1,166,441","4,142,375"
Makian,Uncertain Eruption,1860,1,, ,[ Unknown ],0.32,127.4,1357 m,Indonesia,Stratovolcano,"4,986","8,466","21,360","441,768"
Babuyan Claro,Confirmed Eruption,1860,2,Babuyan Claro,Historical Observations,Unknown,19.524,121.95,1064 m,Philippines,Stratovolcano(es),208,222,222,"11,819"
Aira,Confirmed Eruption,1860,1,Minami-dake,Historical Observations,Unknown,31.593,130.657,1117 m,Japan,Caldera,"4,918","113,874","905,254","2,610,033"
Chirippusan [Chirip],Confirmed Eruption,1860,1,SE of Bogdan Khmelinitskii summit,Historical Observations,Unknown,45.338,147.92,1587 m,Japan - administered by Russia,Stratovolcano(es),77,372,"1,125","4,810"
Southern EPR-Segment I,Confirmed Eruption,1860,0,Southern South Hump lava flow,Magnetism,Unknown,-18.53,-113.42,-2600 m,Undersea Features,Submarine,0,0,0,0
Planchon-Peteroa,Confirmed Eruption,1860,2,Peteroa,Historical Observations,Unknown,-35.223,-70.568,3977 m,Chile,Stratovolcano(es),6,48,"1,345","634,959"
"Negra, Sierra",Confirmed Eruption,1860,2,Volcano Uncertain: Isabela Island,Unknown,Unknown,-0.83,-91.17,1124 m,Ecuador,Shield,408,408,983,"9,884"
Purace,Confirmed Eruption,1860,2,,Historical Observations,Unknown,2.32,-76.4,4650 m,Colombia,Stratovolcano(es),"1,465","7,152","335,698","1,751,540"
Cotopaxi,Confirmed Eruption,1860,2,,Historical Observations,1862,-0.677,-78.436,5911 m,Ecuador,Stratovolcano,251,"7,299","152,139","3,631,492"
Poas,Confirmed Eruption,1860,1,,Historical Observations,Unknown,10.2,-84.233,2697 m,Costa Rica,Stratovolcano,"1,947","11,107","950,796","3,411,023"
Raung,Confirmed Eruption,1859 Dec 14,2,,Historical Observations,Unknown,-8.119,114.056,3260 m,Indonesia,Stratovolcano,152,572,"581,515","8,123,987"
Izalco,Confirmed Eruption,1859 Dec 8,0,,Historical Observations,1860 Jan 22,13.813,-89.633,1950 m,El Salvador,Stratovolcano,937,"55,665","1,272,308","6,415,818"
Baker,Confirmed Eruption,1859 Nov,2,Sherman Crater,Historical Observations,1860 Apr 26 (?),48.777,-121.813,3285 m,United States,Stratovolcano(es),0,46,"8,568","1,990,504"
Ebeko,Confirmed Eruption,1859 Sep 27,2,,Historical Observations,Unknown,50.686,156.014,1103 m,Russia,Stratovolcano,0,267,"1,076","3,098"
Wolf,Confirmed Eruption,1859 Aug 26,--,,Historical Observations,1859 Aug 29,0.02,-91.35,1710 m,Ecuador,Shield,165,165,237,"1,673"
Cosiguina,Confirmed Eruption,1859 Aug 25,--,,Historical Observations,Unknown,12.98,-87.57,872 m,Nicaragua,Stratovolcano,143,"4,114","18,876","2,179,830"
Hood,Confirmed Eruption,1859 Aug 15,2,,Historical Observations,1859 Aug 17,45.374,-121.695,3426 m,United States,Stratovolcano,0,850,"9,721","2,067,520"
Lewotobi,Uncertain Eruption,1859 Jul,--,Lewotobi Lakilaki, ,[ Unknown ],-8.542,122.775,1703 m,Indonesia,Stratovolcano(es),"18,686","59,084","284,976","906,184"
Villarrica,Confirmed Eruption,1859 May 19,2,,Historical Observations,1860 Apr 12,-39.42,-71.93,2847 m,Chile,Stratovolcano,477,"1,067","35,118","667,788"
"Fournaise, Piton de la",Confirmed Eruption,1859 May 8,2,,Historical Observations,1859 May 23 (in or after),-21.244,55.708,2632 m,France,Shield,"55,859","55,859","246,792","717,820"
Tongariro,Confirmed Eruption,1859 Apr 21,1,SSE flank (Red Crater),Historical Observations,Unknown,-39.157,175.632,1978 m,New Zealand,Stratovolcano(es),27,286,"7,591","81,567"
Lamongan,Confirmed Eruption,1859 Feb 27,2,,Historical Observations,1859 Mar,-7.981,113.341,1641 m,Indonesia,Stratovolcano,"6,588","66,387","2,193,829","15,322,387"
Tengger Caldera,Confirmed Eruption,1859 Jan 30,2,Bromo,Historical Observations,1859 Mar 4 ± 4 days,-7.942,112.95,2329 m,Indonesia,Stratovolcano(es),"27,826","69,451","1,420,878","22,628,278"
Mauna Loa,Confirmed Eruption,1859 Jan 23,1,North flank (2800 m) and Mokuaweoweo,Historical Observations,1859 Nov 25,19.475,-155.608,4170 m,United States,Shield,45,45,"1,906","175,315"
Mayon,Confirmed Eruption,1859,--,,Historical Observations,Unknown,13.257,123.685,2462 m,Philippines,Stratovolcano,"4,350","248,448","1,166,441","4,142,375"
Serua,Confirmed Eruption,1859,2,,Historical Observations,Unknown,-6.312,130.017,608 m,Indonesia,Stratovolcano,58,58,58,258
Karthala,Confirmed Eruption,1859,2,NW flank (Diboini Plateau fissures),Historical Observations,Unknown,-11.75,43.38,2361 m,Comoros,Shield,"225,379","225,379","278,330","399,067"
Cotopaxi,Confirmed Eruption,1859,2,,Historical Observations,Unknown,-0.677,-78.436,5911 m,Ecuador,Stratovolcano,251,"7,299","152,139","3,631,492"
Masaya,Confirmed Eruption,1858 Nov 10,2,"Santiago, San Pedro",Historical Observations,1859 Mar 27,11.985,-86.165,594 m,Nicaragua,Caldera,"989,888","989,888","1,914,707","2,926,954"
"Fournaise, Piton de la",Confirmed Eruption,1858 Nov 3,2,,Historical Observations,1859 Jan,-21.244,55.708,2632 m,France,Shield,"55,859","55,859","246,792","717,820"
Gamalama,Uncertain Eruption,1858 Nov,1,, ,[ 1859 Sep ],0.8,127.33,1715 m,Indonesia,Stratovolcano(es),"103,429","204,820","308,691","536,972"
Cotopaxi,Confirmed Eruption,1858 Nov,2,,Historical Observations,1858 Dec,-0.677,-78.436,5911 m,Ecuador,Stratovolcano,251,"7,299","152,139","3,631,492"
Tengger Caldera,Confirmed Eruption,1858 Oct 18,2,Bromo,Historical Observations,Unknown,-7.942,112.95,2329 m,Indonesia,Stratovolcano(es),"27,826","69,451","1,420,878","22,628,278"
Midagahara,Discredited Eruption,1858 Apr 8,--,, ,[ Unknown ],36.571,137.59,2621 m,Japan,Stratovolcano,401,521,"143,935","4,455,560"
Masaya,Uncertain Eruption,1858 Apr,--,, ,[ Unknown ],11.985,-86.165,594 m,Nicaragua,Caldera,"989,888","989,888","1,914,707","2,926,954"
Lascar,Confirmed Eruption,1858 Apr,2,,Historical Observations,1858 Dec,-23.37,-67.73,5592 m,Chile,Stratovolcano(es),0,70,570,"8,119"
Tengger Caldera,Confirmed Eruption,1858 Mar 4,2,Bromo,Historical Observations,Unknown,-7.942,112.95,2329 m,Indonesia,Stratovolcano(es),"27,826","69,451","1,420,878","22,628,278"
Ragang,Confirmed Eruption,1858 Feb 18,2,,Historical Observations,Unknown,7.691,124.507,2790 m,Philippines,Stratovolcano,447,"2,646","331,796","6,423,725"
Izalco,Confirmed Eruption,1858 Feb 6,2,,Historical Observations,1859 Jul,13.813,-89.633,1950 m,El Salvador,Stratovolcano,937,"55,665","1,272,308","6,415,818"
Mayon,Confirmed Eruption,1858 Jan,2,,Historical Observations,1858 Dec,13.257,123.685,2462 m,Philippines,Stratovolcano,"4,350","248,448","1,166,441","4,142,375"
Makaturing,Uncertain Eruption,1858,--,, ,[ Unknown ],7.644,124.317,1818 m,Philippines,Stratovolcano,"1,501","9,752","418,007","6,142,586"
Serua,Confirmed Eruption,1858,2,,Historical Observations,Unknown,-6.312,130.017,608 m,Indonesia,Stratovolcano,58,58,58,258
Karthala,Confirmed Eruption,1858,2,Upper NE flank (2200 m),Historical Observations,Unknown,-11.75,43.38,2361 m,Comoros,Shield,"225,379","225,379","278,330","399,067"
Lateiki,Confirmed Eruption,1858,2,,Historical Observations,Unknown,-19.18,-174.87,43 m,Tonga,Submarine,18,18,18,"7,907"
Rainier,Uncertain Eruption,1858,2,, ,[ Unknown ],46.853,-121.76,4392 m,United States,Stratovolcano,0,128,"3,187","2,667,609"
Baker,Confirmed Eruption,1858,2,Sherman Crater,Historical Observations,Unknown,48.777,-121.813,3285 m,United States,Stratovolcano(es),0,46,"8,568","1,990,504"
Momotombo,Confirmed Eruption,1858,2,,Historical Observations,1866,12.423,-86.539,1270 m,Nicaragua,Stratovolcano,100,"1,851","98,583","3,569,021"
San Miguel,Confirmed Eruption,1857 Nov,2,,Historical Observations,Unknown,13.434,-88.269,2130 m,El Salvador,Stratovolcano,"1,232","63,007","796,482","3,633,885"
Fuego,Confirmed Eruption,1857 Sep 17,2,,Historical Observations,Unknown,14.473,-90.88,3763 m,Guatemala,Stratovolcano(es),"1,373","54,332","1,016,339","7,677,809"
Tungurahua,Confirmed Eruption,1857 Sep 10,2,,Historical Observations,Unknown,-1.467,-78.442,5023 m,Ecuador,Stratovolcano,476,"20,990","183,640","1,571,744"
Etna,Uncertain Eruption,1857 Sep 6,1,Central Crater, ,[ Unknown ],37.748,14.999,3320 m,Italy,Stratovolcano(es),78,"3,291","1,016,540","3,052,770"
Semeru,Confirmed Eruption,1857 Aug 13,2,,Historical Observations,1857 Sep,-8.108,112.922,3657 m,Indonesia,Stratovolcano,"2,686","8,375","1,022,197","20,098,931"
Tinakula,Confirmed Eruption,1857 Aug,2,,Historical Observations,Unknown,-10.386,165.804,796 m,Solomon Islands,Stratovolcano,0,19,19,"20,155"
Chirpoi,Confirmed Eruption,1857 Jul,3,Cherny,Historical Observations,Unknown,46.532,150.871,742 m,Russia,Caldera,1,1,3,491
Fogo,Confirmed Eruption,1857 Jun 27,2,SSE caldera floor,Historical Observations,1857 Dec 15,14.95,-24.35,2829 m,Cape Verde,Stratovolcano,189,"13,254","37,650","267,298"
St. Helens,Confirmed Eruption,1857 Apr,2,,Historical Observations,Unknown,46.2,-122.18,2549 m,United States,Stratovolcano,78,427,"2,221","2,173,101"
Izalco,Confirmed Eruption,1857 Feb 15,2,,Historical Observations,1857 Feb 19 (in or after),13.813,-89.633,1950 m,El Salvador,Stratovolcano,937,"55,665","1,272,308","6,415,818"
Tongariro,Confirmed Eruption,1857 Feb,2,Ngauruhoe,Historical Observations,1857 Mar,-39.157,175.632,1978 m,New Zealand,Stratovolcano(es),27,286,"7,591","81,567"
Fuego,Confirmed Eruption,1857 Jan 15,4,,Historical Observations,1857 Feb 17,14.473,-90.88,3763 m,Guatemala,Stratovolcano(es),"1,373","54,332","1,016,339","7,677,809"
Cotopaxi,Confirmed Eruption,1857,2,,Historical Observations,Unknown,-0.677,-78.436,5911 m,Ecuador,Stratovolcano,251,"7,299","152,139","3,631,492"
Home Reef,Uncertain Eruption,1857,2,, ,[ Unknown ],-18.992,-174.775,-10 m,Tonga,Submarine,0,0,142,"21,334"
Stromboli,Confirmed Eruption,1857,3,Summit craters and Sciara del Fuoco,Historical Observations,1889 Jun 26,38.789,15.213,924 m,Italy,Stratovolcano,"2,225","2,225","3,894","1,347,563"
Karthala,Confirmed Eruption,1857,2,SE flank (Badjini Massif) & summit,Historical Observations,Unknown,-11.75,43.38,2361 m,Comoros,Shield,"225,379","225,379","278,330","399,067"
Tengger Caldera,Confirmed Eruption,1857,2,Bromo,Historical Observations,Unknown,-7.942,112.95,2329 m,Indonesia,Stratovolcano(es),"27,826","69,451","1,420,878","22,628,278"
Mayon,Confirmed Eruption,1857,2,,Historical Observations,Unknown,13.257,123.685,2462 m,Philippines,Stratovolcano,"4,350","248,448","1,166,441","4,142,375"
Camiguin de Babuyanes,Confirmed Eruption,1857,2,SW flank,Historical Observations,Unknown,18.83,121.86,712 m,Philippines,Stratovolcano,876,"1,066","1,369","409,653"
Shiretoko-Iozan,Confirmed Eruption,1857,--,,Historical Observations,1858,44.133,145.161,1562 m,Japan,Stratovolcano,6,"1,516","7,890","209,060"
Tokachidake,Confirmed Eruption,1857,2,,Historical Observations,Unknown,43.418,142.686,2077 m,Japan,Stratovolcano(es),12,227,"60,382","1,373,264"
Reventador,Confirmed Eruption,1856 Dec 12,3,,Historical Observations,1856 Dec 13,-0.077,-77.656,3562 m,Ecuador,Stratovolcano,484,963,"4,403","2,619,647"
Masaya,Confirmed Eruption,1856 Dec,2,Santiago or San Pedro,Historical Observations,1857 Jan,11.985,-86.165,594 m,Nicaragua,Caldera,"989,888","989,888","1,914,707","2,926,954"
Ragang,Confirmed Eruption,1856 Nov 1,2,,Historical Observations,Unknown,7.691,124.507,2790 m,Philippines,Stratovolcano,447,"2,646","331,796","6,423,725"
Cotopaxi,Confirmed Eruption,1856 Oct,2,,Historical Observations,1856 Dec,-0.677,-78.436,5911 m,Ecuador,Stratovolcano,251,"7,299","152,139","3,631,492"
Didicas,Confirmed Eruption,1856 Sep 30,2,,Historical Observations,1860 Oct (?),19.077,122.202,228 m,Philippines,Compound,0,0,132,"52,751"
Fuego,Confirmed Eruption,1856 Sep 29,2,,Historical Observations,1856 Sep 30,14.473,-90.88,3763 m,Guatemala,Stratovolcano(es),"1,373","54,332","1,016,339","7,677,809"
Hokkaido-Komagatake,Confirmed Eruption,1856 Sep 25,4,"Ansei Crater, Tephra layer Ko-c1",Historical Observations,Unknown,42.063,140.677,1131 m,Japan,Stratovolcano,173,"23,091","234,213","962,081"
Tengger Caldera,Confirmed Eruption,1856 Sep 10,2,Volcano Uncertain,Unknown,Unknown,-7.942,112.95,2329 m,Indonesia,Stratovolcano(es),"27,826","69,451","1,420,878","22,628,278"
Semeru,Confirmed Eruption,1856 Sep 10,2,,Historical Observations,Unknown,-8.108,112.922,3657 m,Indonesia,Stratovolcano,"2,686","8,375","1,022,197","20,098,931"
Ruang,Confirmed Eruption,1856 Sep,1,,Historical Observations,Unknown,2.3,125.37,725 m,Indonesia,Stratovolcano,878,"1,652","2,766","149,159"
Izalco,Confirmed Eruption,1856 May 24,2,Summit and south flank,Historical Observations,1856 Sep 1 ± 1 days,13.813,-89.633,1950 m,El Salvador,Stratovolcano,937,"55,665","1,272,308","6,415,818"
Iwakisan,Uncertain Eruption,1856 May 20,2,, ,[ Unknown ],40.656,140.303,1625 m,Japan,Stratovolcano,918,"13,229","465,065","1,617,801"
Cotopaxi,Confirmed Eruption,1856 May,2,,Historical Observations,Unknown,-0.677,-78.436,5911 m,Ecuador,Stratovolcano,251,"7,299","152,139","3,631,492"
"Telong, Bur ni",Confirmed Eruption,1856 Apr 14,2,,Historical Observations,Unknown,4.769,96.821,2617 m,Indonesia,Stratovolcano,"1,342","25,733","125,812","1,631,846"
Asosan,Confirmed Eruption,1856 Mar 18,2,Naka-dake,Historical Observations,1856 Jun 13,32.884,131.104,1592 m,Japan,Caldera,"75,559","75,559","234,591","6,507,519"
Awu,Confirmed Eruption,1856 Mar 2,3,,Historical Observations,1856 Mar 17,3.689,125.447,1318 m,Indonesia,Stratovolcano,"6,409","22,655","52,725","58,719"
Lamongan,Confirmed Eruption,1856 Mar 1,2,,Historical Observations,1856 Jun 14,-7.981,113.341,1641 m,Indonesia,Stratovolcano,"6,588","66,387","2,193,829","15,322,387"
Fuego,Confirmed Eruption,1856 Jan 9,2,,Historical Observations,1856 Mar 7,14.473,-90.88,3763 m,Guatemala,Stratovolcano(es),"1,373","54,332","1,016,339","7,677,809"
Makaturing,Uncertain Eruption,1856,--,, ,[ Unknown ],7.644,124.317,1818 m,Philippines,Stratovolcano,"1,501","9,752","418,007","6,142,586"
Whakaari/White Island,Uncertain Eruption,1856,2,, ,[ Unknown ],-37.52,177.18,294 m,New Zealand,Stratovolcano(es),5,5,5,"190,290"
Suretamatai,Confirmed Eruption,1856,2,,Historical Observations,Unknown,-13.8,167.47,921 m,Vanuatu,Complex,68,"3,509","5,555","9,242"
Veer,Discredited Eruption,1856,--,, ,[ Unknown ],53.75,158.45,520 m,Russia,Pyroclastic cone(s),0,1,44,"266,763"
Baker,Uncertain Eruption,1856,--,Sherman Crater, ,[ Unknown ],48.777,-121.813,3285 m,United States,Stratovolcano(es),0,46,"8,568","1,990,504"
Atitlan,Uncertain Eruption,1856,2,, ,[ Unknown ],14.583,-91.186,3535 m,Guatemala,Stratovolcano(es),"2,303","70,431","664,649","8,029,695"
Banda Api,Uncertain Eruption,1855 Dec 29,--,, ,[ 1855 Dec 30 ],-4.523,129.881,596 m,Indonesia,Caldera,"5,682","5,682","5,810","5,810"
Vesuvius,Confirmed Eruption,1855 Dec 19,3,Summit and SW flank (300-225 m),Historical Observations,1861 Dec 31,40.821,14.426,1281 m,Italy,Stratovolcano,"19,162","675,705","3,907,941","6,009,961"
San Miguel,Confirmed Eruption,1855 Dec,2,SSE flank (800 m),Historical Observations,Unknown,13.434,-88.269,2130 m,El Salvador,Stratovolcano,"1,232","63,007","796,482","3,633,885"
Cotopaxi,Confirmed Eruption,1855 Nov,2,,Historical Observations,Unknown,-0.677,-78.436,5911 m,Ecuador,Stratovolcano,251,"7,299","152,139","3,631,492"
Marapi,Confirmed Eruption,1855 Oct 2,2,,Historical Observations,1856 Jan,-0.38,100.474,2885 m,Indonesia,Complex,706,"57,453","818,039","4,059,773"
Fuego,Confirmed Eruption,1855 Sep 29,2,,Historical Observations,1855 Sep 30,14.473,-90.88,3763 m,Guatemala,Stratovolcano(es),"1,373","54,332","1,016,339","7,677,809"
Mauna Loa,Confirmed Eruption,1855 Aug 11,1,NE rift zone (3200 m) and Mokuaweoweo,Historical Observations,1856 Nov,19.475,-155.608,4170 m,United States,Shield,45,45,"1,906","175,315"
Tinakula,Confirmed Eruption,1855 Aug,2,,Historical Observations,Unknown,-10.386,165.804,796 m,Solomon Islands,Stratovolcano,0,19,19,"20,155"
Karthala,Confirmed Eruption,1855 Jul 1,2,SE flank,Historical Observations,Unknown,-11.75,43.38,2361 m,Comoros,Shield,"225,379","225,379","278,330","399,067"
Avachinsky,Confirmed Eruption,1855 May 28,2,,Historical Observations,1855 Sep 4 ± 4 days,53.256,158.836,2717 m,Russia,Stratovolcano,0,0,"180,016","270,205"
Turrialba,Confirmed Eruption,1855 May,2,,Historical Observations,Unknown,10.025,-83.767,3340 m,Costa Rica,Stratovolcano,"1,891","6,867","672,428","3,390,544"
Gorely,Uncertain Eruption,1855 Apr,2,, ,[ Unknown ],52.559,158.03,1799 m,Russia,Caldera,0,0,19,"250,293"
Mayon,Confirmed Eruption,1855 Mar 22,2,,Historical Observations,Unknown,13.257,123.685,2462 m,Philippines,Stratovolcano,"4,350","248,448","1,166,441","4,142,375"
Io-Torishima,Confirmed Eruption,1855 Mar,2,,Historical Observations,1855 May,27.881,128.223,212 m,Japan,Complex,0,0,0,"52,818"
Tacana,Uncertain Eruption,1855 Jan 12,1,SW side, ,[ Unknown ],15.132,-92.109,4064 m,Mexico-Guatemala,Stratovolcano,"3,032","20,932","598,594","4,523,701"
Sinarka,Confirmed Eruption,1855,2,,Historical Observations,Unknown,48.873,154.182,911 m,Russia,Stratovolcano,0,3,3,57
Chyulu Hills,Confirmed Eruption,1855,2,Shaitani and Chaimu,Anthropology,Unknown,-2.68,37.88,2188 m,Kenya,Volcanic field,"14,889","14,889","91,280","1,784,980"
Tenduruk Dagi,Confirmed Eruption,1855,--,,Historical Observations,Unknown,39.356,43.874,3514 m,Turkey,Shield,550,"5,060","173,581","1,938,900"
Tongariro,Confirmed Eruption,1855,2,SSE flank (Red Crater),Historical Observations,Unknown,-39.157,175.632,1978 m,New Zealand,Stratovolcano(es),27,286,"7,591","81,567"
Osorno,Confirmed Eruption,1855,2,,Historical Observations,Unknown,-41.105,-72.496,2659 m,Chile,Stratovolcano,88,674,"11,964","655,492"
Fujisan,Uncertain Eruption,1854 Dec 23,--,, ,[ 1855 Jan 9 ],35.361,138.728,3776 m,Japan,Stratovolcano,570,"1,759","906,969","25,022,187"
Vesuvius,Confirmed Eruption,1854 Dec 14,3,Summit and upper N flank,Historical Observations,1855 May 27,40.821,14.426,1281 m,Italy,Stratovolcano,"19,162","675,705","3,907,941","6,009,961"
Cotopaxi,Confirmed Eruption,1854 Sep 14,2,,Historical Observations,Unknown,-0.677,-78.436,5911 m,Ecuador,Stratovolcano,251,"7,299","152,139","3,631,492"
Merapi,Uncertain Eruption,1854 Sep,--,, ,[ Unknown ],-7.54,110.446,2910 m,Indonesia,Stratovolcano,"49,205","185,849","4,348,473","24,728,414"
Karymsky,Confirmed Eruption,1854 Sep,2,,Historical Observations,Unknown,54.049,159.443,1513 m,Russia,Stratovolcano,0,0,291,"10,848"
Marapi,Confirmed Eruption,1854 Aug 29,2,,Historical Observations,Unknown,-0.38,100.474,2885 m,Indonesia,Complex,706,"57,453","818,039","4,059,773"
Avachinsky,Confirmed Eruption,1854 Aug 13,2,,Historical Observations,Unknown,53.256,158.836,2717 m,Russia,Stratovolcano,0,0,"180,016","270,205"
Hood,Uncertain Eruption,1854 Aug,--,, ,[ Unknown ],45.374,-121.695,3426 m,United States,Stratovolcano,0,850,"9,721","2,067,520"
Fuss Peak,Confirmed Eruption,1854 Jul 5,3,,Historical Observations,Unknown,50.267,155.246,1742 m,Russia,Stratovolcano,0,62,354,"1,891"
Alaid,Confirmed Eruption,1854 Jun 27,3,,Historical Observations,Unknown,50.861,155.565,2285 m,Russia,Stratovolcano,0,64,64,"2,887"
Chirpoi,Confirmed Eruption,1854 Jun 24,2,Snow (or Cherny),Historical Observations,Unknown,46.532,150.871,742 m,Russia,Caldera,1,1,3,491
Makian,Uncertain Eruption,1854 Jun 18,1,, ,[ 1854 Jun 18 ],0.32,127.4,1357 m,Indonesia,Stratovolcano,"4,986","8,466","21,360","441,768"
Izalco,Confirmed Eruption,1854 May 13,2,,Historical Observations,1854 Jun 8,13.813,-89.633,1950 m,El Salvador,Stratovolcano,937,"55,665","1,272,308","6,415,818"
Batur,Confirmed Eruption,1854 Apr 28,1,Batur I,Historical Observations,Unknown,-8.242,115.375,1717 m,Indonesia,Caldera,"466,899","466,899","937,766","4,289,189"
Cotopaxi,Confirmed Eruption,1854 Apr 3,2,,Historical Observations,Unknown,-0.677,-78.436,5911 m,Ecuador,Stratovolcano,251,"7,299","152,139","3,631,492"
Asosan,Confirmed Eruption,1854 Feb 26,2,Naka-dake,Historical Observations,Unknown,32.884,131.104,1592 m,Japan,Caldera,"75,559","75,559","234,591","6,507,519"
Sheveluch,Confirmed Eruption,1854 Feb 18,5,,Historical Observations,Unknown,56.653,161.36,3283 m,Russia,Stratovolcano,0,0,"1,718","11,613"
Llullaillaco,Confirmed Eruption,1854 Feb 10,2,,Historical Observations,Unknown,-24.72,-68.53,6739 m,Chile-Argentina,Stratovolcano,0,18,391,"9,859"
Momotombo,Confirmed Eruption,1854 Feb,2,,Historical Observations,1854 Mar,12.423,-86.539,1270 m,Nicaragua,Stratovolcano,100,"1,851","98,583","3,569,021"
St. Helens,Confirmed Eruption,1854 Feb,2,North flank,Historical Observations,1854 Apr,46.2,-122.18,2549 m,United States,Stratovolcano,78,427,"2,221","2,173,101"
Lascar,Confirmed Eruption,1854 Jan 20,1,Lascar or Aguas Calientes,Historical Observations,1854 Jan 30,-23.37,-67.73,5592 m,Chile,Stratovolcano(es),0,70,570,"8,119"
Unnamed,Confirmed Eruption,1854 Jan 15,0,,Historical Observations,Unknown,20.33,121.75,-24 m,Philippines,Submarine,1,214,"8,699","13,109"
Taranaki,Uncertain Eruption,1854,--,, ,[ Unknown ],-39.3,174.07,2518 m,New Zealand,Stratovolcano,200,230,"77,381","104,499"
Tofua,Confirmed Eruption,1854,2,,Historical Observations,Unknown,-19.75,-175.07,515 m,Tonga,Caldera,"1,556","1,556","1,556","8,789"
Late,Confirmed Eruption,1854,2,NE flank,Historical Observations,Unknown,-18.806,-174.65,540 m,Tonga,Stratovolcano,158,158,158,"17,190"
Rainier,Uncertain Eruption,1854,2,, ,[ Unknown ],46.853,-121.76,4392 m,United States,Stratovolcano,0,128,"3,187","2,667,609"
Baker,Confirmed Eruption,1854,2,Sherman Crater,Historical Observations,Unknown,48.777,-121.813,3285 m,United States,Stratovolcano(es),0,46,"8,568","1,990,504"
Niigata-Yakeyama,Confirmed Eruption,1854,--,NW flank,Historical Observations,Unknown,36.921,138.036,2400 m,Japan,Lava dome,73,610,"226,866","3,920,252"
Opala,Uncertain Eruption,1854,--,, ,[ Unknown ],52.543,157.339,2439 m,Russia,Caldera,22,22,50,"58,949"
Rincon de la Vieja,Confirmed Eruption,1854,2,,Historical Observations,1863 Aug,10.83,-85.324,1916 m,Costa Rica,Complex,271,"1,428","78,668","659,105"
San Miguel,Uncertain Eruption,1854,2,, ,[ Unknown ],13.434,-88.269,2130 m,El Salvador,Stratovolcano,"1,232","63,007","796,482","3,633,885"
Grimsvotn,Confirmed Eruption,1854,2,,Historical Observations,Unknown,64.416,-17.316,1719 m,Iceland,Caldera,0,0,0,"1,736"
Avachinsky,Confirmed Eruption,1853 Dec 21,2,,Historical Observations,1854 Mar 14,53.256,158.836,2717 m,Russia,Stratovolcano,0,0,"180,016","270,205"
Mutnovsky,Confirmed Eruption,1853 Dec 18,2,,Historical Observations,1854 Mar,52.449,158.196,2288 m,Russia,Complex,0,0,97,"250,858"
Chikurachki,Confirmed Eruption,1853 Dec,3,,Historical Observations,1859,50.324,155.461,1781 m,Russia,Stratovolcano(es),0,65,527,"2,492"
Kaba,Confirmed Eruption,1853 Nov,2,,Historical Observations,Unknown,-3.522,102.615,1940 m,Indonesia,Stratovolcano,278,"15,352","333,750","2,608,259"
Villarrica,Confirmed Eruption,1853 Nov,2,,Historical Observations,Unknown,-39.42,-71.93,2847 m,Chile,Stratovolcano,477,"1,067","35,118","667,788"
Kueishantao,Confirmed Eruption,1853 Oct 29,2,,Historical Observations,1853 Nov (?),24.841,121.953,361 m,Taiwan,Stratovolcano,1,"6,523","471,596","10,011,370"
Klyuchevskoy,Confirmed Eruption,1853 Oct,2,,Historical Observations,1854 Feb 17,56.056,160.642,4754 m,Russia,Stratovolcano,0,0,292,"12,406"
Cotopaxi,Confirmed Eruption,1853 Sep 13,3,,Historical Observations,1853 Sep 15,-0.677,-78.436,5911 m,Ecuador,Stratovolcano,251,"7,299","152,139","3,631,492"
Mayon,Confirmed Eruption,1853 Jul 13,3,,Historical Observations,1853 Aug 26,13.257,123.685,2462 m,Philippines,Stratovolcano,"4,350","248,448","1,166,441","4,142,375"
Three Sisters,Discredited Eruption,1853 Jul,--,, ,[ Unknown ],44.133,-121.767,3159 m,United States,Complex,0,0,"5,672","279,885"
Niuafo'ou,Confirmed Eruption,1853 Jun 24,0,SW caldera rim (Ahau village area),Historical Observations,1853 Jun 24 (?),-15.6,-175.63,260 m,Tonga,Shield,118,155,155,155
Atitlan,Confirmed Eruption,1853 May 3,3,,Historical Observations,Unknown,14.583,-91.186,3535 m,Guatemala,Stratovolcano(es),"2,303","70,431","664,649","8,029,695"
Toya,Confirmed Eruption,1853 Apr 22,4,O-Usu,Historical Observations,1853 Sep,42.544,140.839,733 m,Japan,Stratovolcano,"5,723","36,191","214,565","3,206,914"
Masaya,Confirmed Eruption,1853 Apr 9,1,Santiago,Historical Observations,1853 Sep 15 (in or after),11.985,-86.165,594 m,Nicaragua,Caldera,"989,888","989,888","1,914,707","2,926,954"
St. Helens,Confirmed Eruption,1853 Mar 15,2,North flank,Historical Observations,1853 Aug (?),46.2,-122.18,2549 m,United States,Stratovolcano,78,427,"2,221","2,173,101"
Gede-Pangrango,Confirmed Eruption,1853 Mar 14,3,,Historical Observations,1853 Mar 14,-6.77,106.965,3008 m,Indonesia,Stratovolcano(es),"2,500","154,390","2,315,469","40,640,105"
Lonquimay,Confirmed Eruption,1853 Feb,3,,Historical Observations,Unknown,-38.379,-71.586,2832 m,Chile,Stratovolcano,96,540,"13,635","504,320"
Dempo,Confirmed Eruption,1853 Jan 1,2,,Historical Observations,Unknown,-4.016,103.121,3142 m,Indonesia,Stratovolcano(es),124,"9,613","96,058","2,307,584"
Mutnovsky,Confirmed Eruption,1853 Jan,2,,Historical Observations,Unknown,52.449,158.196,2288 m,Russia,Complex,0,0,97,"250,858"
Hood,Uncertain Eruption,1853,--,, ,[ Unknown ],45.374,-121.695,3426 m,United States,Stratovolcano,0,850,"9,721","2,067,520"
Lascar,Uncertain Eruption,1853,2,, ,[ Unknown ],-23.37,-67.73,5592 m,Chile,Stratovolcano(es),0,70,570,"8,119"
Rincon de la Vieja,Confirmed Eruption,1853,2,,Historical Observations,Unknown,10.83,-85.324,1916 m,Costa Rica,Complex,271,"1,428","78,668","659,105"
Turrialba,Confirmed Eruption,1853,2,,Historical Observations,Unknown,10.025,-83.767,3340 m,Costa Rica,Stratovolcano,"1,891","6,867","672,428","3,390,544"
Baker,Confirmed Eruption,1852 Dec 1,2,Sherman Crater,Historical Observations,1853 Jan (?),48.777,-121.813,3285 m,United States,Stratovolcano(es),0,46,"8,568","1,990,504"
Cosiguina,Confirmed Eruption,1852 Dec,2,,Historical Observations,Unknown,12.98,-87.57,872 m,Nicaragua,Stratovolcano,143,"4,114","18,876","2,179,830"
Niigata-Yakeyama,Confirmed Eruption,1852 Nov 1,2,NW flank,Historical Observations,1853 May (?),36.921,138.036,2400 m,Japan,Lava dome,73,610,"226,866","3,920,252"
Antuco,Confirmed Eruption,1852 Nov,3,NE flank fissure and summit,Historical Observations,1853 Jan,-37.406,-71.349,2979 m,Chile,Stratovolcano,117,474,"3,872","381,623"
Lewotolok,Confirmed Eruption,1852 Oct 5,2,K2 crater,Historical Observations,1852 Oct 6,-8.274,123.508,1431 m,Indonesia,Stratovolcano,"4,390","10,032","159,023","695,083"
Etna,Confirmed Eruption,1852 Aug 20,2,East (Valle del Bove 1950-1700 m),Historical Observations,1853 May 27,37.748,14.999,3320 m,Italy,Stratovolcano(es),78,"3,291","1,016,540","3,052,770"
Klyuchevskoy,Confirmed Eruption,1852 Aug,2,,Historical Observations,Unknown,56.056,160.642,4754 m,Russia,Stratovolcano,0,0,292,"12,406"
Masaya,Confirmed Eruption,1852 Jun,2,Between Masaya and Nindirí Craters,Historical Observations,1852 Jul,11.985,-86.165,594 m,Nicaragua,Caldera,"989,888","989,888","1,914,707","2,926,954"
Gede-Pangrango,Confirmed Eruption,1852 May 28,2,,Historical Observations,1852 May 28,-6.77,106.965,3008 m,Indonesia,Stratovolcano(es),"2,500","154,390","2,315,469","40,640,105"
Maly Semyachik,Confirmed Eruption,1852 Apr 15,2,Ceno-Semiachik (Troitsky Crater),Historical Observations,1852 Jul,54.135,159.674,1527 m,Russia,Caldera,98,98,497,"10,182"
Mutnovsky,Confirmed Eruption,1852 Mar,2,,Historical Observations,Unknown,52.449,158.196,2288 m,Russia,Complex,0,0,97,"250,858"
Fogo,Confirmed Eruption,1852 Feb 19,2,NNW caldera floor,Historical Observations,1852 Mar 30 (?),14.95,-24.35,2829 m,Cape Verde,Stratovolcano,189,"13,254","37,650","267,298"
Mauna Loa,Confirmed Eruption,1852 Feb 17,2,NE rift zone (2560 m) and Mokuaweoweo,Historical Observations,1852 Mar 11 (?),19.475,-155.608,4170 m,United States,Shield,45,45,"1,906","175,315"
Klyuchevskoy,Confirmed Eruption,1852 Feb,2,,Historical Observations,1852 Mar,56.056,160.642,4754 m,Russia,Stratovolcano,0,0,292,"12,406"
Akutan,Confirmed Eruption,1852,--,NW flank (Lava Point),Historical Observations,Unknown,54.134,-165.986,1303 m,United States,Stratovolcano,0,24,233,"4,361"
Pavlof,Uncertain Eruption,1852,1,Upper north flank, ,[ Unknown ],55.417,-161.894,2493 m,United States,Stratovolcano,0,0,0,"3,002"
Veniaminof,Uncertain Eruption,1852,2,Western intracaldera cone, ,[ Unknown ],56.17,-159.38,2507 m,United States,Stratovolcano,0,0,0,542
Ugashik-Peulik,Uncertain Eruption,1852,--,Peulik, ,[ Unknown ],57.751,-156.368,1474 m,United States,Stratovolcano,0,0,0,102
Chiginagak,Discredited Eruption,1852,--,, ,[ Unknown ],57.135,-156.99,2221 m,United States,Stratovolcano,0,0,0,52
Atitlan,Uncertain Eruption,1852,2,, ,[ Unknown ],14.583,-91.186,3535 m,Guatemala,Stratovolcano(es),"2,303","70,431","664,649","8,029,695"
Popocatepetl,Uncertain Eruption,1852,1,, ,[ Unknown ],19.023,-98.622,5393 m,Mexico,Stratovolcano(es),325,"2,584","634,054","26,509,510"
Karymsky,Confirmed Eruption,1852,2,,Historical Observations,Unknown,54.049,159.443,1513 m,Russia,Stratovolcano,0,0,291,"10,848"
Sirung,Uncertain Eruption,1852,2,, ,[ Unknown ],-8.508,124.13,862 m,Indonesia,Complex,"5,966","19,334","69,744","418,756"
Bulusan,Uncertain Eruption,1852,--,, ,[ Unknown ],12.769,124.056,1535 m,Philippines,Stratovolcano(es),"2,789","74,286","518,705","3,360,418"
Cameroon,Confirmed Eruption,1852,2,West flank,Historical Observations,Unknown,4.203,9.17,4095 m,Cameroon,Stratovolcano,328,"26,053","417,460","3,079,036"
"Fournaise, Piton de la",Confirmed Eruption,1852,0,Brulant,Historical Observations,Unknown,-21.244,55.708,2632 m,France,Shield,"55,859","55,859","246,792","717,820"
Home Reef,Confirmed Eruption,1852,2,,Historical Observations,Unknown,-18.992,-174.775,-10 m,Tonga,Submarine,0,0,142,"21,334"
Lateiki,Uncertain Eruption,1852,0,, ,[ Unknown ],-19.18,-174.87,43 m,Tonga,Submarine,18,18,18,"7,907"
Barren Island,Uncertain Eruption,1852,2,, ,[ Unknown ],12.278,93.858,354 m,India,Stratovolcano,645,645,645,"5,035"
Momotombo,Confirmed Eruption,1852,2,,Historical Observations,Unknown,12.423,-86.539,1270 m,Nicaragua,Stratovolcano,100,"1,851","98,583","3,569,021"
Fuego,Uncertain Eruption,1852,2,, ,[ Unknown ],14.473,-90.88,3763 m,Guatemala,Stratovolcano(es),"1,373","54,332","1,016,339","7,677,809"
Cotopaxi,Confirmed Eruption,1852,2,,Historical Observations,Unknown,-0.677,-78.436,5911 m,Ecuador,Stratovolcano,251,"7,299","152,139","3,631,492"
Llaima,Confirmed Eruption,1852,2,,Historical Observations,1853,-38.692,-71.729,3125 m,Chile,Stratovolcano,86,811,"18,568","630,458"
Villarrica,Uncertain Eruption,1852,--,, ,[ Unknown ],-39.42,-71.93,2847 m,Chile,Stratovolcano,477,"1,067","35,118","667,788"
Osorno,Discredited Eruption,1852,--,, ,[ Unknown ],-41.105,-72.496,2659 m,Chile,Stratovolcano,88,674,"11,964","655,492"
Avachinsky,Confirmed Eruption,1851 Nov 26,2,,Historical Observations,1852 Feb 14 ± 4 days,53.256,158.836,2717 m,Russia,Stratovolcano,0,0,"180,016","270,205"
Maly Semyachik,Confirmed Eruption,1851 Sep,2,Ceno-Semiachik (Troitsky Crater),Historical Observations,Unknown,54.135,159.674,1527 m,Russia,Caldera,98,98,497,"10,182"
Mauna Loa,Confirmed Eruption,1851 Aug 8,0,Mokuaweoweo and SW rift zone,Historical Observations,1851 Aug 11 ± 1 days,19.475,-155.608,4170 m,United States,Shield,45,45,"1,906","175,315"
Pelee,Confirmed Eruption,1851 Aug 5,2,Upper Rivière Claire valley (900 m elevation),Historical Observations,1852 Feb 1 ± 30 days,14.809,-61.165,1394 m,France,Stratovolcano,251,"5,025","382,633","609,576"
Cotopaxi,Confirmed Eruption,1851 Jun,2,,Historical Observations,Unknown,-0.677,-78.436,5911 m,Ecuador,Stratovolcano,251,"7,299","152,139","3,631,492"
Mayon,Confirmed Eruption,1851 May 26,1,,Historical Observations,1851 Jun,13.257,123.685,2462 m,Philippines,Stratovolcano,"4,350","248,448","1,166,441","4,142,375"
Kelud,Confirmed Eruption,1851 Jan 24,2,,Historical Observations,Unknown,-7.935,112.314,1730 m,Indonesia,Stratovolcano,279,"50,901","2,087,876","24,999,627"
Semeru,Confirmed Eruption,1851 Jan,2,,Historical Observations,Unknown,-8.108,112.922,3657 m,Indonesia,Stratovolcano,"2,686","8,375","1,022,197","20,098,931"
Lateiki,Confirmed Eruption,1851,0,,Historical Observations,Unknown,-19.18,-174.87,43 m,Tonga,Submarine,18,18,18,"7,907"
"Fournaise, Piton de la",Confirmed Eruption,1851,0,"Brulant, l'Enclos Velain",Historical Observations,Unknown,-21.244,55.708,2632 m,France,Shield,"55,859","55,859","246,792","717,820"
Rincon de la Vieja,Uncertain Eruption,1851,--,, ,[ Unknown ],10.83,-85.324,1916 m,Costa Rica,Complex,271,"1,428","78,668","659,105"
Osorno,Confirmed Eruption,1851,2,,Historical Observations,Unknown,-41.105,-72.496,2659 m,Chile,Stratovolcano,88,674,"11,964","655,492"
Jan Mayen,Confirmed Eruption,1851,--,"Beerenberg (Kokssletta, NE flank)",Historical Observations,Unknown,71.082,-8.155,2197 m,Norway,Stratovolcano,0,0,0,0
"Fournaise, Piton de la",Confirmed Eruption,1850 Nov 3,0,,Historical Observations,1850 Nov 12,-21.244,55.708,2632 m,France,Shield,"55,859","55,859","246,792","717,820"
Lassen Volcanic Center,Discredited Eruption,1850 Aug,--,, ,[ 1851 ],40.492,-121.508,3187 m,United States,Stratovolcano,0,9,"2,340","439,135"
"Negro, Cerro",Confirmed Eruption,1850 Apr 13,2,,Historical Observations,1850 May 27,12.506,-86.702,728 m,Nicaragua,Pyroclastic cone(s),"1,690","10,243","296,320","3,540,933"
Baker,Uncertain Eruption,1850 Mar,--,Sherman Crater, ,[ Unknown ],48.777,-121.813,3285 m,United States,Stratovolcano(es),0,46,"8,568","1,990,504"
St. Helens,Confirmed Eruption,1850 Mar,2,North flank,Historical Observations,1850 May (?),46.2,-122.18,2549 m,United States,Stratovolcano,78,427,"2,221","2,173,101"
"Chichon, El",Confirmed Eruption,1850,--,,Anthropology,Unknown,17.36,-93.228,1150 m,Mexico,Lava dome(s),"3,759","11,000","143,015","3,570,632"
Kunlun Volcanic Group,Uncertain Eruption,1850,--,, ,[ Unknown ],35.52,80.2,5808 m,China,Pyroclastic cone(s),"1,253","1,253","3,212","22,621"
Karthala,Confirmed Eruption,1850,0,West-SW flank (400 m),Historical Observations,Unknown,-11.75,43.38,2361 m,Comoros,Shield,"225,379","225,379","278,330","399,067"
Harrat Ash Shaam,Discredited Eruption,1850,0,Es Safa, ,[ Unknown ],32.333,37.583,1100 m,Syria-Jordan-Saudi Arabia,Volcanic field,"276,996","276,996","276,996","276,996"
Rabaul,Confirmed Eruption,1850,2,Sulfur Creek,Historical Observations,Unknown,-4.271,152.203,688 m,Papua New Guinea,Pyroclastic shield,"3,311","43,531","199,361","252,121"
Unnamed,Confirmed Eruption,1850,0,,Historical Observations,Unknown,20.33,121.75,-24 m,Philippines,Submarine,1,214,"8,699","13,109"
Mombacho,Discredited Eruption,1850,--,, ,[ Unknown ],11.826,-85.968,1344 m,Nicaragua,Stratovolcano,656,"56,671","621,451","2,709,304"
Fuego,Uncertain Eruption,1850,2,, ,[ Unknown ],14.473,-90.88,3763 m,Guatemala,Stratovolcano(es),"1,373","54,332","1,016,339","7,677,809"
Izalco,Confirmed Eruption,1850,2,,Historical Observations,Unknown,13.813,-89.633,1950 m,El Salvador,Stratovolcano,937,"55,665","1,272,308","6,415,818"
Telica,Discredited Eruption,1850,--,, ,[ Unknown ],12.606,-86.84,1036 m,Nicaragua,Stratovolcano(es),"1,079","21,990","327,294","2,982,538"
Cotopaxi,Confirmed Eruption,1850,2,,Historical Observations,Unknown,-0.677,-78.436,5911 m,Ecuador,Stratovolcano,251,"7,299","152,139","3,631,492"
Puntiagudo-Cordon Cenizos,Confirmed Eruption,1850,--,Cordón Cenizos,Historical Observations,Unknown,-40.969,-72.264,2493 m,Chile,Stratovolcano,30,284,"5,666","698,814"
"Azul, Cerro",Confirmed Eruption,1850,--,,Surface Exposure,Unknown,-0.92,-91.408,1640 m,Ecuador,Shield,220,220,314,"1,936"
Paulet,Uncertain Eruption,1850,--,, ,[ Unknown ],-63.579,-55.78,353 m,Antarctica,Pyroclastic cone,0,0,0,0
Penguin Island,Confirmed Eruption,1850,--,Deacon Peak,Historical Observations,Unknown,-62.1,-57.93,180 m,Antarctica,Stratovolcano,0,0,0,0
Villarrica,Confirmed Eruption,1850,2,,Varve Count,Unknown,-39.42,-71.93,2847 m,Chile,Stratovolcano,477,"1,067","35,118","667,788"
Raung,Confirmed Eruption,1849 Dec 1,--,,Historical Observations,Unknown,-8.119,114.056,3260 m,Indonesia,Stratovolcano,152,572,"581,515","8,123,987"
Slamet,Confirmed Eruption,1849 Dec 1,2,,Historical Observations,Unknown,-7.242,109.208,3428 m,Indonesia,Stratovolcano,856,"13,401","2,904,026","20,217,467"
Gamalama,Confirmed Eruption,1849 Nov 27,2,,Historical Observations,1850 Nov 19,0.8,127.33,1715 m,Indonesia,Stratovolcano(es),"103,429","204,820","308,691","536,972"
Lewotolok,Confirmed Eruption,1849 Oct 6,2,,Historical Observations,Unknown,-8.274,123.508,1431 m,Indonesia,Stratovolcano,"4,390","10,032","159,023","695,083"
Wolf,Confirmed Eruption,1849 Sep 27,0,Volcano Uncertain: either Wolf or Darwin,Historical Observations,1849 Sep 27,0.02,-91.35,1710 m,Ecuador,Shield,165,165,237,"1,673"
Merapi,Confirmed Eruption,1849 Sep 14,3,,Historical Observations,1849 Sep 24,-7.54,110.446,2910 m,Indonesia,Stratovolcano,"49,205","185,849","4,348,473","24,728,414"
Lamongan,Confirmed Eruption,1849 Jun,2,Summit and north flank,Historical Observations,1849 Sep,-7.981,113.341,1641 m,Indonesia,Stratovolcano,"6,588","66,387","2,193,829","15,322,387"
Mauna Loa,Confirmed Eruption,1849 May,0,Mokuaweoweo,Historical Observations,Unknown,19.475,-155.608,4170 m,United States,Shield,45,45,"1,906","175,315"
Merapi,Confirmed Eruption,1849 Apr 26,2,,Historical Observations,1849 Apr 26,-7.54,110.446,2910 m,Indonesia,Stratovolcano,"49,205","185,849","4,348,473","24,728,414"
Semeru,Uncertain Eruption,1849,--,, ,[ Unknown ],-8.108,112.922,3657 m,Indonesia,Stratovolcano,"2,686","8,375","1,022,197","20,098,931"
Kelud,Uncertain Eruption,1849,--,, ,[ Unknown ],-7.935,112.314,1730 m,Indonesia,Stratovolcano,279,"50,901","2,087,876","24,999,627"
Batur,Confirmed Eruption,1849,2,,Historical Observations,Unknown,-8.242,115.375,1717 m,Indonesia,Caldera,"466,899","466,899","937,766","4,289,189"
Guntur,Discredited Eruption,1849,--,, ,[ Unknown ],-7.143,107.84,2249 m,Indonesia,Complex,"4,652","218,012","3,412,038","24,486,191"
"Fournaise, Piton de la",Confirmed Eruption,1849,0,,Historical Observations,Unknown,-21.244,55.708,2632 m,France,Shield,"55,859","55,859","246,792","717,820"
St. Helens,Uncertain Eruption,1849,2,North flank, ,[ Unknown ],46.2,-122.18,2549 m,United States,Stratovolcano,78,427,"2,221","2,173,101"
Milna,Confirmed Eruption,1849,2,Goriaschaia Sopka,Historical Observations,Unknown,46.815,151.786,1504 m,Russia,Stratovolcano,43,47,49,188
Rincon de la Vieja,Confirmed Eruption,1849,2,Volcano Uncertain: more likely Rincón de la Vieja than Orosí,Unknown,Unknown,10.83,-85.324,1916 m,Costa Rica,Complex,271,"1,428","78,668","659,105"
Momotombo,Confirmed Eruption,1849,2,,Historical Observations,Unknown,12.423,-86.539,1270 m,Nicaragua,Stratovolcano,100,"1,851","98,583","3,569,021"
Semeru,Confirmed Eruption,1848 Aug 4,2,,Historical Observations,Unknown,-8.108,112.922,3657 m,Indonesia,Stratovolcano,"2,686","8,375","1,022,197","20,098,931"
Kelud,Confirmed Eruption,1848 May 16,3,,Historical Observations,1848 May 17,-7.935,112.314,1730 m,Indonesia,Stratovolcano,279,"50,901","2,087,876","24,999,627"
Gede-Pangrango,Confirmed Eruption,1848 May 8,2,,Historical Observations,Unknown,-6.77,106.965,3008 m,Indonesia,Stratovolcano(es),"2,500","154,390","2,315,469","40,640,105"
Ritter Island,Uncertain Eruption,1848 Apr 13,--,, ,[ 1848 Jul 10 (?) ],-5.519,148.115,75 m,Papua New Guinea,Stratovolcano,3,43,"4,323","68,670"
St. Helens,Confirmed Eruption,1848 Apr 1,2,,Historical Observations,Unknown,46.2,-122.18,2549 m,United States,Stratovolcano,78,427,"2,221","2,173,101"
Akutan,Confirmed Eruption,1848 Mar 5,2,,Historical Observations,Unknown,54.134,-165.986,1303 m,United States,Stratovolcano,0,24,233,"4,361"
Semeru,Confirmed Eruption,1848 Feb,2,,Historical Observations,Unknown,-8.108,112.922,3657 m,Indonesia,Stratovolcano,"2,686","8,375","1,022,197","20,098,931"
Iwakisan,Uncertain Eruption,1848 Jan 18,2,, ,[ Unknown ],40.656,140.303,1625 m,Japan,Stratovolcano,918,"13,229","465,065","1,617,801"
Merapi,Uncertain Eruption,1848 Jan 8,--,, ,[ Unknown ],-7.54,110.446,2910 m,Indonesia,Stratovolcano,"49,205","185,849","4,348,473","24,728,414"
"Fournaise, Piton de la",Confirmed Eruption,1848,0,,Historical Observations,Unknown,-21.244,55.708,2632 m,France,Shield,"55,859","55,859","246,792","717,820"
Karthala,Confirmed Eruption,1848,0,SE flank,Historical Observations,Unknown,-11.75,43.38,2361 m,Comoros,Shield,"225,379","225,379","278,330","399,067"
Tomariyama [Golovnin],Confirmed Eruption,1848,1,Eastern explosion crater,Historical Observations,Unknown,43.844,145.504,535 m,Japan - administered by Russia,Caldera,"1,796","1,796","2,445","159,344"
Mutnovsky,Confirmed Eruption,1848,3,,Historical Observations,Unknown,52.449,158.196,2288 m,Russia,Complex,0,0,97,"250,858"
Kharimkotan,Confirmed Eruption,1848,2,Severgin,Historical Observations,Unknown,49.12,154.508,1145 m,Russia,Stratovolcano,2,2,4,22
Klyuchevskoy,Confirmed Eruption,1848,2,,Historical Observations,Unknown,56.056,160.642,4754 m,Russia,Stratovolcano,0,0,292,"12,406"
Socorro,Uncertain Eruption,1848,2,, ,[ Unknown ],18.78,-110.95,1050 m,Mexico,Shield,0,0,0,0
Lascar,Confirmed Eruption,1848,2,Lascar or Agua Calientes,Historical Observations,Unknown,-23.37,-67.73,5592 m,Chile,Stratovolcano(es),0,70,570,"8,119"
Antuco,Uncertain Eruption,1848,2,, ,[ Unknown ],-37.406,-71.349,2979 m,Chile,Stratovolcano,117,474,"3,872","381,623"
Dieng Volcanic Complex,Confirmed Eruption,1847 Dec 4,2,Pakuwaja,Historical Observations,Unknown,-7.2,109.879,2565 m,Indonesia,Complex,"1,092,929","1,092,929","1,886,942","24,381,814"
Purace,Confirmed Eruption,1847 Oct 27,3,,Historical Observations,1852,2.32,-76.4,4650 m,Colombia,Stratovolcano(es),"1,465","7,152","335,698","1,751,540"
Gede-Pangrango,Confirmed Eruption,1847 Oct 17,2,,Historical Observations,1847 Oct 18,-6.77,106.965,3008 m,Indonesia,Stratovolcano(es),"2,500","154,390","2,315,469","40,640,105"
Guntur,Confirmed Eruption,1847 Oct 16,2,,Historical Observations,1847 Oct 28,-7.143,107.84,2249 m,Indonesia,Complex,"4,652","218,012","3,412,038","24,486,191"
Lamongan,Confirmed Eruption,1847 Sep 25,2,,Historical Observations,Unknown,-7.981,113.341,1641 m,Indonesia,Stratovolcano,"6,588","66,387","2,193,829","15,322,387"
Gamalama,Confirmed Eruption,1847 Sep 7,--,,Historical Observations,1847 Sep 7,0.8,127.33,1715 m,Indonesia,Stratovolcano(es),"103,429","204,820","308,691","536,972"
Kao,Confirmed Eruption,1847 Jul 10,2,,Historical Observations,Unknown,-19.668,-175.016,1009 m,Tonga,Stratovolcano,236,"1,170","1,563","8,602"
Tofua,Confirmed Eruption,1847 Jul 10,1,,Historical Observations,Unknown,-19.75,-175.07,515 m,Tonga,Caldera,"1,556","1,556","1,556","8,789"
Irazu,Confirmed Eruption,1847 May 18,2,,Historical Observations,Unknown,9.979,-83.852,3432 m,Costa Rica,Stratovolcano,"1,978","25,442","1,667,528","3,432,860"
Fogo,Confirmed Eruption,1847 Apr 9,2,North caldera floor,Historical Observations,1847 May 2 (?),14.95,-24.35,2829 m,Cape Verde,Stratovolcano,189,"13,254","37,650","267,298"
Lamongan,Confirmed Eruption,1847 Mar 26,2,,Historical Observations,1847 Jun 26,-7.981,113.341,1641 m,Indonesia,Stratovolcano,"6,588","66,387","2,193,829","15,322,387"
St. Helens,Confirmed Eruption,1847 Mar 26,2,North flank (Goat Rocks),Historical Observations,1847 Mar 30,46.2,-122.18,2549 m,United States,Stratovolcano,78,427,"2,221","2,173,101"
Slamet,Confirmed Eruption,1847 Mar 20,2,,Historical Observations,Unknown,-7.242,109.208,3428 m,Indonesia,Stratovolcano,856,"13,401","2,904,026","20,217,467"
Gamalama,Confirmed Eruption,1847 Feb 7,2,,Historical Observations,1847 Feb 7,0.8,127.33,1715 m,Indonesia,Stratovolcano(es),"103,429","204,820","308,691","536,972"
"Tara, Batu",Confirmed Eruption,1847,2,,Historical Observations,1852 Aug 31 (in or after),-7.791,123.585,633 m,Indonesia,Stratovolcano,207,207,207,"455,429"
Batur,Uncertain Eruption,1847,--,, ,[ Unknown ],-8.242,115.375,1717 m,Indonesia,Caldera,"466,899","466,899","937,766","4,289,189"
"Fournaise, Piton de la",Confirmed Eruption,1847,0,,Historical Observations,Unknown,-21.244,55.708,2632 m,France,Shield,"55,859","55,859","246,792","717,820"
Turrialba,Uncertain Eruption,1847,--,, ,[ Unknown ],10.025,-83.767,3340 m,Costa Rica,Stratovolcano,"1,891","6,867","672,428","3,390,544"
"Azul, Cerro",Confirmed Eruption,1846 Nov 26,2,Quizapu,Historical Observations,1853 (?),-35.653,-70.761,3788 m,Chile,Stratovolcano,9,158,"3,832","720,948"
Esan,Confirmed Eruption,1846 Nov 18,1,Es-5 tephra,Historical Observations,Unknown,41.805,141.166,618 m,Japan,Lava dome(s),"1,734","5,831","33,197","916,560"
Fernandina,Confirmed Eruption,1846 Nov 6,0,East flank,Historical Observations,1846 Nov 24 (in or after),-0.37,-91.55,1476 m,Ecuador,Shield,129,129,208,"1,972"
Campi Flegrei del Mar di Sicilia,Confirmed Eruption,1846 Oct 4,2,Pinne,Historical Observations,1846 Oct 5,37.1,12.7,-8 m,Italy,Submarine,"230,578","230,578","230,578","633,350"
Rinjani,Confirmed Eruption,1846 Sep 10,2,Gunung Barujari,Historical Observations,1846 Sep 12,-8.42,116.47,3726 m,Indonesia,Stratovolcano,"10,289","55,594","1,374,441","3,555,330"
Merapi,Confirmed Eruption,1846 Sep 2,3,Summit and upper SE flank (2600 m),Historical Observations,1847 Oct,-7.54,110.446,2910 m,Indonesia,Stratovolcano,"49,205","185,849","4,348,473","24,728,414"
Serua,Confirmed Eruption,1846 Sep,2,,Historical Observations,Unknown,-6.312,130.017,608 m,Indonesia,Stratovolcano,58,58,58,258
Zubair Group,Uncertain Eruption,1846 Aug 14,2,Saddle Island, ,[ Unknown ],15.05,42.18,191 m,Yemen,Shield,7,7,7,"671,171"
Nasudake,Confirmed Eruption,1846 Aug,1,Chausu-dake,Historical Observations,Unknown,37.125,139.963,1915 m,Japan,Stratovolcano(es),639,"5,802","298,717","5,725,203"
Pavlof,Confirmed Eruption,1846 Aug,2,,Historical Observations,1846 Aug,55.417,-161.894,2493 m,United States,Stratovolcano,0,0,0,"3,002"
Fonualei,Confirmed Eruption,1846 Jun 11,4,,Historical Observations,1846 Oct 10 (in or after),-18.023,-174.317,188 m,Tonga,Stratovolcano,71,71,91,"17,857"
Tangkuban Parahu,Confirmed Eruption,1846 May 27,2,Kawah Ratu B,Historical Observations,Unknown,-6.77,107.6,2084 m,Indonesia,Stratovolcano,"100,608","518,822","5,729,309","32,855,731"
Gamalama,Confirmed Eruption,1846 May 19,2,,Historical Observations,1846 May 19,0.8,127.33,1715 m,Indonesia,Stratovolcano(es),"103,429","204,820","308,691","536,972"
Mayon,Confirmed Eruption,1846 May 11,3,,Historical Observations,1846 May 11,13.257,123.685,2462 m,Philippines,Stratovolcano,"4,350","248,448","1,166,441","4,142,375"
Merapi,Confirmed Eruption,1846 Apr 6,2,,Historical Observations,Unknown,-7.54,110.446,2910 m,Indonesia,Stratovolcano,"49,205","185,849","4,348,473","24,728,414"
Pacaya,Confirmed Eruption,1846 Feb,2,Cerro Chino,Historical Observations,Unknown,14.382,-90.601,2569 m,Guatemala,Complex,"4,250","53,579","2,454,482","7,033,094"
Mahawu,Confirmed Eruption,1846,2,,Historical Observations,Unknown,1.352,124.865,1299 m,Indonesia,Stratovolcano,"18,618","111,852","878,193","1,503,109"
"Fournaise, Piton de la",Confirmed Eruption,1846,0,,Historical Observations,Unknown,-21.244,55.708,2632 m,France,Shield,"55,859","55,859","246,792","717,820"
Baker,Uncertain Eruption,1846,--,, ,[ Unknown ],48.777,-121.813,3285 m,United States,Stratovolcano(es),0,46,"8,568","1,990,504"
"Orizaba, Pico de",Confirmed Eruption,1846,2,,Historical Observations,Unknown,19.03,-97.27,5564 m,Mexico,Stratovolcano,413,"4,469","759,747","5,962,920"
Izu-Oshima,Confirmed Eruption,1846,2,Mihara-yama,Historical Observations,Unknown,34.724,139.394,746 m,Japan,Stratovolcano,"2,381","8,037","8,375","11,837,468"
Rasshua,Confirmed Eruption,1846,3,Eastern cone ?,Historical Observations,Unknown,47.77,153.02,956 m,Russia,Stratovolcano,0,9,9,200
Kharimkotan,Confirmed Eruption,1846,2,Severgin,Historical Observations,Unknown,49.12,154.508,1145 m,Russia,Stratovolcano,2,2,4,22
Sinarka,Confirmed Eruption,1846,3,,Historical Observations,Unknown,48.873,154.182,911 m,Russia,Stratovolcano,0,3,3,57
Marapi,Confirmed Eruption,1845 Nov 16,2,,Historical Observations,1845 Nov 18,-0.38,100.474,2885 m,Indonesia,Complex,706,"57,453","818,039","4,059,773"
Hekla,Confirmed Eruption,1845 Sep 2,4,"Summit, SW and NE flanks",Historical Observations,1846 Apr 5 (?),63.983,-19.666,1490 m,Iceland,Stratovolcano,0,0,298,"22,845"
Pavlof,Confirmed Eruption,1845 Aug 12,2,,Historical Observations,Unknown,55.417,-161.894,2493 m,United States,Stratovolcano,0,0,0,"3,002"
Tofua,Confirmed Eruption,1845 Jul 1,0,,Historical Observations,Unknown,-19.75,-175.07,515 m,Tonga,Caldera,"1,556","1,556","1,556","8,789"
Gamalama,Uncertain Eruption,1845 Apr 23,1,, ,[ 1845 Sep 3 ],0.8,127.33,1715 m,Indonesia,Stratovolcano(es),"103,429","204,820","308,691","536,972"
Talang,Confirmed Eruption,1845 Apr 22,2,NE flank,Historical Observations,Unknown,-0.979,100.681,2575 m,Indonesia,Stratovolcano,"1,593","18,512","214,975","3,283,153"
Iwakisan,Confirmed Eruption,1845 Apr 4,2,,Historical Observations,Unknown,40.656,140.303,1625 m,Japan,Stratovolcano,918,"13,229","465,065","1,617,801"
Cotopaxi,Confirmed Eruption,1845 Apr,2,,Historical Observations,Unknown,-0.677,-78.436,5911 m,Ecuador,Stratovolcano,251,"7,299","152,139","3,631,492"
Antuco,Confirmed Eruption,1845 Feb 26,2,,Historical Observations,1845 Mar 1 (in or after),-37.406,-71.349,2979 m,Chile,Stratovolcano,117,474,"3,872","381,623"
"Ruiz, Nevado del",Confirmed Eruption,1845 Feb 19,3,"Arenas and La Olleta(?) craters, R1 tephra",Historical Observations,Unknown,4.892,-75.324,5279 m,Colombia,Stratovolcano,"3,849","20,146","507,608","4,252,435"
Soputan,Confirmed Eruption,1845 Feb 8,2,,Historical Observations,Unknown,1.112,124.737,1785 m,Indonesia,Stratovolcano,"4,724","69,991","501,336","1,696,768"
Gede-Pangrango,Confirmed Eruption,1845 Jan 23,2,,Historical Observations,1845 Mar 5,-6.77,106.965,3008 m,Indonesia,Stratovolcano(es),"2,500","154,390","2,315,469","40,640,105"
Mayon,Confirmed Eruption,1845 Jan 20,3,,Historical Observations,1845 Jan 30 ± 1 days,13.257,123.685,2462 m,Philippines,Stratovolcano,"4,350","248,448","1,166,441","4,142,375"
Semeru,Confirmed Eruption,1845 Jan,2,,Historical Observations,1845 Jul,-8.108,112.922,3657 m,Indonesia,Stratovolcano,"2,686","8,375","1,022,197","20,098,931"
Ambang,Confirmed Eruption,1845,--,,Historical Observations,Unknown,0.75,124.42,1795 m,Indonesia,Complex,"9,155","46,469","319,137","1,730,602"
Serua,Uncertain Eruption,1845,2,, ,[ Unknown ],-6.312,130.017,608 m,Indonesia,Stratovolcano,58,58,58,258
"Fournaise, Piton de la",Confirmed Eruption,1845,0,,Historical Observations,Unknown,-21.244,55.708,2632 m,France,Shield,"55,859","55,859","246,792","717,820"
Kolokol Group,Confirmed Eruption,1845,2,Berg,Historical Observations,1846,46.042,150.083,1328 m,Russia,Stratovolcano,2,2,128,375
Akutan,Uncertain Eruption,1845,--,, ,[ Unknown ],54.134,-165.986,1303 m,United States,Stratovolcano,0,24,233,"4,361"
Isanotski,Uncertain Eruption,1845,--,, ,[ Unknown ],54.765,-163.723,2446 m,United States,Stratovolcano,0,0,44,372
"Fournaise, Piton de la",Confirmed Eruption,1844 Dec,2,,Historical Observations,Unknown,-21.244,55.708,2632 m,France,Shield,"55,859","55,859","246,792","717,820"
Tengger Caldera,Confirmed Eruption,1844 Nov 9,2,Bromo,Historical Observations,Unknown,-7.942,112.95,2329 m,Indonesia,Stratovolcano(es),"27,826","69,451","1,420,878","22,628,278"
Tongariro,Confirmed Eruption,1844 Oct,2,Ngauruhoe,Historical Observations,1845 Jan,-39.157,175.632,1978 m,New Zealand,Stratovolcano(es),27,286,"7,591","81,567"
Semeru,Confirmed Eruption,1844 Sep 25,2,,Historical Observations,1844 Sep 27,-8.108,112.922,3657 m,Indonesia,Stratovolcano,"2,686","8,375","1,022,197","20,098,931"
Serua,Confirmed Eruption,1844 Aug,2,,Historical Observations,1844 Sep,-6.312,130.017,608 m,Indonesia,Stratovolcano,58,58,58,258
San Miguel,Confirmed Eruption,1844 Jul 25,2,NNW (1120 m) and upper east flanks,Historical Observations,1848,13.434,-88.269,2130 m,El Salvador,Stratovolcano,"1,232","63,007","796,482","3,633,885"
Izalco,Confirmed Eruption,1844 Jun,2,,Historical Observations,1844 Oct,13.813,-89.633,1950 m,El Salvador,Stratovolcano,937,"55,665","1,272,308","6,415,818"
Rincon de la Vieja,Confirmed Eruption,1844 May,2,Volcano Uncertain: more likely Rincón de la Vieja than Orosí,Unknown,Unknown,10.83,-85.324,1916 m,Costa Rica,Complex,271,"1,428","78,668","659,105"
Irazu,Uncertain Eruption,1844 May,2,, ,[ Unknown ],9.979,-83.852,3432 m,Costa Rica,Stratovolcano,"1,978","25,442","1,667,528","3,432,860"
Iya,Confirmed Eruption,1844 May,2,,Historical Observations,Unknown,-8.891,121.641,618 m,Indonesia,Stratovolcano,"10,837","46,835","62,974","535,387"
Iwakisan,Confirmed Eruption,1844 Apr 7,2,Summit and south flank?,Historical Observations,Unknown,40.656,140.303,1625 m,Japan,Stratovolcano,918,"13,229","465,065","1,617,801"
Gamalama,Uncertain Eruption,1844 Mar 24,1,, ,[ 1844 Nov 14 ],0.8,127.33,1715 m,Indonesia,Stratovolcano(es),"103,429","204,820","308,691","536,972"
"Fournaise, Piton de la",Confirmed Eruption,1844 Mar 19,2,Summit and Piton de Crac,Historical Observations,1844 May 11,-21.244,55.708,2632 m,France,Shield,"55,859","55,859","246,792","717,820"
Azumayama,Uncertain Eruption,1844,1,Issaikyo (Oana), ,[ Unknown ],37.735,140.244,1949 m,Japan,Stratovolcano(es),128,907,"548,195","4,877,648"
Makushin,Uncertain Eruption,1844,--,, ,[ Unknown ],53.891,-166.923,1800 m,United States,Stratovolcano,0,0,"3,437","3,850"
Korovin,Uncertain Eruption,1844,--,, ,[ Unknown ],52.381,-174.166,1518 m,United States,Stratovolcano(es),0,0,205,205
Reventador,Confirmed Eruption,1844,3,,Historical Observations,Unknown,-0.077,-77.656,3562 m,Ecuador,Stratovolcano,484,963,"4,403","2,619,647"
Cotopaxi,Confirmed Eruption,1844,2,,Historical Observations,Unknown,-0.677,-78.436,5911 m,Ecuador,Stratovolcano,251,"7,299","152,139","3,631,492"
"Negra, Sierra",Confirmed Eruption,1844,0,Volcano Uncertain: Isabela Island,Unknown,Unknown,-0.83,-91.17,1124 m,Ecuador,Shield,408,408,983,"9,884"
Reventador,Confirmed Eruption,1843 Dec 7,3,,Historical Observations,Unknown,-0.077,-77.656,3562 m,Ecuador,Stratovolcano,484,963,"4,403","2,619,647"
Guntur,Confirmed Eruption,1843 Nov 26,2,,Historical Observations,1843 Nov 26,-7.143,107.84,2249 m,Indonesia,Complex,"4,652","218,012","3,412,038","24,486,191"
Etna,Confirmed Eruption,1843 Nov 17,2,"West flank (2400-1900 m), Central Crater",Historical Observations,1843 Dec 16 (?),37.748,14.999,3320 m,Italy,Stratovolcano(es),78,"3,291","1,016,540","3,052,770"
Talang,Confirmed Eruption,1843 Oct 21,2,NE flank (some reports list 1842 date),Historical Observations,Unknown,-0.979,100.681,2575 m,Indonesia,Stratovolcano,"1,593","18,512","214,975","3,283,153"
Lamongan,Confirmed Eruption,1843 Aug,2,,Historical Observations,1844 Sep,-7.981,113.341,1641 m,Indonesia,Stratovolcano,"6,588","66,387","2,193,829","15,322,387"
Gede-Pangrango,Confirmed Eruption,1843 Jul 28,2,,Historical Observations,Unknown,-6.77,106.965,3008 m,Indonesia,Stratovolcano(es),"2,500","154,390","2,315,469","40,640,105"
Atitlan,Confirmed Eruption,1843 Jul,2,,Historical Observations,Unknown,14.583,-91.186,3535 m,Guatemala,Stratovolcano(es),"2,303","70,431","664,649","8,029,695"
Ketoi,Confirmed Eruption,1843 Jul,2,Pallas Peak,Historical Observations,1846,47.35,152.475,1172 m,Russia,Stratovolcano,1,10,11,90
Gamalama,Confirmed Eruption,1843 Apr 10,2,,Historical Observations,1843 May 27,0.8,127.33,1715 m,Indonesia,Stratovolcano(es),"103,429","204,820","308,691","536,972"
Liamuiga,Uncertain Eruption,1843 Feb 8,--,, ,[ Unknown ],17.37,-62.8,1156 m,Saint Kitts and Nevis,Stratovolcano,"2,009","7,285","35,138","141,136"
Mauna Loa,Confirmed Eruption,1843 Jan 9,0,"North flank, Mokuaweoweo and NE rift",Historical Observations,1843 Apr 10 (?),19.475,-155.608,4170 m,United States,Shield,45,45,"1,906","175,315"
Guntur,Confirmed Eruption,1843 Jan 4,3,,Historical Observations,1843 Jan 4,-7.143,107.84,2249 m,Indonesia,Complex,"4,652","218,012","3,412,038","24,486,191"
Tengger Caldera,Confirmed Eruption,1843 Jan,2,Bromo,Historical Observations,Unknown,-7.942,112.95,2329 m,Indonesia,Stratovolcano(es),"27,826","69,451","1,420,878","22,628,278"
Agung,Confirmed Eruption,1843,5,,Historical Observations,Unknown,-8.343,115.508,2997 m,Indonesia,Stratovolcano,"5,657","76,781","968,381","4,550,176"
Tangkoko-Duasudara,Confirmed Eruption,1843,2,Batu Angus,Historical Observations,1846,1.518,125.185,1334 m,Indonesia,Stratovolcano,445,"57,792","135,761","1,227,998"
Banahaw,Uncertain Eruption,1843,--,Banáhao, ,[ Unknown ],14.07,121.48,2158 m,Philippines,Complex,754,"93,134","1,698,285","23,837,289"
"Fournaise, Piton de la",Confirmed Eruption,1843,0,,Historical Observations,Unknown,-21.244,55.708,2632 m,France,Shield,"55,859","55,859","246,792","717,820"
Baker,Confirmed Eruption,1843,3,Sherman Crater,Historical Observations,Unknown,48.777,-121.813,3285 m,United States,Stratovolcano(es),0,46,"8,568","1,990,504"
Rainier,Uncertain Eruption,1843,2,, ,[ Unknown ],46.853,-121.76,4392 m,United States,Stratovolcano,0,128,"3,187","2,667,609"
Iliamna,Uncertain Eruption,1843,--,, ,[ Unknown ],60.032,-153.09,3053 m,United States,Stratovolcano,0,0,1,"7,564"
Chirippusan [Chirip],Confirmed Eruption,1843,2,,Historical Observations,Unknown,45.338,147.92,1587 m,Japan - administered by Russia,Stratovolcano(es),77,372,"1,125","4,810"
Reventador,Confirmed Eruption,1843,2,,Historical Observations,Unknown,-0.077,-77.656,3562 m,Ecuador,Stratovolcano,484,963,"4,403","2,619,647"
St. Helens,Confirmed Eruption,1842 Nov 22,3,North flank (Goat Rocks),Historical Observations,1845 Sep 18 (?),46.2,-122.18,2549 m,United States,Stratovolcano,78,427,"2,221","2,173,101"
Etna,Confirmed Eruption,1842 Nov 18,2,Central Crater (south & east slopes),Historical Observations,1842 Dec 29 (?),37.748,14.999,3320 m,Italy,Stratovolcano(es),78,"3,291","1,016,540","3,052,770"
Gamalama,Confirmed Eruption,1842 Oct 6,1,,Historical Observations,1842 Dec 31,0.8,127.33,1715 m,Indonesia,Stratovolcano(es),"103,429","204,820","308,691","536,972"
Milna,Confirmed Eruption,1842 Jun,3,Goriaschaia Sopka,Historical Observations,Unknown,46.815,151.786,1504 m,Russia,Stratovolcano,43,47,49,188
"Fournaise, Piton de la",Confirmed Eruption,1842 Apr,0,,Historical Observations,Unknown,-21.244,55.708,2632 m,France,Shield,"55,859","55,859","246,792","717,820"
Bagana,Confirmed Eruption,1842 Mar 15,1,,Historical Observations,Unknown,-6.137,155.196,1855 m,Papua New Guinea,Lava cone,198,404,"7,861","115,257"
Deception Island,Confirmed Eruption,1842 Feb,2,S caldera rim (flanks of Mt Kirkwood),Historical Observations,Unknown,-63.001,-60.652,602 m,Antarctica,Caldera,0,0,0,0
Tengger Caldera,Confirmed Eruption,1842 Jan 24,2,Bromo,Historical Observations,1842 Jun,-7.942,112.95,2329 m,Indonesia,Stratovolcano(es),"27,826","69,451","1,420,878","22,628,278"
Semeru,Confirmed Eruption,1842 Jan,2,,Historical Observations,1842 Mar,-8.108,112.922,3657 m,Indonesia,Stratovolcano,"2,686","8,375","1,022,197","20,098,931"
Tangkuban Parahu,Confirmed Eruption,1842,--,,Historical Observations,Unknown,-6.77,107.6,2084 m,Indonesia,Stratovolcano,"100,608","518,822","5,729,309","32,855,731"
Kerinci,Confirmed Eruption,1842,2,,Historical Observations,Unknown,-1.697,101.264,3800 m,Indonesia,Stratovolcano,304,"33,878","264,107","1,437,454"
Taal,Confirmed Eruption,1842,2,,Historical Observations,Unknown,14.002,120.993,311 m,Philippines,Caldera,"717,090","717,090","2,380,326","24,814,047"
Shishaldin,Confirmed Eruption,1842,2,,Historical Observations,Unknown,54.756,-163.97,2857 m,United States,Stratovolcano,0,0,10,197
Irazu,Confirmed Eruption,1842,2,,Historical Observations,Unknown,9.979,-83.852,3432 m,Costa Rica,Stratovolcano,"1,978","25,442","1,667,528","3,432,860"
Izalco,Confirmed Eruption,1842,2,,Historical Observations,Unknown,13.813,-89.633,1950 m,El Salvador,Stratovolcano,937,"55,665","1,272,308","6,415,818"
Planchon-Peteroa,Uncertain Eruption,1842,--,, ,[ Unknown ],-35.223,-70.568,3977 m,Chile,Stratovolcano(es),6,48,"1,345","634,959"
Guntur,Confirmed Eruption,1841 Nov 14,2,,Historical Observations,1841 Nov 14,-7.143,107.84,2249 m,Indonesia,Complex,"4,652","218,012","3,412,038","24,486,191"
Vesuvius,Confirmed Eruption,1841 Sep 20,2,"Summit, upper N and E flanks",Historical Observations,1850 Feb 16,40.821,14.426,1281 m,Italy,Stratovolcano,"19,162","675,705","3,907,941","6,009,961"
Lamongan,Confirmed Eruption,1841 Jul 16,2,,Historical Observations,1842 Aug,-7.981,113.341,1641 m,Indonesia,Stratovolcano,"6,588","66,387","2,193,829","15,322,387"
Kuchinoerabujima,Confirmed Eruption,1841 May 23,2,Shindake,Historical Observations,1841 Aug 1,30.443,130.217,657 m,Japan,Stratovolcano(es),"1,544","1,698","5,348","149,518"
Gamalama,Uncertain Eruption,1841 Mar 30,1,, ,[ 1841 Nov 20 ],0.8,127.33,1715 m,Indonesia,Stratovolcano(es),"103,429","204,820","308,691","536,972"
Hunter Island,Confirmed Eruption,1841 Mar 15,--,,Historical Observations,Unknown,-22.4,172.05,297 m,France,Stratovolcano,0,0,0,1
Erebus,Confirmed Eruption,1841 Jan 28,1,,Historical Observations,1841 Feb,-77.53,167.17,3794 m,Antarctica,Stratovolcano,0,0,0,0
Suretamatai,Uncertain Eruption,1841,--,, ,[ Unknown ],-13.8,167.47,921 m,Vanuatu,Complex,68,"3,509","5,555","9,242"
Tongariro,Confirmed Eruption,1841,2,Ngauruhoe,Historical Observations,Unknown,-39.157,175.632,1978 m,New Zealand,Stratovolcano(es),27,286,"7,591","81,567"
Villarrica,Confirmed Eruption,1841,2,,Varve Count,Unknown,-39.42,-71.93,2847 m,Chile,Stratovolcano,477,"1,067","35,118","667,788"
Gede-Pangrango,Confirmed Eruption,1840 Nov 12,3,,Historical Observations,1840 Dec 11,-6.77,106.965,3008 m,Indonesia,Stratovolcano(es),"2,500","154,390","2,315,469","40,640,105"
Ararat,Confirmed Eruption,1840 Jul 2,3,Upper northern flank,Historical Observations,Unknown,39.7,44.3,5165 m,Turkey,Stratovolcano,25,"1,239","135,563","2,811,646"
Kilauea,Confirmed Eruption,1840 May 30,0,East rift zone (230-950 m),Historical Observations,1840 Jun 25,19.421,-155.287,1222 m,United States,Shield,"3,122","3,122","8,495","169,550"
Guntur,Confirmed Eruption,1840 May 20,2,,Historical Observations,1840 May 24,-7.143,107.84,2249 m,Indonesia,Complex,"4,652","218,012","3,412,038","24,486,191"
Gamalama,Confirmed Eruption,1840 Feb 2,3,,Historical Observations,1840 Sep 29,0.8,127.33,1715 m,Indonesia,Stratovolcano(es),"103,429","204,820","308,691","536,972"
Ragang,Confirmed Eruption,1840 Jan 20,2,,Historical Observations,1840 Apr 5,7.691,124.507,2790 m,Philippines,Stratovolcano,447,"2,646","331,796","6,423,725"
Merapi,Confirmed Eruption,1840 Jan 4,1,,Historical Observations,Unknown,-7.54,110.446,2910 m,Indonesia,Stratovolcano,"49,205","185,849","4,348,473","24,728,414"
Ruang,Confirmed Eruption,1840,2,,Historical Observations,Unknown,2.3,125.37,725 m,Indonesia,Stratovolcano,878,"1,652","2,766","149,159"
Kuchinoerabujima,Confirmed Eruption,1840,2,Shindake,Historical Observations,Unknown,30.443,130.217,657 m,Japan,Stratovolcano(es),"1,544","1,698","5,348","149,518"
Niuafo'ou,Discredited Eruption,1840,--,, ,[ Unknown ],-15.6,-175.63,260 m,Tonga,Shield,118,155,155,155
Tinakula,Confirmed Eruption,1840,3,,Historical Observations,Unknown,-10.386,165.804,796 m,Solomon Islands,Stratovolcano,0,19,19,"20,155"
Southern EPR-Segment K,Confirmed Eruption,1840,0,North of Aldo-Kiri lava flow,Magnetism,Unknown,-17.436,-113.206,-2566 m,Undersea Features,Submarine,0,0,0,0
Klyuchevskoy,Confirmed Eruption,1840,2,,Historical Observations,Unknown,56.056,160.642,4754 m,Russia,Stratovolcano,0,0,292,"12,406"
Purace,Confirmed Eruption,1840,2,,Historical Observations,Unknown,2.32,-76.4,4650 m,Colombia,Stratovolcano(es),"1,465","7,152","335,698","1,751,540"
Midagahara,Confirmed Eruption,1839 Jun 10,2,Jigoku-dani,Historical Observations,Unknown,36.571,137.59,2621 m,Japan,Stratovolcano,401,521,"143,935","4,455,560"
Buckle Island,Confirmed Eruption,1839 Feb 9,2,,Historical Observations,Unknown,-66.78,163.25,1239 m,Antarctica,Stratovolcano,0,0,0,0
Tongariro,Confirmed Eruption,1839 Feb,1,Ngauruhoe,Historical Observations,1839 Mar,-39.157,175.632,1978 m,New Zealand,Stratovolcano(es),27,286,"7,591","81,567"
Gamalama,Confirmed Eruption,1839 Jan 29,2,,Historical Observations,1839 Mar 26,0.8,127.33,1715 m,Indonesia,Stratovolcano(es),"103,429","204,820","308,691","536,972"
"Telong, Bur ni",Confirmed Eruption,1839 Jan 12,2,,Historical Observations,1839 Jan 13,4.769,96.821,2617 m,Indonesia,Stratovolcano,"1,342","25,733","125,812","1,631,846"
Seulawah Agam,Confirmed Eruption,1839 Jan 12,2,NNE flank (van Heutsz crater),Historical Observations,1839 Jan 13,5.448,95.658,1810 m,Indonesia,Stratovolcano,226,"10,555","306,345","1,565,392"
Dempo,Confirmed Eruption,1839,2,,Historical Observations,Unknown,-4.016,103.121,3142 m,Indonesia,Stratovolcano(es),124,"9,613","96,058","2,307,584"
Gede-Pangrango,Uncertain Eruption,1839,--,, ,[ Unknown ],-6.77,106.965,3008 m,Indonesia,Stratovolcano(es),"2,500","154,390","2,315,469","40,640,105"
Mayon,Confirmed Eruption,1839,2,,Historical Observations,Unknown,13.257,123.685,2462 m,Philippines,Stratovolcano,"4,350","248,448","1,166,441","4,142,375"
Deception Island,Uncertain Eruption,1839,--,Crater Lake--Mt. Kirkwood area, ,[ Unknown ],-63.001,-60.652,602 m,Antarctica,Caldera,0,0,0,0
Antuco,Uncertain Eruption,1839,2,, ,[ Unknown ],-37.406,-71.349,2979 m,Chile,Stratovolcano,117,474,"3,872","381,623"
Cameroon,Confirmed Eruption,1838 Dec 31,2,Near Fako,Historical Observations,Unknown,4.203,9.17,4095 m,Cameroon,Stratovolcano,328,"26,053","417,460","3,079,036"
Lamongan,Confirmed Eruption,1838 Oct 18,2,,Historical Observations,Unknown,-7.981,113.341,1641 m,Indonesia,Stratovolcano,"6,588","66,387","2,193,829","15,322,387"
Veniaminof,Confirmed Eruption,1838 Aug 4,3,Western intracaldera cone,Historical Observations,1839 Apr,56.17,-159.38,2507 m,United States,Stratovolcano,0,0,0,542
Etna,Confirmed Eruption,1838 Jul 8,2,Central Crater,Historical Observations,1839 Feb,37.748,14.999,3320 m,Italy,Stratovolcano(es),78,"3,291","1,016,540","3,052,770"
Lamongan,Confirmed Eruption,1838 Jul 4,2,,Historical Observations,1838 Jul 6,-7.981,113.341,1641 m,Indonesia,Stratovolcano,"6,588","66,387","2,193,829","15,322,387"
Semeru,Confirmed Eruption,1838 Jul,2,,Historical Observations,1838 Oct 18,-8.108,112.922,3657 m,Indonesia,Stratovolcano,"2,686","8,375","1,022,197","20,098,931"
Kolbeinsey Ridge,Discredited Eruption,1838 Jun 11,--,, ,[ Unknown ],66.67,-18.5,5 m,Iceland,Submarine,0,0,282,"6,146"
Grimsvotn,Confirmed Eruption,1838 Jun,2,,Historical Observations,Unknown,64.416,-17.316,1719 m,Iceland,Caldera,0,0,0,"1,736"
Asosan,Confirmed Eruption,1838 Mar 4,2,Naka-dake,Historical Observations,Unknown,32.884,131.104,1592 m,Japan,Caldera,"75,559","75,559","234,591","6,507,519"
Gamalama,Confirmed Eruption,1838 Feb 26,2,,Historical Observations,1838 May,0.8,127.33,1715 m,Indonesia,Stratovolcano(es),"103,429","204,820","308,691","536,972"
Raung,Confirmed Eruption,1838,2,,Historical Observations,Unknown,-8.119,114.056,3260 m,Indonesia,Stratovolcano,152,572,"581,515","8,123,987"
Kaba,Uncertain Eruption,1838,--,, ,[ Unknown ],-3.522,102.615,1940 m,Indonesia,Stratovolcano,278,"15,352","333,750","2,608,259"
Kerinci,Confirmed Eruption,1838,2,,Historical Observations,Unknown,-1.697,101.264,3800 m,Indonesia,Stratovolcano,304,"33,878","264,107","1,437,454"
Pavlof,Confirmed Eruption,1838,1,,Historical Observations,Unknown,55.417,-161.894,2493 m,United States,Stratovolcano,0,0,0,"3,002"
Shishaldin,Confirmed Eruption,1838,2,,Historical Observations,Unknown,54.756,-163.97,2857 m,United States,Stratovolcano,0,0,10,197
Akutan,Uncertain Eruption,1838,--,, ,[ Unknown ],54.134,-165.986,1303 m,United States,Stratovolcano,0,24,233,"4,361"
Carlisle,Uncertain Eruption,1838,--,, ,[ Unknown ],52.894,-170.054,1620 m,United States,Stratovolcano,0,0,0,30
San Martin,Uncertain Eruption,1838,--,, ,[ Unknown ],18.57,-95.2,1650 m,Mexico,Shield,280,"3,581","259,640","1,645,811"
San Jose,Confirmed Eruption,1838,1,,Historical Observations,Unknown,-33.789,-69.895,6070 m,Chile-Argentina,Stratovolcano(es),194,616,"15,963","6,615,248"
Izalco,Confirmed Eruption,1838,2,,Historical Observations,1840,13.813,-89.633,1950 m,El Salvador,Stratovolcano,937,"55,665","1,272,308","6,415,818"
Poas,Uncertain Eruption,1838,2,, ,[ Unknown ],10.2,-84.233,2697 m,Costa Rica,Stratovolcano,"1,947","11,107","950,796","3,411,023"
Villarrica,Confirmed Eruption,1837 Nov 7,2,,Historical Observations,1837 Nov 21,-39.42,-71.93,2847 m,Chile,Stratovolcano,477,"1,067","35,118","667,788"
Osorno,Confirmed Eruption,1837 Nov 7,2,,Historical Observations,Unknown,-41.105,-72.496,2659 m,Chile,Stratovolcano,88,674,"11,964","655,492"
Asosan,Confirmed Eruption,1837 Oct 8,2,Naka-dake,Historical Observations,Unknown,32.884,131.104,1592 m,Japan,Caldera,"75,559","75,559","234,591","6,507,519"
"Telong, Bur ni",Confirmed Eruption,1837 Sep 25,2,,Historical Observations,Unknown,4.769,96.821,2617 m,Indonesia,Stratovolcano,"1,342","25,733","125,812","1,631,846"
Merapi,Confirmed Eruption,1837 Aug 10,2,,Historical Observations,1838 Jun,-7.54,110.446,2910 m,Indonesia,Stratovolcano,"49,205","185,849","4,348,473","24,728,414"
Atitlan,Confirmed Eruption,1837 Jun,2,,Historical Observations,Unknown,14.583,-91.186,3535 m,Guatemala,Stratovolcano(es),"2,303","70,431","664,649","8,029,695"
Planchon-Peteroa,Confirmed Eruption,1837 Feb,2,Peteroa,Historical Observations,Unknown,-35.223,-70.568,3977 m,Chile,Stratovolcano(es),6,48,"1,345","634,959"
Maipo,Uncertain Eruption,1837,--,, ,[ Unknown ],-34.164,-69.832,5323 m,Chile-Argentina,Caldera,"3,916","3,916","8,221","1,684,481"
Calbuco,Discredited Eruption,1837,--,, ,[ 1838 ],-41.33,-72.618,1974 m,Chile,Stratovolcano,70,871,"32,265","575,233"
Izu-Oshima,Uncertain Eruption,1837,2,Mihara-yama, ,[ 1838 ],34.724,139.394,746 m,Japan,Stratovolcano,"2,381","8,037","8,375","11,837,468"
Avachinsky,Uncertain Eruption,1837,--,, ,[ Unknown ],53.256,158.836,2717 m,Russia,Stratovolcano,0,0,"180,016","270,205"
Soufriere Guadeloupe,Confirmed Eruption,1836 Dec 3,2,SE to NW sides of summit dome,Historical Observations,1837 Feb 12,16.044,-61.664,1467 m,France,Stratovolcano,"8,839","71,345","256,899","482,449"
Romanche Fracture Zone,Uncertain Eruption,1836 Nov,0,0.58 S 15.83 W, ,[ Unknown ],-0.433,-19.596,-1528 m,Undersea Features,Submarine,0,0,0,0
Guntur,Confirmed Eruption,1836 Oct 11,2,,Historical Observations,Unknown,-7.143,107.84,2249 m,Indonesia,Complex,"4,652","218,012","3,412,038","24,486,191"
Semeru,Confirmed Eruption,1836 Aug 3,2,,Historical Observations,1836 Aug 5,-8.108,112.922,3657 m,Indonesia,Stratovolcano,"2,686","8,375","1,022,197","20,098,931"
Midagahara,Confirmed Eruption,1836 Jul 9,1,Jigoku-dani,Historical Observations,Unknown,36.571,137.59,2621 m,Japan,Stratovolcano,401,521,"143,935","4,455,560"
Ruang,Confirmed Eruption,1836 Apr 22,2,,Historical Observations,1836 Apr 24 (?),2.3,125.37,725 m,Indonesia,Stratovolcano,878,"1,652","2,766","149,159"
Whakaari/White Island,Confirmed Eruption,1836,2,,Historical Observations,Unknown,-37.52,177.18,294 m,New Zealand,Stratovolcano(es),5,5,5,"190,290"
Izalco,Confirmed Eruption,1836,2,,Historical Observations,Unknown,13.813,-89.633,1950 m,El Salvador,Stratovolcano,937,"55,665","1,272,308","6,415,818"
Galeras,Uncertain Eruption,1836,2,, ,[ Unknown ],1.22,-77.37,4276 m,Colombia,Complex,705,"120,817","630,777","1,700,248"
Villarrica,Confirmed Eruption,1836,2,,Varve Count,Unknown,-39.42,-71.93,2847 m,Chile,Stratovolcano,477,"1,067","35,118","667,788"
Corcovado,Uncertain Eruption,1835 Nov 11,2,, ,[ Unknown ],-43.189,-72.794,1826 m,Chile,Stratovolcano,5,67,"5,546","62,134"
Miyakejima,Confirmed Eruption,1835 Nov 11,2,West flank (east and SE of Ako),Historical Observations,Unknown,34.094,139.526,775 m,Japan,Stratovolcano,"1,848","3,189","3,474","95,663"
Banda Api,Uncertain Eruption,1835 Oct,--,, ,[ Unknown ],-4.523,129.881,596 m,Indonesia,Caldera,"5,682","5,682","5,810","5,810"
Slamet,Confirmed Eruption,1835 Sep,2,,Historical Observations,1835 Sep,-7.242,109.208,3428 m,Indonesia,Stratovolcano,856,"13,401","2,904,026","20,217,467"
Asosan,Confirmed Eruption,1835 May 1,2,Naka-dake,Historical Observations,Unknown,32.884,131.104,1592 m,Japan,Caldera,"75,559","75,559","234,591","6,507,519"
Banua Wuhu,Confirmed Eruption,1835 Apr 23,2,,Historical Observations,1835 Apr 26,3.138,125.491,-5 m,Indonesia,Submarine,359,480,"4,586","69,756"
St. Helens,Confirmed Eruption,1835 Mar,2,North flank (Goat Rocks area),Historical Observations,Unknown,46.2,-122.18,2549 m,United States,Stratovolcano,78,427,"2,221","2,173,101"
Michinmahuida,Confirmed Eruption,1835 Feb 20,0,,Historical Observations,1835 Mar 15 ± 5 days,-42.799,-72.445,2452 m,Chile,Stratovolcano,0,9,"7,989","64,498"
Yanteles,Uncertain Eruption,1835 Feb 20,--,, ,[ Unknown ],-43.469,-72.782,1790 m,Chile,Stratovolcano(es),0,85,"1,348","44,899"
Purace,Confirmed Eruption,1835 Jan 23,2,,Historical Observations,Unknown,2.32,-76.4,4650 m,Colombia,Stratovolcano(es),"1,465","7,152","335,698","1,751,540"
Cosiguina,Confirmed Eruption,1835 Jan 20,5,,Historical Observations,1835 Jan 25 (?),12.98,-87.57,872 m,Nicaragua,Stratovolcano,143,"4,114","18,876","2,179,830"
Gamalama,Confirmed Eruption,1835 Jan 4,2,,Historical Observations,Unknown,0.8,127.33,1715 m,Indonesia,Stratovolcano(es),"103,429","204,820","308,691","536,972"
Vesuvius,Confirmed Eruption,1835 Jan,3,"Summit, upper east and west flanks",Historical Observations,1839 Jan 3,40.821,14.426,1281 m,Italy,Stratovolcano,"19,162","675,705","3,907,941","6,009,961"
Hunter Island,Confirmed Eruption,1835,--,,Historical Observations,Unknown,-22.4,172.05,297 m,France,Stratovolcano,0,0,0,1
Savo,Confirmed Eruption,1835,3,,Historical Observations,1847 (?),-9.13,159.82,485 m,Solomon Islands,Stratovolcano,"3,200","3,200","6,251","174,571"
Yokoatejima,Confirmed Eruption,1835,2,,Historical Observations,Unknown,28.797,128.997,495 m,Japan,Stratovolcano(es),62,64,72,"72,351"
Kelud,Confirmed Eruption,1835,2,,Historical Observations,Unknown,-7.935,112.314,1730 m,Indonesia,Stratovolcano,279,"50,901","2,087,876","24,999,627"
Tengger Caldera,Confirmed Eruption,1835,2,Bromo,Historical Observations,Unknown,-7.942,112.95,2329 m,Indonesia,Stratovolcano(es),"27,826","69,451","1,420,878","22,628,278"
Hornopiren,Uncertain Eruption,1835,--,, ,[ Unknown ],-41.874,-72.431,1572 m,Chile,Stratovolcano,10,116,"5,345","332,598"
Maipo,Uncertain Eruption,1835,--,, ,[ Unknown ],-34.164,-69.832,5323 m,Chile-Argentina,Caldera,"3,916","3,916","8,221","1,684,481"
Planchon-Peteroa,Confirmed Eruption,1835,2,Peteroa,Historical Observations,Unknown,-35.223,-70.568,3977 m,Chile,Stratovolcano(es),6,48,"1,345","634,959"
Tupungatito,Uncertain Eruption,1835,2,, ,[ Unknown ],-33.425,-69.797,5660 m,Chile-Argentina,Stratovolcano,612,923,"6,161","6,169,105"
Guntur,Confirmed Eruption,1834 Dec,2,,Historical Observations,1835 Jan,-7.143,107.84,2249 m,Indonesia,Complex,"4,652","218,012","3,412,038","24,486,191"
Osorno,Confirmed Eruption,1834 Nov 29,3,Summit & SSW side (Negrillar de Ensenada),Historical Observations,1835 Feb 24 ± 4 days,-41.105,-72.496,2659 m,Chile,Stratovolcano,88,674,"11,964","655,492"
Michinmahuida,Confirmed Eruption,1834 Nov 25,2,,Historical Observations,Unknown,-42.799,-72.445,2452 m,Chile,Stratovolcano,0,9,"7,989","64,498"
Corcovado,Uncertain Eruption,1834 Nov,2,, ,[ Unknown ],-43.189,-72.794,1826 m,Chile,Stratovolcano,5,67,"5,546","62,134"
Kaba,Confirmed Eruption,1834 Nov,2,,Historical Observations,Unknown,-3.522,102.615,1940 m,Indonesia,Stratovolcano,278,"15,352","333,750","2,608,259"
Chokaisan,Confirmed Eruption,1834 Jul 9,2,,Historical Observations,1834 Jul,39.099,140.049,2236 m,Japan,Stratovolcano(es),131,707,"185,681","2,301,576"
Popocatepetl,Uncertain Eruption,1834,1,, ,[ Unknown ],19.023,-98.622,5393 m,Mexico,Stratovolcano(es),325,"2,584","634,054","26,509,510"
Mayon,Confirmed Eruption,1834,3,,Historical Observations,1835 May,13.257,123.685,2462 m,Philippines,Stratovolcano,"4,350","248,448","1,166,441","4,142,375"
Ragang,Confirmed Eruption,1834,2,,Historical Observations,Unknown,7.691,124.507,2790 m,Philippines,Stratovolcano,447,"2,646","331,796","6,423,725"
Poas,Confirmed Eruption,1834,2,,Historical Observations,Unknown,10.2,-84.233,2697 m,Costa Rica,Stratovolcano,"1,947","11,107","950,796","3,411,023"
Galeras,Confirmed Eruption,1834,2,,Historical Observations,Unknown,1.22,-77.37,4276 m,Colombia,Complex,705,"120,817","630,777","1,700,248"
"Tair, Jebel at",Confirmed Eruption,1833 Dec 31,2,,Historical Observations,Unknown,15.55,41.83,244 m,Yemen,Stratovolcano,0,0,0,"14,493"
Ebeko,Confirmed Eruption,1833 Dec 31,2,,Historical Observations,Unknown,50.686,156.014,1103 m,Russia,Stratovolcano,0,267,"1,076","3,098"
Kaba,Confirmed Eruption,1833 Nov 24,2,,Historical Observations,1833 Nov 25,-3.522,102.615,1940 m,Indonesia,Stratovolcano,278,"15,352","333,750","2,608,259"
Talang,Confirmed Eruption,1833 Oct,2,NE flank,Historical Observations,Unknown,-0.979,100.681,2575 m,Indonesia,Stratovolcano,"1,593","18,512","214,975","3,283,153"
Guntur,Confirmed Eruption,1833 Sep 1,2,,Historical Observations,Unknown,-7.143,107.84,2249 m,Indonesia,Complex,"4,652","218,012","3,412,038","24,486,191"
Gamalama,Confirmed Eruption,1833 Jun 15,2,,Historical Observations,Unknown,0.8,127.33,1715 m,Indonesia,Stratovolcano(es),"103,429","204,820","308,691","536,972"
Iwakisan,Uncertain Eruption,1833 Apr 11,2,, ,[ Unknown ],40.656,140.303,1625 m,Japan,Stratovolcano,918,"13,229","465,065","1,617,801"
Zaozan [Zaosan],Confirmed Eruption,1833,2,Okama,Historical Observations,Unknown,38.144,140.44,1841 m,Japan,Complex,632,"4,681","550,409","4,956,958"
Atitlan,Confirmed Eruption,1833,2,,Historical Observations,Unknown,14.583,-91.186,3535 m,Guatemala,Stratovolcano(es),"2,303","70,431","664,649","8,029,695"
Soputan,Confirmed Eruption,1833,2,,Historical Observations,Unknown,1.112,124.737,1785 m,Indonesia,Stratovolcano,"4,724","69,991","501,336","1,696,768"
Marapi,Confirmed Eruption,1833,2,,Historical Observations,1834,-0.38,100.474,2885 m,Indonesia,Complex,706,"57,453","818,039","4,059,773"
Karthala,Confirmed Eruption,1833,--,Summit caldera ?,Historical Observations,Unknown,-11.75,43.38,2361 m,Comoros,Shield,"225,379","225,379","278,330","399,067"
"Ruiz, Nevado del",Uncertain Eruption,1833,2,, ,[ Unknown ],4.892,-75.324,5279 m,Colombia,Stratovolcano,"3,849","20,146","507,608","4,252,435"
Maipo,Uncertain Eruption,1833,2,, ,[ Unknown ],-34.164,-69.832,5323 m,Chile-Argentina,Caldera,"3,916","3,916","8,221","1,684,481"
Merapi,Confirmed Eruption,1832 Dec 25,2,,Historical Observations,1836,-7.54,110.446,2910 m,Indonesia,Stratovolcano,"49,205","185,849","4,348,473","24,728,414"
Villarrica,Confirmed Eruption,1832 Dec 24,2,,Historical Observations,Unknown,-39.42,-71.93,2847 m,Chile,Stratovolcano,477,"1,067","35,118","667,788"
Etna,Confirmed Eruption,1832 Oct 31,2,"SSE, W flanks (3000-1700? m), Mt.  Nunziata",Historical Observations,1832 Nov 22,37.748,14.999,3320 m,Italy,Stratovolcano(es),78,"3,291","1,016,540","3,052,770"
Gede-Pangrango,Confirmed Eruption,1832 Aug 29,3,,Historical Observations,1832 Aug 29,-6.77,106.965,3008 m,Indonesia,Stratovolcano(es),"2,500","154,390","2,315,469","40,640,105"
Guntur,Confirmed Eruption,1832 Aug 8,2,,Historical Observations,1832 Aug 13,-7.143,107.84,2249 m,Indonesia,Complex,"4,652","218,012","3,412,038","24,486,191"
Mauna Loa,Confirmed Eruption,1832 Jun 20,0,Mokuaweoweo and adjacent vents,Historical Observations,1832 Jul 15 ± 7 days,19.475,-155.608,4170 m,United States,Shield,45,45,"1,906","175,315"
Kirishimayama,Confirmed Eruption,1832 Apr 20,2,Shinmoe-dake,Historical Observations,Unknown,31.934,130.862,1700 m,Japan,Shield,647,"8,415","407,050","3,972,044"
Semeru,Confirmed Eruption,1832 Apr 18,2,,Historical Observations,Unknown,-8.108,112.922,3657 m,Indonesia,Stratovolcano,"2,686","8,375","1,022,197","20,098,931"
"Fournaise, Piton de la",Confirmed Eruption,1832 Mar,0,L'Enclos and NE rift zone,Historical Observations,Unknown,-21.244,55.708,2632 m,France,Shield,"55,859","55,859","246,792","717,820"
Barren Island,Confirmed Eruption,1832 Mar,2,,Historical Observations,Unknown,12.278,93.858,354 m,India,Stratovolcano,645,645,645,"5,035"
Gorely,Confirmed Eruption,1832 Feb,3,,Historical Observations,Unknown,52.559,158.03,1799 m,Russia,Caldera,0,0,19,"250,293"
Guntur,Confirmed Eruption,1832 Jan 16,2,,Historical Observations,Unknown,-7.143,107.84,2249 m,Indonesia,Complex,"4,652","218,012","3,412,038","24,486,191"
Kilauea,Confirmed Eruption,1832 Jan 14,0,East rim of caldera (Byron's Ledge),Historical Observations,Unknown,19.421,-155.287,1222 m,United States,Shield,"3,122","3,122","8,495","169,550"
Zaozan [Zaosan],Confirmed Eruption,1831 Nov 22,2,Okama,Historical Observations,Unknown,38.144,140.44,1841 m,Japan,Complex,632,"4,681","550,409","4,956,958"
St. Helens,Confirmed Eruption,1831 Aug,3,North Flank (Goat Rocks area),Historical Observations,Unknown,46.2,-122.18,2549 m,United States,Stratovolcano,78,427,"2,221","2,173,101"
"Misti, El",Uncertain Eruption,1831 Aug,1,, ,[ Unknown ],-16.294,-71.409,5822 m,Peru,Stratovolcano,82,"1,507","918,280","1,052,408"
Campi Flegrei del Mar di Sicilia,Confirmed Eruption,1831 Jun 28,3,Giulia Ferdinandeo (Graham Island),Historical Observations,1831 Aug 11 ± 4 days,37.1,12.7,-8 m,Italy,Submarine,"230,578","230,578","230,578","633,350"
Gamalama,Confirmed Eruption,1831 May 27,2,,Historical Observations,1831 Jun 27,0.8,127.33,1715 m,Indonesia,Stratovolcano(es),"103,429","204,820","308,691","536,972"
Isanotski,Uncertain Eruption,1831 Mar,--,, ,[ 1831 May 6 ± 1 days ],54.765,-163.723,2446 m,United States,Stratovolcano,0,0,44,372
Maipo,Uncertain Eruption,1831 Feb 16,2,, ,[ Unknown ],-34.164,-69.832,5323 m,Chile-Argentina,Caldera,"3,916","3,916","8,221","1,684,481"
"Ruiz, Nevado del",Confirmed Eruption,1831,2,,Historical Observations,Unknown,4.892,-75.324,5279 m,Colombia,Stratovolcano,"3,849","20,146","507,608","4,252,435"
Guagua Pichincha,Confirmed Eruption,1831,3,,Historical Observations,Unknown,-0.171,-78.598,4784 m,Ecuador,Stratovolcano,449,"32,488","2,064,475","3,581,801"
Babuyan Claro,Uncertain Eruption,1831,4,Babuyan Claro, ,[ Unknown ],19.524,121.95,1064 m,Philippines,Stratovolcano(es),208,222,222,"11,819"
Paluweh,Uncertain Eruption,1831,--,, ,[ Unknown ],-8.32,121.708,875 m,Indonesia,Stratovolcano,446,446,"5,284","548,803"
Pantelleria,Uncertain Eruption,1831,--,Off the northern coast, ,[ Unknown ],36.77,12.02,836 m,Italy,Shield,"6,561","10,985","12,403","142,817"
Vulcano,Uncertain Eruption,1831,1,Fossa, ,[ Unknown ],38.404,14.962,500 m,Italy,Stratovolcano(es),"2,259","23,059","86,766","2,093,800"
Semeru,Confirmed Eruption,1830 Dec 15,2,,Historical Observations,1830 Dec 16,-8.108,112.922,3657 m,Indonesia,Stratovolcano,"2,686","8,375","1,022,197","20,098,931"
Tengger Caldera,Confirmed Eruption,1830 Dec 15,2,Bromo,Historical Observations,1830 Dec 16,-7.942,112.95,2329 m,Indonesia,Stratovolcano(es),"27,826","69,451","1,420,878","22,628,278"
Isanotski,Uncertain Eruption,1830 Nov,2,, ,[ Unknown ],54.765,-163.723,2446 m,United States,Stratovolcano,0,0,44,372
Shishaldin,Confirmed Eruption,1830 Nov,3,,Historical Observations,1830 Dec,54.756,-163.97,2857 m,United States,Stratovolcano,0,0,10,197
"Fournaise, Piton de la",Confirmed Eruption,1830 Oct,0,Cratere Faujas,Historical Observations,Unknown,-21.244,55.708,2632 m,France,Shield,"55,859","55,859","246,792","717,820"
Hodson,Uncertain Eruption,1830 Sep 22,--,, ,[ Unknown ],-56.712,-27.176,835 m,United Kingdom,Stratovolcano,0,0,0,0
Zavodovski,Uncertain Eruption,1830 Sep,1,, ,[ Unknown ],-56.3,-27.57,551 m,United Kingdom,Stratovolcano,0,0,0,0
Asosan,Confirmed Eruption,1830 Aug 11,2,Naka-dake,Historical Observations,1832 Aug,32.884,131.104,1592 m,Japan,Caldera,"75,559","75,559","234,591","6,507,519"
Fisher,Confirmed Eruption,1830 Aug,2,Mount Finch,Historical Observations,Unknown,54.65,-164.43,1112 m,United States,Stratovolcano,0,0,0,25
"Misti, El",Uncertain Eruption,1830 Aug,1,, ,[ Unknown ],-16.294,-71.409,5822 m,Peru,Stratovolcano,82,"1,507","918,280","1,052,408"
Reykjanes,Confirmed Eruption,1830 Mar 13,3,Reykjaneshryggur (Eldeyjarbodi),Historical Observations,1831 Mar (?),63.817,-22.717,140 m,Iceland,Crater rows,"13,995","13,995","15,542","192,922"
Tengger Caldera,Confirmed Eruption,1830 Mar 3,2,Bromo,Historical Observations,Unknown,-7.942,112.95,2329 m,Indonesia,Stratovolcano(es),"27,826","69,451","1,420,878","22,628,278"
