volcanoName,eruptionCertainty,startDate,maxVEI,activityArea,evidenceMethod,stopDate,latitude,longitude,volcanoHeight,country,primaryVolcanoType,population5km,population10km,population30km,population100km
Etna,Confirmed Eruption,1946 Feb,1,NE Crater,Historical Observations,1946 Oct,37.748,14.999,3320 m,Italy,Stratovolcano(es),78,"3,291","1,016,540","3,052,770"
Aira,Confirmed Eruption,1946 Jan,2,East flank of Minami-dake (750 m),Historical Observations,1946 Nov,31.593,130.657,1117 m,Japan,Caldera,"4,918","113,874","905,254","2,610,033"
Moyorodake [Medvezhia],Uncertain Eruption,1946,2,Kudriavy, ,[ Unknown ],45.389,148.838,1124 m,Japan - administered by Russia,Stratovolcano,11,42,600,"4,333"
Mageik,Uncertain Eruption,1946,2,, ,[ Unknown ],58.195,-155.253,2165 m,United States,Stratovolcano,0,0,0,376
"Chillan, Nevados de",Confirmed Eruption,1946,2,Volcán Nuevo,Historical Observations,1947,-36.868,-71.378,3180 m,Chile,Stratovolcano,68,371,"3,733","512,325"
Tupungatito,Confirmed Eruption,1946,2,,Historical Observations,1947,-33.425,-69.797,5660 m,Chile-Argentina,Stratovolcano,612,923,"6,161","6,169,105"
Kuchinoerabujima,Confirmed Eruption,1945 Nov 3,2,NNE-SSW fissure on E side of Shindake,Historical Observations,1945 Nov 3,30.443,130.217,657 m,Japan,Stratovolcano(es),"1,544","1,698","5,348","149,518"
Grimsvotn,Uncertain Eruption,1945 Sep 25,1,, ,[ Unknown ],64.416,-17.316,1719 m,Iceland,Caldera,0,0,0,"1,736"
Asosan,Confirmed Eruption,1945 Sep 16,2,Naka-dake,Historical Observations,1945 Sep 19,32.884,131.104,1592 m,Japan,Caldera,"75,559","75,559","234,591","6,507,519"
Karymsky,Confirmed Eruption,1945 Sep,2,,Historical Observations,Unknown,54.049,159.443,1513 m,Russia,Stratovolcano,0,0,291,"10,848"
Maly Semyachik,Confirmed Eruption,1945 Sep,2,Ceno-Semiachik (Toitsky Crater),Historical Observations,1946 Apr 15 ± 45 days,54.135,159.674,1527 m,Russia,Caldera,98,98,497,"10,182"
Mutnovsky,Confirmed Eruption,1945 Jun 23,2,,Historical Observations,Unknown,52.449,158.196,2288 m,Russia,Complex,0,0,97,"250,858"
Klyuchevskoy,Confirmed Eruption,1945 Jun 19,3,"SE flank (Yubileinoye, 1000-1450 m)",Historical Observations,1945 Jul 7,56.056,160.642,4754 m,Russia,Stratovolcano,0,0,292,"12,406"
Semeru,Confirmed Eruption,1945 Jun 12,2,Jonggring Seloko,Historical Observations,1945 Jun 18,-8.108,112.922,3657 m,Indonesia,Stratovolcano,"2,686","8,375","1,022,197","20,098,931"
Etna,Confirmed Eruption,1945 Jun 5,1,NE Crater,Historical Observations,1945 Oct,37.748,14.999,3320 m,Italy,Stratovolcano(es),78,"3,291","1,016,540","3,052,770"
Okmok,Confirmed Eruption,1945 Jun 4,2,SW part of caldera (Cone A),Historical Observations,1945 Dec,53.43,-168.13,1073 m,United States,Shield,0,0,0,4
"Fournaise, Piton de la",Confirmed Eruption,1945 Apr 15,2,SE flank near Nez Coupe du Tremblet,Historical Observations,1945 May 6,-21.244,55.708,2632 m,France,Shield,"55,859","55,859","246,792","717,820"
Llaima,Confirmed Eruption,1945 Mar 31,3,,Historical Observations,1945 Apr 3,-38.692,-71.729,3125 m,Chile,Stratovolcano,86,811,"18,568","630,458"
Ruapehu,Confirmed Eruption,1945 Mar 8,3,,Historical Observations,1945 Dec,-39.28,175.57,2797 m,New Zealand,Stratovolcano,14,298,"6,901","119,709"
Great Sitkin,Confirmed Eruption,1945 Mar,2,,Historical Observations,Unknown,52.076,-176.13,1740 m,United States,Stratovolcano,0,0,0,0
Avachinsky,Confirmed Eruption,1945 Feb 25,4,,Historical Observations,1945 Feb 25,53.256,158.836,2717 m,Russia,Stratovolcano,0,0,"180,016","270,205"
Lautaro,Confirmed Eruption,1945 Jan 15,1,,Historical Observations,Unknown,-49.019,-73.504,3542 m,Chile,Stratovolcano,0,0,46,"2,365"
Calbuco,Confirmed Eruption,1945,--,,Historical Observations,Unknown,-41.33,-72.618,1974 m,Chile,Stratovolcano,70,871,"32,265","575,233"
"Chillan, Nevados de",Uncertain Eruption,1945,--,Volcán Nuevo, ,[ Unknown ],-36.868,-71.378,3180 m,Chile,Stratovolcano,68,371,"3,733","512,325"
Bagana,Confirmed Eruption,1945,2,,Historical Observations,1947,-6.137,155.196,1855 m,Papua New Guinea,Lava cone,198,404,"7,861","115,257"
Krakatau,Confirmed Eruption,1945,2,Anak Krakatau,Historical Observations,Unknown,-6.102,105.423,155 m,Indonesia,Caldera,"7,177","7,177","8,027","6,326,159"
Rinjani,Confirmed Eruption,1944 Dec 25,2,NW flank of Barujari (Rombongan),Historical Observations,1945 Jan 1 (?),-8.42,116.47,3726 m,Indonesia,Stratovolcano,"10,289","55,594","1,374,441","3,555,330"
Klyuchevskoy,Confirmed Eruption,1944 Dec 9,3,,Historical Observations,1945 Jan 20 (in or after),56.056,160.642,4754 m,Russia,Stratovolcano,0,0,292,"12,406"
Dieng Volcanic Complex,Confirmed Eruption,1944 Dec 4,2,Sileri Crater,Historical Observations,Unknown,-7.2,109.879,2565 m,Indonesia,Complex,"1,092,929","1,092,929","1,886,942","24,381,814"
Fuego,Confirmed Eruption,1944 Dec 1,2,,Historical Observations,Unknown,14.473,-90.88,3763 m,Guatemala,Stratovolcano(es),"1,373","54,332","1,016,339","7,677,809"
Ioto,Confirmed Eruption,1944 Dec,1,North and west sides near the coast,Historical Observations,Unknown,24.751,141.289,169 m,Japan,Caldera,"1,179","1,179","1,189","1,370"
Kurikomayama,Confirmed Eruption,1944 Nov 20,1,,Historical Observations,1944 Dec,38.961,140.788,1627 m,Japan,Stratovolcano,226,"1,081","104,165","4,615,592"
Sheveluch,Confirmed Eruption,1944 Nov 5,2,Suelich,Historical Observations,1950 Apr 6,56.653,161.36,3283 m,Russia,Stratovolcano,0,0,"1,718","11,613"
Ruapehu,Confirmed Eruption,1944 Oct,2,,Historical Observations,Unknown,-39.28,175.57,2797 m,New Zealand,Stratovolcano,14,298,"6,901","119,709"
Esmeralda Bank,Uncertain Eruption,1944 Aug 20,0,, ,[ Unknown ],15,145.25,-43 m,United States,Submarine,0,0,0,"84,578"
Iliboleng,Confirmed Eruption,1944 Aug,2,,Historical Observations,1944 Oct,-8.342,123.258,1659 m,Indonesia,Stratovolcano,"30,359","87,503","260,688","757,701"
Shikotsu,Confirmed Eruption,1944 Jul 2,1,Tarumai,Historical Observations,1944 Jul 2,42.688,141.38,1320 m,Japan,Caldera,"130,474","130,474","316,816","3,096,376"
Raung,Confirmed Eruption,1944 Jun 30,2,,Historical Observations,1945 Apr 19,-8.119,114.056,3260 m,Indonesia,Stratovolcano,152,572,"581,515","8,123,987"
Toya,Confirmed Eruption,1944 Jun 23,2,Usu East flank (Showa-Shinzan),Historical Observations,1945 Sep 19,42.544,140.839,733 m,Japan,Stratovolcano,"5,723","36,191","214,565","3,206,914"
Cleveland,Confirmed Eruption,1944 Jun 10,3,,Historical Observations,1944 Jun 12,52.825,-169.944,1730 m,United States,Stratovolcano,0,0,0,9
Slamet,Confirmed Eruption,1944 May 9,2,,Historical Observations,1944 Oct 30,-7.242,109.208,3428 m,Indonesia,Stratovolcano,856,"13,401","2,904,026","20,217,467"
"Fournaise, Piton de la",Confirmed Eruption,1944 Apr 11,2,,Historical Observations,1944 May 1,-21.244,55.708,2632 m,France,Shield,"55,859","55,859","246,792","717,820"
Concepcion,Confirmed Eruption,1944 Apr,2,,Historical Observations,1945 Dec,11.538,-85.622,1700 m,Nicaragua,Stratovolcano,"14,072","28,900","92,378","2,266,903"
Veniaminof,Confirmed Eruption,1944 Mar 28,2,Western intracaldera cone,Historical Observations,Unknown,56.17,-159.38,2507 m,United States,Stratovolcano,0,0,0,542
Reventador,Confirmed Eruption,1944 Feb 24,3,,Historical Observations,1944 Mar 1,-0.077,-77.656,3562 m,Ecuador,Stratovolcano,484,963,"4,403","2,619,647"
Asamayama,Confirmed Eruption,1944 Jan,2,,Historical Observations,1945 Nov,36.406,138.523,2568 m,Japan,Complex,583,"22,371","457,576","7,629,353"
Milna,Uncertain Eruption,1944,2,Goriaschaia Sopka, ,[ Unknown ],46.815,151.786,1504 m,Russia,Stratovolcano,43,47,49,188
Bam,Confirmed Eruption,1944,2,,Historical Observations,Unknown,-3.613,144.818,685 m,Papua New Guinea,Stratovolcano,192,192,462,"103,203"
Monowai,Uncertain Eruption,1944,0,, ,[ Unknown ],-25.887,-177.188,-132 m,New Zealand,Submarine,0,0,0,0
Krakatau,Confirmed Eruption,1944,2,Anak Krakatau,Historical Observations,Unknown,-6.102,105.423,155 m,Indonesia,Caldera,"7,177","7,177","8,027","6,326,159"
Tungurahua,Uncertain Eruption,1944,2,, ,[ Unknown ],-1.467,-78.442,5023 m,Ecuador,Stratovolcano,476,"20,990","183,640","1,571,744"
Llaima,Confirmed Eruption,1944,2,,Historical Observations,Unknown,-38.692,-71.729,3125 m,Chile,Stratovolcano,86,811,"18,568","630,458"
Copahue,Confirmed Eruption,1944,--,,Historical Observations,Unknown,-37.856,-71.183,2953 m,Chile-Argentina,Stratovolcano,88,555,"3,042","138,414"
Asosan,Confirmed Eruption,1943 Dec 9,2,Naka-dake,Historical Observations,1944 Feb,32.884,131.104,1592 m,Japan,Caldera,"75,559","75,559","234,591","6,507,519"
Telica,Confirmed Eruption,1943 Dec,2,,Historical Observations,1944 Apr,12.606,-86.84,1036 m,Nicaragua,Stratovolcano(es),"1,079","21,990","327,294","2,982,538"
Rabaul,Confirmed Eruption,1943 Nov 24,2,Tavurvur,Historical Observations,1943 Dec 23 (in or after),-4.271,152.203,688 m,Papua New Guinea,Pyroclastic shield,"3,311","43,531","199,361","252,121"
Dieng Volcanic Complex,Confirmed Eruption,1943 Nov 3,1,Sileri Crater,Historical Observations,Unknown,-7.2,109.879,2565 m,Indonesia,Complex,"1,092,929","1,092,929","1,886,942","24,381,814"
Kick 'em Jenny,Confirmed Eruption,1943 Oct 5,0,,Hydrophonic,1943 Oct 6,12.3,-61.64,-185 m,Grenada,Submarine,0,"4,687","72,786","104,256"
Slamet,Confirmed Eruption,1943 Oct 2,2,,Historical Observations,1944 Jan 5,-7.242,109.208,3428 m,Indonesia,Stratovolcano,856,"13,401","2,904,026","20,217,467"
Niuafo'ou,Confirmed Eruption,1943 Sep 26,2,SW flank,Historical Observations,1943 Oct 16 ± 30 days,-15.6,-175.63,260 m,Tonga,Shield,118,155,155,155
Waiowa,Confirmed Eruption,1943 Sep 18,3,,Historical Observations,1944 Aug 31,-9.57,149.075,640 m,Papua New Guinea,Pyroclastic cone,61,338,"10,041","137,492"
Asosan,Confirmed Eruption,1943 Jun 21,2,Naka-dake,Historical Observations,1943 Jun 24,32.884,131.104,1592 m,Japan,Caldera,"75,559","75,559","234,591","6,507,519"
Okmok,Confirmed Eruption,1943 Jun,1,SW part of caldera (Cone A),Historical Observations,Unknown,53.43,-168.13,1073 m,United States,Shield,0,0,0,4
"Azul, Cerro",Confirmed Eruption,1943 Apr 13,3,Caldera ring fracture,Historical Observations,1943 May 11 (?),-0.92,-91.408,1640 m,Ecuador,Shield,220,220,314,"1,936"
Bagana,Confirmed Eruption,1943 Apr 7,1,,Historical Observations,Unknown,-6.137,155.196,1855 m,Papua New Guinea,Lava cone,198,404,"7,861","115,257"
"Fournaise, Piton de la",Confirmed Eruption,1943 Mar 30,2,"SE of Dolomieu, lower Grandes Pentes",Historical Observations,1943 May 26 ± 5 days,-21.244,55.708,2632 m,France,Shield,"55,859","55,859","246,792","717,820"
Slamet,Uncertain Eruption,1943 Mar 18,--,, ,[ Unknown ],-7.242,109.208,3428 m,Indonesia,Stratovolcano,856,"13,401","2,904,026","20,217,467"
Raung,Confirmed Eruption,1943 Mar 17,2,,Historical Observations,1943 Jun 18,-8.119,114.056,3260 m,Indonesia,Stratovolcano,152,572,"581,515","8,123,987"
"Tolima, Nevado del",Confirmed Eruption,1943 Mar,2,,Historical Observations,Unknown,4.658,-75.33,5215 m,Colombia,Stratovolcano,"1,660","6,563","441,916","4,258,333"
Michoacan-Guanajuato,Confirmed Eruption,1943 Feb 20,4,Parícutin,Historical Observations,1952 Feb 25,19.85,-101.75,3860 m,Mexico,Pyroclastic cone(s),"5,783,287","5,783,287","5,783,287","5,783,287"
Karymsky,Confirmed Eruption,1943 Feb 1,2,,Historical Observations,Unknown,54.049,159.443,1513 m,Russia,Stratovolcano,0,0,291,"10,848"
Farallon de Pajaros,Confirmed Eruption,1943,2,"Summit, south side",Historical Observations,Unknown,20.546,144.893,337 m,United States,Stratovolcano,0,0,0,0
St. Paul Island,Uncertain Eruption,1943,--,Several km SW of St. Paul, ,[ Unknown ],57.18,-170.3,203 m,United States,Shield,582,582,582,783
Krakatau,Confirmed Eruption,1943,2,Anak Krakatau,Historical Observations,Unknown,-6.102,105.423,155 m,Indonesia,Caldera,"7,177","7,177","8,027","6,326,159"
Marapi,Confirmed Eruption,1943,--,"Kepundan Kuniang, Kepundan Jinggo",Historical Observations,Unknown,-0.38,100.474,2885 m,Indonesia,Complex,706,"57,453","818,039","4,059,773"
Mayon,Confirmed Eruption,1943,1,,Historical Observations,Unknown,13.257,123.685,2462 m,Philippines,Stratovolcano,"4,350","248,448","1,166,441","4,142,375"
Long Island,Confirmed Eruption,1943,--,Motmot,Historical Observations,Unknown,-5.358,147.12,1280 m,Papua New Guinea,Complex,172,"2,023","4,017","78,803"
Hokkaido-Komagatake,Confirmed Eruption,1942 Nov 16,3,NW-SE 1.6-km fissure,Historical Observations,1942 Nov 18,42.063,140.677,1131 m,Japan,Stratovolcano,173,"23,091","234,213","962,081"
"Fournaise, Piton de la",Confirmed Eruption,1942 Oct 5,2,"Bory, rim of Dolomieu",Historical Observations,1942 Oct 25,-21.244,55.708,2632 m,France,Shield,"55,859","55,859","246,792","717,820"
Lokon-Empung,Confirmed Eruption,1942 Sep 3,2,Tompaluan,Historical Observations,Unknown,1.358,124.792,1580 m,Indonesia,Stratovolcano(es),"12,183","75,684","942,160","1,583,346"
Papandayan,Confirmed Eruption,1942 Aug 15,1,,Historical Observations,1942 Aug 16,-7.32,107.73,2665 m,Indonesia,Stratovolcano(es),"6,835","163,468","1,637,971","19,312,972"
Ruapehu,Confirmed Eruption,1942 Aug 10,2,,Historical Observations,Unknown,-39.28,175.57,2797 m,New Zealand,Stratovolcano,14,298,"6,901","119,709"
Aira,Confirmed Eruption,1942 Jul 16,1,East flank of Minami-dake (750 m),Historical Observations,1942 Jul 16,31.593,130.657,1117 m,Japan,Caldera,"4,918","113,874","905,254","2,610,033"
Etna,Confirmed Eruption,1942 Jun 30,2,SW flank (2780-2240 m),Historical Observations,1942 Jul 1,37.748,14.999,3320 m,Italy,Stratovolcano(es),78,"3,291","1,016,540","3,052,770"
Llaima,Confirmed Eruption,1942 Jun 9,2,,Historical Observations,1942 Nov,-38.692,-71.729,3125 m,Chile,Stratovolcano,86,811,"18,568","630,458"
Asosan,Uncertain Eruption,1942 Jun 8,1,Naka-dake, ,[ 1942 Jun 22 ],32.884,131.104,1592 m,Japan,Caldera,"75,559","75,559","234,591","6,507,519"
Ambrym,Confirmed Eruption,1942 Jun 6,2,NW flank of Benbow,Historical Observations,Unknown,-16.25,168.12,1334 m,Vanuatu,Pyroclastic shield,9,186,"10,826","63,999"
Merapi,Confirmed Eruption,1942 May 30,2,,Historical Observations,1945 May,-7.54,110.446,2910 m,Indonesia,Stratovolcano,"49,205","185,849","4,348,473","24,728,414"
Mauna Loa,Confirmed Eruption,1942 Apr 26,0,NE rift zone (2800 m) and Mokuaweoweo,Historical Observations,1942 May 10,19.475,-155.608,4170 m,United States,Shield,45,45,"1,906","175,315"
Cotopaxi,Uncertain Eruption,1942 Feb 17,3,, ,[ 1942 Feb 19 ],-0.677,-78.436,5911 m,Ecuador,Stratovolcano,251,"7,299","152,139","3,631,492"
Kusatsu-Shiranesan,Confirmed Eruption,1942 Feb 2,1,Fissure east and south of Yu-gama,Historical Observations,Unknown,36.618,138.528,2165 m,Japan,Stratovolcano(es),"4,485","14,296","434,049","5,947,593"
Krakatau,Confirmed Eruption,1942 Jan 29,2,Anak Krakatau,Historical Observations,1942 Jan 30,-6.102,105.423,155 m,Indonesia,Caldera,"7,177","7,177","8,027","6,326,159"
Langila,Uncertain Eruption,1942,1,Crater 2, ,[ Unknown ],-5.525,148.42,1330 m,Papua New Guinea,Complex,213,"3,653","11,641","45,698"
Kavachi,Confirmed Eruption,1942,1,,Historical Observations,Unknown,-8.991,157.979,-20 m,Solomon Islands,Submarine,6,6,802,"50,014"
Popocatepetl,Confirmed Eruption,1942,1,,Historical Observations,1943,19.023,-98.622,5393 m,Mexico,Stratovolcano(es),325,"2,584","634,054","26,509,510"
Aniakchak,Uncertain Eruption,1942,--,, ,[ Unknown ],56.88,-158.17,1341 m,United States,Caldera,0,0,36,479
Kanaga,Confirmed Eruption,1942,1,,Historical Observations,Unknown,51.923,-177.168,1307 m,United States,Stratovolcano,0,0,0,0
Raung,Confirmed Eruption,1941 Dec 13,2,,Historical Observations,Unknown,-8.119,114.056,3260 m,Indonesia,Stratovolcano,152,572,"581,515","8,123,987"
Karangetang,Confirmed Eruption,1941 Oct 30,2,,Historical Observations,1941 Oct 30,2.781,125.407,1797 m,Indonesia,Stratovolcano,892,"4,478","11,066","65,667"
Etna,Confirmed Eruption,1941 Oct,2,"Central Crater, NE Crater",Historical Observations,1944 Apr 26 ± 4 days,37.748,14.999,3320 m,Italy,Stratovolcano(es),78,"3,291","1,016,540","3,052,770"
Semeru,Confirmed Eruption,1941 Sep 21,2,ESE flank (1400-1775 m),Historical Observations,1942 Feb,-8.108,112.922,3657 m,Indonesia,Stratovolcano,"2,686","8,375","1,022,197","20,098,931"
Mayon,Confirmed Eruption,1941 Sep 13,1,,Historical Observations,Unknown,13.257,123.685,2462 m,Philippines,Stratovolcano,"4,350","248,448","1,166,441","4,142,375"
Ebulobo,Confirmed Eruption,1941 Aug 23,0,,Historical Observations,Unknown,-8.817,121.191,2096 m,Indonesia,Stratovolcano,"1,278","24,149","140,204","674,614"
Llaima,Confirmed Eruption,1941 Jun 23,2,,Historical Observations,Unknown,-38.692,-71.729,3125 m,Chile,Stratovolcano,86,811,"18,568","630,458"
Rabaul,Confirmed Eruption,1941 Jun 6,2,Tavurvur,Historical Observations,1942 Mar 31 ± 30 days,-4.271,152.203,688 m,Papua New Guinea,Pyroclastic shield,"3,311","43,531","199,361","252,121"
Iliwerung,Uncertain Eruption,1941 Jun 5,--,, ,[ Unknown ],-8.532,123.573,583 m,Indonesia,Complex,968,"4,318","79,569","665,081"
Rinjani,Uncertain Eruption,1941 May 30,--,Rinjani summit, ,[ Unknown ],-8.42,116.47,3726 m,Indonesia,Stratovolcano,"10,289","55,594","1,374,441","3,555,330"
Aira,Confirmed Eruption,1941 Apr 28,2,East flank of Minami-dake (750 m),Historical Observations,1941 Aug 26,31.593,130.657,1117 m,Japan,Caldera,"4,918","113,874","905,254","2,610,033"
Colima,Uncertain Eruption,1941 Apr 15,3,, ,[ Unknown ],19.514,-103.62,3850 m,Mexico,Stratovolcano(es),76,746,"303,490","1,494,790"
Grimsvotn,Uncertain Eruption,1941 Apr,0,, ,[ 1941 Aug ],64.416,-17.316,1719 m,Iceland,Caldera,0,0,0,"1,736"
Farallon de Pajaros,Confirmed Eruption,1941 Mar 28,--,,Historical Observations,Unknown,20.546,144.893,337 m,United States,Stratovolcano,0,0,0,0
Krakatau,Confirmed Eruption,1941 Jan 28,2,Anak Krakatau,Historical Observations,1941 Feb 12,-6.102,105.423,155 m,Indonesia,Caldera,"7,177","7,177","8,027","6,326,159"
Ulawun,Confirmed Eruption,1941 Jan 26,2,,Historical Observations,1941 Jan 26,-5.05,151.33,2334 m,Papua New Guinea,Stratovolcano,30,"1,801","10,577","61,018"
Kusatsu-Shiranesan,Confirmed Eruption,1941 Jan 19,1,,Historical Observations,1941 Jan 19,36.618,138.528,2165 m,Japan,Stratovolcano(es),"4,485","14,296","434,049","5,947,593"
Bam,Discredited Eruption,1941,--,, ,[ 1942 ],-3.613,144.818,685 m,Papua New Guinea,Stratovolcano,192,192,462,"103,203"
"Fournaise, Piton de la",Confirmed Eruption,1941,1,,Historical Observations,Unknown,-21.244,55.708,2632 m,France,Shield,"55,859","55,859","246,792","717,820"
San Jose,Discredited Eruption,1941,--,, ,[ Unknown ],-33.789,-69.895,6070 m,Chile-Argentina,Stratovolcano(es),194,616,"15,963","6,615,248"
Telica,Uncertain Eruption,1941,--,, ,[ Unknown ],12.606,-86.84,1036 m,Nicaragua,Stratovolcano(es),"1,079","21,990","327,294","2,982,538"
Poas,Confirmed Eruption,1941,1,,Historical Observations,1946,10.2,-84.233,2697 m,Costa Rica,Stratovolcano,"1,947","11,107","950,796","3,411,023"
Suwanosejima,Confirmed Eruption,1940 Nov 29,2,O-take,Historical Observations,Unknown,29.638,129.714,796 m,Japan,Stratovolcano(es),107,107,325,"1,966"
Tolbachik,Confirmed Eruption,1940 Nov,3,"Summit, SW flank (1950 m)",Historical Observations,1941 Jul 15 ± 45 days,55.832,160.326,3611 m,Russia,Shield,0,0,225,"10,487"
Tongariro,Confirmed Eruption,1940 Sep,2,Ngauruhoe,Historical Observations,1940 Oct,-39.157,175.632,1978 m,New Zealand,Stratovolcano(es),27,286,"7,591","81,567"
Izu-Oshima,Confirmed Eruption,1940 Aug 18,1,Mihara-yama,Historical Observations,1940 Aug 19,34.724,139.394,746 m,Japan,Stratovolcano,"2,381","8,037","8,375","11,837,468"
"Lengai, Ol Doinyo",Confirmed Eruption,1940 Jul 24,3,North Crater,Historical Observations,1941 Feb,-2.764,35.914,2962 m,Tanzania,Stratovolcano,186,"1,855","18,074","545,305"
Miyakejima,Confirmed Eruption,1940 Jul 12,3,"Oyama, NE flank",Historical Observations,1940 Aug 5,34.094,139.526,775 m,Japan,Stratovolcano,"1,848","3,189","3,474","95,663"
Dempo,Confirmed Eruption,1940 Jul,2,,Historical Observations,Unknown,-4.016,103.121,3142 m,Indonesia,Stratovolcano(es),124,"9,613","96,058","2,307,584"
Karangetang,Confirmed Eruption,1940 Jun 20,2,,Historical Observations,1940 Aug 23,2.781,125.407,1797 m,Indonesia,Stratovolcano,892,"4,478","11,066","65,667"
Telica,Confirmed Eruption,1940 Jun,2,,Historical Observations,1940 Oct,12.606,-86.84,1036 m,Nicaragua,Stratovolcano(es),"1,079","21,990","327,294","2,982,538"
Zaozan [Zaosan],Confirmed Eruption,1940 May 18,1,Okama,Historical Observations,1940 May 18,38.144,140.44,1841 m,Japan,Complex,632,"4,681","550,409","4,956,958"
Tengger Caldera,Confirmed Eruption,1940 Apr 25,2,Bromo,Historical Observations,1940 Jul 3 (in or after),-7.942,112.95,2329 m,Indonesia,Stratovolcano(es),"27,826","69,451","1,420,878","22,628,278"
Aira,Confirmed Eruption,1940 Apr 24,2,Minami-dake and east flank (750 m),Historical Observations,1940 Jul 9,31.593,130.657,1117 m,Japan,Caldera,"4,918","113,874","905,254","2,610,033"
Asosan,Confirmed Eruption,1940 Apr 20,2,Naka-dake,Historical Observations,1941 Aug 8,32.884,131.104,1592 m,Japan,Caldera,"75,559","75,559","234,591","6,507,519"
Kusatsu-Shiranesan,Confirmed Eruption,1940 Apr 7,1,,Historical Observations,1940 Sep 13,36.618,138.528,2165 m,Japan,Stratovolcano(es),"4,485","14,296","434,049","5,947,593"
Mauna Loa,Confirmed Eruption,1940 Apr 7,0,Mokuaweoweo and SW rift zone,Historical Observations,1940 Aug 18,19.475,-155.608,4170 m,United States,Shield,45,45,"1,906","175,315"
Ruang,Discredited Eruption,1940 Apr,--,, ,[ Unknown ],2.3,125.37,725 m,Indonesia,Stratovolcano,878,"1,652","2,766","149,159"
Ruapehu,Confirmed Eruption,1940 Apr,2,,Historical Observations,Unknown,-39.28,175.57,2797 m,New Zealand,Stratovolcano,14,298,"6,901","119,709"
Slamet,Confirmed Eruption,1940 Mar 15,2,,Historical Observations,1940 Apr 15,-7.242,109.208,3428 m,Indonesia,Stratovolcano,856,"13,401","2,904,026","20,217,467"
Karangetang,Confirmed Eruption,1940 Mar 1,2,,Historical Observations,1940 Mar 9,2.781,125.407,1797 m,Indonesia,Stratovolcano,892,"4,478","11,066","65,667"
Rabaul,Confirmed Eruption,1940 Feb 4,1,Tavurvur,Historical Observations,1940 May 18,-4.271,152.203,688 m,Papua New Guinea,Pyroclastic shield,"3,311","43,531","199,361","252,121"
Tolbachik,Confirmed Eruption,1940 Feb,2,,Historical Observations,1940 Apr,55.832,160.326,3611 m,Russia,Shield,0,0,225,"10,487"
Lonquimay,Uncertain Eruption,1940 Feb,--,, ,[ Unknown ],-38.379,-71.586,2832 m,Chile,Stratovolcano,96,540,"13,635","504,320"
Zhupanovsky,Confirmed Eruption,1940 Jan,2,,Historical Observations,1940 Feb,53.589,159.15,2899 m,Russia,Compound,0,0,153,"267,080"
Karymsky,Confirmed Eruption,1940,2,,Historical Observations,Unknown,54.049,159.443,1513 m,Russia,Stratovolcano,0,0,291,"10,848"
Kolokol Group,Confirmed Eruption,1940,--,Berg,Historical Observations,Unknown,46.042,150.083,1328 m,Russia,Stratovolcano,2,2,128,375
Erta Ale,Confirmed Eruption,1940,0,,Historical Observations,Unknown,13.6,40.67,613 m,Ethiopia,Shield,"2,685","2,796","8,857","235,083"
Raung,Confirmed Eruption,1940,2,,Historical Observations,Unknown,-8.119,114.056,3260 m,Indonesia,Stratovolcano,152,572,"581,515","8,123,987"
"Azul, Cerro",Confirmed Eruption,1940,0,East flank (Cerro de Las Animas),Historical Observations,Unknown,-0.92,-91.408,1640 m,Ecuador,Shield,220,220,314,"1,936"
Lascar,Confirmed Eruption,1940,2,,Historical Observations,Unknown,-23.37,-67.73,5592 m,Chile,Stratovolcano(es),0,70,570,"8,119"
Cotopaxi,Confirmed Eruption,1940,2,,Historical Observations,Unknown,-0.677,-78.436,5911 m,Ecuador,Stratovolcano,251,"7,299","152,139","3,631,492"
Dempo,Confirmed Eruption,1939 Dec 19,2,,Historical Observations,1940 Feb 21,-4.016,103.121,3142 m,Indonesia,Stratovolcano(es),124,"9,613","96,058","2,307,584"
Lewotobi,Confirmed Eruption,1939 Dec 17,2,Lewotobi Lakilaki,Historical Observations,1940 Apr 21,-8.542,122.775,1703 m,Indonesia,Stratovolcano(es),"18,686","59,084","284,976","906,184"
Merapi,Confirmed Eruption,1939 Dec 13,2,,Historical Observations,1940 Sep,-7.54,110.446,2910 m,Indonesia,Stratovolcano,"49,205","185,849","4,348,473","24,728,414"
Slamet,Confirmed Eruption,1939 Dec 4,2,,Historical Observations,1939 Dec 4,-7.242,109.208,3428 m,Indonesia,Stratovolcano,856,"13,401","2,904,026","20,217,467"
Kaba,Confirmed Eruption,1939 Nov 19,2,"Kaba Baru, Kaba Lama",Historical Observations,1941 Mar 14,-3.522,102.615,1940 m,Indonesia,Stratovolcano,278,"15,352","333,750","2,608,259"
Lopevi,Confirmed Eruption,1939 Nov 1,2,NW and/or SW flanks,Historical Observations,Unknown,-16.507,168.346,1413 m,Vanuatu,Stratovolcano,690,793,"7,942","50,310"
Veniaminof,Confirmed Eruption,1939 Nov,2,Western intracaldera cone,Historical Observations,Unknown,56.17,-159.38,2507 m,United States,Stratovolcano,0,0,0,542
Telica,Confirmed Eruption,1939 Nov,2,,Historical Observations,1939 Nov,12.606,-86.84,1036 m,Nicaragua,Stratovolcano(es),"1,079","21,990","327,294","2,982,538"
Aira,Confirmed Eruption,1939 Oct 26,2,East flank of Minami-dake (750 m),Historical Observations,1939 Nov 12 (?),31.593,130.657,1117 m,Japan,Caldera,"4,918","113,874","905,254","2,610,033"
Dieng Volcanic Complex,Confirmed Eruption,1939 Oct 13,1,Butak Petarangan,Historical Observations,1939 Oct 15,-7.2,109.879,2565 m,Indonesia,Complex,"1,092,929","1,092,929","1,886,942","24,381,814"
Biliran,Confirmed Eruption,1939 Sep 26,1,,Historical Observations,Unknown,11.523,124.535,1301 m,Philippines,Compound,"4,612","78,799","254,519","3,177,850"
Tolbachik,Confirmed Eruption,1939 Sep 25,2,,Historical Observations,1939 Sep 27,55.832,160.326,3611 m,Russia,Shield,0,0,225,"10,487"
Izu-Oshima,Confirmed Eruption,1939 Sep 1,1,Mihara-yama,Historical Observations,1939 Sep 16,34.724,139.394,746 m,Japan,Stratovolcano,"2,381","8,037","8,375","11,837,468"
Mayon,Confirmed Eruption,1939 Aug 21,1,,Historical Observations,Unknown,13.257,123.685,2462 m,Philippines,Stratovolcano,"4,350","248,448","1,166,441","4,142,375"
Santorini,Confirmed Eruption,1939 Aug 20,2,"Nea Kameni (Triton, Ktenas, Fouque domes)",Historical Observations,1941 Jul 2 ± 1 days,36.404,25.396,367 m,Greece,Shield(s),"5,176","12,266","12,336","67,468"
Izu-Torishima,Confirmed Eruption,1939 Aug 17,3,North side of 1902 crater (Iwo-yama),Historical Observations,1939 Dec 26 ± 5 days,30.484,140.303,394 m,Japan,Stratovolcano,21,21,21,21
Tongariro,Confirmed Eruption,1939 Aug,2,Ngauruhoe,Historical Observations,Unknown,-39.157,175.632,1978 m,New Zealand,Stratovolcano(es),27,286,"7,591","81,567"
Kick 'em Jenny,Confirmed Eruption,1939 Jul 24,1,,Historical Observations,1939 Jul 24,12.3,-61.64,-185 m,Grenada,Submarine,0,"4,687","72,786","104,256"
Dempo,Confirmed Eruption,1939 Jul 18,2,,Historical Observations,1939 Jul 30,-4.016,103.121,3142 m,Indonesia,Stratovolcano(es),124,"9,613","96,058","2,307,584"
Zaozan [Zaosan],Uncertain Eruption,1939 Jul,1,Okama, ,[ Unknown ],38.144,140.44,1841 m,Japan,Complex,632,"4,681","550,409","4,956,958"
Tengger Caldera,Confirmed Eruption,1939 Jun 24,2,Bromo,Historical Observations,1939 Jul,-7.942,112.95,2329 m,Indonesia,Stratovolcano(es),"27,826","69,451","1,420,878","22,628,278"
Yakedake,Confirmed Eruption,1939 Jun 4,2,,Historical Observations,1939 Jun 4,36.227,137.587,2455 m,Japan,Stratovolcano(es),995,"2,995","156,542","4,595,286"
Fonualei,Confirmed Eruption,1939 Jun,2,"Summit, west and SE sides",Historical Observations,Unknown,-18.023,-174.317,188 m,Tonga,Stratovolcano,71,71,91,"17,857"
Grimsvotn,Uncertain Eruption,1939 Jun,0,, ,[ Unknown ],64.416,-17.316,1719 m,Iceland,Caldera,0,0,0,"1,736"
Veniaminof,Confirmed Eruption,1939 May 23,3,Western intracaldera cone,Historical Observations,1939 Jun 26 (?),56.17,-159.38,2507 m,United States,Stratovolcano,0,0,0,542
Irazu,Confirmed Eruption,1939 May 18,2,,Historical Observations,1940 Feb,9.979,-83.852,3432 m,Costa Rica,Stratovolcano,"1,978","25,442","1,667,528","3,432,860"
San Miguel,Confirmed Eruption,1939 May,2,,Historical Observations,1939 Jul,13.434,-88.269,2130 m,El Salvador,Stratovolcano,"1,232","63,007","796,482","3,633,885"
Mutnovsky,Confirmed Eruption,1939 May,2,,Historical Observations,Unknown,52.449,158.196,2288 m,Russia,Complex,0,0,97,"250,858"
Kavachi,Confirmed Eruption,1939 Apr 30,2,,Historical Observations,Unknown,-8.991,157.979,-20 m,Solomon Islands,Submarine,6,6,802,"50,014"
Perbakti-Gagak,Confirmed Eruption,1939 Apr 6,1,Kawah Parabakti,Historical Observations,Unknown,-6.75,106.7,1699 m,Indonesia,Stratovolcano(es),"1,490","28,784","2,333,456","36,630,568"
Slamet,Confirmed Eruption,1939 Mar 29,2,,Historical Observations,1939 Jul 15,-7.242,109.208,3428 m,Indonesia,Stratovolcano,856,"13,401","2,904,026","20,217,467"
Lopevi,Confirmed Eruption,1939 Feb 2,2,NW and SE flanks,Historical Observations,Unknown,-16.507,168.346,1413 m,Vanuatu,Stratovolcano,690,793,"7,942","50,310"
Cotopaxi,Confirmed Eruption,1939 Feb 2,2,,Historical Observations,Unknown,-0.677,-78.436,5911 m,Ecuador,Stratovolcano,251,"7,299","152,139","3,631,492"
Izalco,Confirmed Eruption,1939 Feb,2,Summit and SSE flank,Historical Observations,1948 Feb,13.813,-89.633,1950 m,El Salvador,Stratovolcano,937,"55,665","1,272,308","6,415,818"
Kusatsu-Shiranesan,Confirmed Eruption,1939 Feb,1,Yu-gama,Historical Observations,1939 Aug 28 (?),36.618,138.528,2165 m,Japan,Stratovolcano(es),"4,485","14,296","434,049","5,947,593"
Izu-Oshima,Confirmed Eruption,1939 Feb,1,Mihara-yama,Historical Observations,1939 Feb,34.724,139.394,746 m,Japan,Stratovolcano,"2,381","8,037","8,375","11,837,468"
Bagana,Confirmed Eruption,1939 Jan 30,2,,Historical Observations,Unknown,-6.137,155.196,1855 m,Papua New Guinea,Lava cone,198,404,"7,861","115,257"
Telica,Confirmed Eruption,1939 Jan,2,,Historical Observations,1939 Jun,12.606,-86.84,1036 m,Nicaragua,Stratovolcano(es),"1,079","21,990","327,294","2,982,538"
Farallon de Pajaros,Confirmed Eruption,1939,2,East side ?,Historical Observations,Unknown,20.546,144.893,337 m,United States,Stratovolcano,0,0,0,0
Askja,Confirmed Eruption,1938 Dec 19,2,South shore of Öskjuvatn lake,Historical Observations,Unknown,65.033,-16.783,1080 m,Iceland,Stratovolcano,0,0,0,"13,028"
"Fournaise, Piton de la",Confirmed Eruption,1938 Dec 7,2,"ESE and SW flanks, Dolomieu",Historical Observations,1939 Jan 15,-21.244,55.708,2632 m,France,Shield,"55,859","55,859","246,792","717,820"
Villarrica,Confirmed Eruption,1938 Dec 1,2,,Historical Observations,1939 Feb 1 ± 30 days,-39.42,-71.93,2847 m,Chile,Stratovolcano,477,"1,067","35,118","667,788"
Llaima,Confirmed Eruption,1938 Dec,1,,Historical Observations,Unknown,-38.692,-71.729,3125 m,Chile,Stratovolcano,86,811,"18,568","630,458"
Perbakti-Gagak,Confirmed Eruption,1938 Dec,1,Kawah Parabakti,Historical Observations,Unknown,-6.75,106.7,1699 m,Indonesia,Stratovolcano(es),"1,490","28,784","2,333,456","36,630,568"
Mutnovsky,Confirmed Eruption,1938 Nov,2,,Historical Observations,Unknown,52.449,158.196,2288 m,Russia,Complex,0,0,97,"250,858"
Karymsky,Confirmed Eruption,1938 Oct,2,,Historical Observations,Unknown,54.049,159.443,1513 m,Russia,Stratovolcano,0,0,291,"10,848"
Makushin,Confirmed Eruption,1938 Oct,2,,Historical Observations,Unknown,53.891,-166.923,1800 m,United States,Stratovolcano,0,0,"3,437","3,850"
Gamalama,Confirmed Eruption,1938 Sep 8,2,,Historical Observations,1938 Sep 8,0.8,127.33,1715 m,Indonesia,Stratovolcano(es),"103,429","204,820","308,691","536,972"
Planchon-Peteroa,Confirmed Eruption,1938 Sep,2,Peteroa,Historical Observations,1938 Oct,-35.223,-70.568,3977 m,Chile,Stratovolcano(es),6,48,"1,345","634,959"
Raung,Confirmed Eruption,1938 Aug 13,2,,Historical Observations,1939 Jan 10 (in or after),-8.119,114.056,3260 m,Indonesia,Stratovolcano,152,572,"581,515","8,123,987"
Nemo Peak,Confirmed Eruption,1938 Aug 12,2,,Historical Observations,Unknown,49.57,154.808,1018 m,Russia,Caldera,15,15,46,582
Izu-Oshima,Confirmed Eruption,1938 Aug 11,1,Mihara-yama,Historical Observations,1938 Aug 11,34.724,139.394,746 m,Japan,Stratovolcano,"2,381","8,037","8,375","11,837,468"
"Fournaise, Piton de la",Confirmed Eruption,1938 Jul 25,1,,Historical Observations,1938 Jul 29,-21.244,55.708,2632 m,France,Shield,"55,859","55,859","246,792","717,820"
Kusatsu-Shiranesan,Confirmed Eruption,1938 Jul 17,1,Yu-gama,Historical Observations,1938 Oct 5 (?),36.618,138.528,2165 m,Japan,Stratovolcano(es),"4,485","14,296","434,049","5,947,593"
Akagisan,Uncertain Eruption,1938 Jul 16,--,, ,[ Unknown ],36.56,139.193,1828 m,Japan,Stratovolcano,961,"4,538","1,116,366","16,718,375"
Krakatau,Confirmed Eruption,1938 Jul 4,3,Anak Krakatau,Historical Observations,1940 Jul 2,-6.102,105.423,155 m,Indonesia,Caldera,"7,177","7,177","8,027","6,326,159"
Mayon,Confirmed Eruption,1938 Jun 5,2,,Historical Observations,Unknown,13.257,123.685,2462 m,Philippines,Stratovolcano,"4,350","248,448","1,166,441","4,142,375"
Bagana,Confirmed Eruption,1938 May 15,3,,Historical Observations,Unknown,-6.137,155.196,1855 m,Papua New Guinea,Lava cone,198,404,"7,861","115,257"
Kelimutu,Confirmed Eruption,1938 May,2,,Historical Observations,1938 Jun,-8.77,121.82,1639 m,Indonesia,Complex,746,"9,896","118,605","606,946"
Ebulobo,Confirmed Eruption,1938 May,--,,Historical Observations,1938 Jun,-8.817,121.191,2096 m,Indonesia,Stratovolcano,"1,278","24,149","140,204","674,614"
Grimsvotn,Confirmed Eruption,1938 May,1,8 km N of Svartibunki,Historical Observations,Unknown,64.416,-17.316,1719 m,Iceland,Caldera,0,0,0,"1,736"
Asamayama,Confirmed Eruption,1938 Mar 25,1,,Historical Observations,1942 Dec,36.406,138.523,2568 m,Japan,Complex,583,"22,371","457,576","7,629,353"
Suwanosejima,Confirmed Eruption,1938 Mar 11,2,O-take,Historical Observations,1938 Mar 11,29.638,129.714,796 m,Japan,Stratovolcano(es),107,107,325,"1,966"
Avachinsky,Confirmed Eruption,1938 Mar 6,3,,Historical Observations,1938 Dec 1 (in or after),53.256,158.836,2717 m,Russia,Stratovolcano,0,0,"180,016","270,205"
Aira,Confirmed Eruption,1938 Feb 25,2,Minami-dake,Historical Observations,1938 Mar 31,31.593,130.657,1117 m,Japan,Caldera,"4,918","113,874","905,254","2,610,033"
Villarrica,Uncertain Eruption,1938 Feb 11,1,, ,[ Unknown ],-39.42,-71.93,2847 m,Chile,Stratovolcano,477,"1,067","35,118","667,788"
San Pedro-San Pablo,Confirmed Eruption,1938 Feb,2,,Historical Observations,Unknown,-21.888,-68.391,6142 m,Chile,Stratovolcano(es),0,156,"2,349","150,795"
Salak,Confirmed Eruption,1938 Jan 31,2,Kawah Cikaluwung Putri,Historical Observations,Unknown,-6.72,106.73,2211 m,Indonesia,Stratovolcano,"1,367","80,578","2,675,904","38,154,252"
Nyamulagira,Confirmed Eruption,1938 Jan 28,1,"Summit, SE and SW flanks (Tshambene)",Historical Observations,1940 Jun 25 ± 5 days,-1.408,29.2,3058 m,DR Congo,Shield,"3,751","27,027","711,356","8,333,476"
Kerinci,Confirmed Eruption,1938 Jan 19,2,,Historical Observations,1938 Mar 18,-1.697,101.264,3800 m,Indonesia,Stratovolcano,304,"33,878","264,107","1,437,454"
Colo,Confirmed Eruption,1938,1,Gunung Colo,Historical Observations,Unknown,-0.162,121.601,404 m,Indonesia,Stratovolcano,"1,897","2,025","2,025","229,592"
Long Island,Confirmed Eruption,1938,--,Lake Wisdom,Historical Observations,Unknown,-5.358,147.12,1280 m,Papua New Guinea,Complex,172,"2,023","4,017","78,803"
Ambrym,Confirmed Eruption,1938,2,"Benbow, Marum ?",Historical Observations,Unknown,-16.25,168.12,1334 m,Vanuatu,Pyroclastic shield,9,186,"10,826","63,999"
Asosan,Confirmed Eruption,1938,2,Naka-dake,Historical Observations,1939 Aug 11,32.884,131.104,1592 m,Japan,Caldera,"75,559","75,559","234,591","6,507,519"
Okmok,Confirmed Eruption,1938,--,SW part of caldera (Cone A),Historical Observations,Unknown,53.43,-168.13,1073 m,United States,Shield,0,0,0,4
Cleveland,Confirmed Eruption,1938,--,,Historical Observations,Unknown,52.825,-169.944,1730 m,United States,Stratovolcano,0,0,0,9
Wolf,Confirmed Eruption,1938,--,,Historical Observations,Unknown,0.02,-91.35,1710 m,Ecuador,Shield,165,165,237,"1,673"
Kusatsu-Shiranesan,Confirmed Eruption,1937 Nov 27,1,Yu-gama,Historical Observations,1938 Feb 16 (?),36.618,138.528,2165 m,Japan,Stratovolcano(es),"4,485","14,296","434,049","5,947,593"
Yunaska,Confirmed Eruption,1937 Nov 3,3,,Historical Observations,1937 Nov 4,52.643,-170.629,550 m,United States,Shield,0,0,0,0
Telica,Confirmed Eruption,1937 Nov,2,,Historical Observations,1938 Aug,12.606,-86.84,1036 m,Nicaragua,Stratovolcano(es),"1,079","21,990","327,294","2,982,538"
Raung,Confirmed Eruption,1937 Oct 27,2,,Historical Observations,1937 Nov 27,-8.119,114.056,3260 m,Indonesia,Stratovolcano,152,572,"581,515","8,123,987"
Callaqui,Uncertain Eruption,1937 Sep 18,--,, ,[ Unknown ],-37.92,-71.45,3164 m,Chile,Stratovolcano,56,294,"4,354","400,426"
Kerinci,Confirmed Eruption,1937 Sep 8,2,,Historical Observations,Unknown,-1.697,101.264,3800 m,Indonesia,Stratovolcano,304,"33,878","264,107","1,437,454"
Talakmau,Uncertain Eruption,1937 Sep 8,1,, ,[ Unknown ],0.079,99.98,2919 m,Indonesia,Complex,75,"3,261","352,639","2,728,121"
Bagana,Confirmed Eruption,1937 Sep 7,3,,Historical Observations,Unknown,-6.137,155.196,1855 m,Papua New Guinea,Lava cone,198,404,"7,861","115,257"
"Fournaise, Piton de la",Confirmed Eruption,1937 Aug 13,2,"Bory, flanks of Bory and Dolomieu",Historical Observations,1937 Nov 25,-21.244,55.708,2632 m,France,Shield,"55,859","55,859","246,792","717,820"
Krakatau,Confirmed Eruption,1937 Aug 6,2,Anak Krakatau,Historical Observations,1937 Nov 23,-6.102,105.423,155 m,Indonesia,Caldera,"7,177","7,177","8,027","6,326,159"
Tacora,Uncertain Eruption,1937 Aug 5,--,, ,[ Unknown ],-17.72,-69.77,5980 m,Chile-Peru,Stratovolcano(es),7,539,"8,757","411,691"
Izu-Oshima,Confirmed Eruption,1937 Jul 17,0,Mihara-yama,Historical Observations,1937 Aug,34.724,139.394,746 m,Japan,Stratovolcano,"2,381","8,037","8,375","11,837,468"
Ciremai,Confirmed Eruption,1937 Jun 24,2,Floor and north wall of East Crater,Historical Observations,1938 Jan 7,-6.895,108.408,3039 m,Indonesia,Stratovolcano,915,"67,377","3,058,015","25,718,820"
Mocho-Choshuenco,Confirmed Eruption,1937 Jun 16,--,El Mocho,Historical Observations,Unknown,-39.927,-72.027,2422 m,Chile,Stratovolcano(es),81,789,"16,633","401,631"
Ubinas,Confirmed Eruption,1937 Jun,2,,Historical Observations,Unknown,-16.355,-70.903,5672 m,Peru,Stratovolcano,180,"1,195","14,607","1,136,785"
Rabaul,Confirmed Eruption,1937 May 29,4,Vulcan and Tavurvur,Historical Observations,1937 Jun 2,-4.271,152.203,688 m,Papua New Guinea,Pyroclastic shield,"3,311","43,531","199,361","252,121"
Asosan,Confirmed Eruption,1937 May 7,2,Naka-dake,Historical Observations,1937 May 13,32.884,131.104,1592 m,Japan,Caldera,"75,559","75,559","234,591","6,507,519"
Ulawun,Uncertain Eruption,1937 May,--,, ,[ Unknown ],-5.05,151.33,2334 m,Papua New Guinea,Stratovolcano,30,"1,801","10,577","61,018"
Klyuchevskoy,Confirmed Eruption,1937 Apr 3,3,"Summit, east flank (Bilyukai)",Historical Observations,1939 Mar,56.056,160.642,4754 m,Russia,Stratovolcano,0,0,292,"12,406"
Planchon-Peteroa,Confirmed Eruption,1937 Apr,2,Petoroa (south of 1889-94 crater),Historical Observations,1937 May 5 ± 4 days,-35.223,-70.568,3977 m,Chile,Stratovolcano(es),6,48,"1,345","634,959"
Ambrym,Confirmed Eruption,1937 Mar 27,2,Benbow and west flank,Historical Observations,1937 Apr,-16.25,168.12,1334 m,Vanuatu,Pyroclastic shield,9,186,"10,826","63,999"
Hokkaido-Komagatake,Confirmed Eruption,1937 Mar 17,1,,Historical Observations,1937 Mar 19,42.063,140.677,1131 m,Japan,Stratovolcano,173,"23,091","234,213","962,081"
Fernandina,Confirmed Eruption,1937 Mar,0,,Historical Observations,1937 Apr,-0.37,-91.55,1476 m,Ecuador,Shield,129,129,208,"1,972"
Llaima,Confirmed Eruption,1937 Feb 9,2,,Historical Observations,1937 Nov 2,-38.692,-71.729,3125 m,Chile,Stratovolcano,86,811,"18,568","630,458"
Asosan,Confirmed Eruption,1937 Jan 13,2,Naka-dake,Historical Observations,1937 Jan 13,32.884,131.104,1592 m,Japan,Caldera,"75,559","75,559","234,591","6,507,519"
Tongariro,Confirmed Eruption,1937 Jan,2,Ngauruhoe,Historical Observations,Unknown,-39.157,175.632,1978 m,New Zealand,Stratovolcano(es),27,286,"7,591","81,567"
Hunga Tonga-Hunga Ha'apai,Confirmed Eruption,1937,2,,Historical Observations,Unknown,-20.536,-175.382,114 m,Tonga,Submarine,230,230,532,"86,213"
"Dhamar, Harras of",Confirmed Eruption,1937,2,Near the town of Dhamar,Historical Observations,Unknown,14.57,44.67,3500 m,Yemen,Volcanic field,"791,276","791,276","791,276","5,778,965"
Slamet,Confirmed Eruption,1937,--,,Historical Observations,Unknown,-7.242,109.208,3428 m,Indonesia,Stratovolcano,856,"13,401","2,904,026","20,217,467"
"Telong, Bur ni",Confirmed Eruption,1937,--,,Historical Observations,Unknown,4.769,96.821,2617 m,Indonesia,Stratovolcano,"1,342","25,733","125,812","1,631,846"
Kita-Fukutokutai,Uncertain Eruption,1937,0,, ,[ Unknown ],24.417,141.417,-73 m,Japan,Submarine,0,0,23,"1,209"
Copahue,Confirmed Eruption,1937,2,,Historical Observations,Unknown,-37.856,-71.183,2953 m,Chile-Argentina,Stratovolcano,88,555,"3,042","138,414"
Izalco,Confirmed Eruption,1937,2,,Historical Observations,1938 (?),13.813,-89.633,1950 m,El Salvador,Stratovolcano,937,"55,665","1,272,308","6,415,818"
Bristol Island,Confirmed Eruption,1936 Dec 18,2,,Historical Observations,1937 Jan 1 (?),-59.017,-26.533,1100 m,United Kingdom,Stratovolcano,0,0,0,0
Dempo,Confirmed Eruption,1936 Nov 26,2,,Historical Observations,1936 Nov 27,-4.016,103.121,3142 m,Indonesia,Stratovolcano(es),124,"9,613","96,058","2,307,584"
Shikotsu,Confirmed Eruption,1936 Nov 15,1,Tarumai,Historical Observations,1936 Nov 26,42.688,141.38,1320 m,Japan,Caldera,"130,474","130,474","316,816","3,096,376"
Ijen,Confirmed Eruption,1936 Nov 5,2,Kawah Ijen,Historical Observations,1936 Nov 25,-8.058,114.242,2769 m,Indonesia,Stratovolcano(es),"1,098","5,504","664,199","6,846,855"
Perbakti-Gagak,Confirmed Eruption,1936 Oct 26,1,Cipanas Parabakti,Historical Observations,1936 Oct 28,-6.75,106.7,1699 m,Indonesia,Stratovolcano(es),"1,490","28,784","2,333,456","36,630,568"
Krakatau,Confirmed Eruption,1936 Oct 13,1,Anak Krakatau,Historical Observations,1936 Nov,-6.102,105.423,155 m,Indonesia,Caldera,"7,177","7,177","8,027","6,326,159"
"Fournaise, Piton de la",Confirmed Eruption,1936 Sep,0,Near 1933 crater,Historical Observations,Unknown,-21.244,55.708,2632 m,France,Shield,"55,859","55,859","246,792","717,820"
Manam,Confirmed Eruption,1936 Sep,3,"Main Crater, South Crater",Historical Observations,1939,-4.08,145.037,1807 m,Papua New Guinea,Stratovolcano,"1,106","2,553","24,364","180,402"
Kerinci,Confirmed Eruption,1936 Aug 30,2,,Historical Observations,1936 Aug 30,-1.697,101.264,3800 m,Indonesia,Stratovolcano,304,"33,878","264,107","1,437,454"
Reventador,Confirmed Eruption,1936 Aug 27,3,,Historical Observations,Unknown,-0.077,-77.656,3562 m,Ecuador,Stratovolcano,484,963,"4,403","2,619,647"
Raung,Confirmed Eruption,1936 Aug 22,2,,Historical Observations,1936 Dec 11,-8.119,114.056,3260 m,Indonesia,Stratovolcano,152,572,"581,515","8,123,987"
Tolbachik,Confirmed Eruption,1936 Aug 13,2,,Historical Observations,1937 Mar 2,55.832,160.326,3611 m,Russia,Shield,0,0,225,"10,487"
Asosan,Confirmed Eruption,1936 Aug 8,2,Naka-dake,Historical Observations,1936 Aug 14,32.884,131.104,1592 m,Japan,Caldera,"75,559","75,559","234,591","6,507,519"
Chiles-Cerro Negro,Confirmed Eruption,1936 Jul 17,2,Volcano Uncertain: possibly Reventador,Historical Observations,Unknown,0.817,-77.938,4698 m,Colombia-Ecuador,Stratovolcano,977,"4,573","151,519","1,826,460"
Mageik,Uncertain Eruption,1936 Jul 4,2,, ,[ 1936 Jul 5 ],58.195,-155.253,2165 m,United States,Stratovolcano,0,0,0,376
Bam,Uncertain Eruption,1936 Jul,--,, ,[ 1939 Apr ],-3.613,144.818,685 m,Papua New Guinea,Stratovolcano,192,192,462,"103,203"
Curtis Island,Uncertain Eruption,1936 Jun 18,--,, ,[ 1936 Dec ],-30.543,-178.556,47 m,New Zealand,Submarine,0,0,0,0
Fonuafo'ou,Confirmed Eruption,1936 Jun,2,,Historical Observations,Unknown,-20.32,-175.42,-17 m,Tonga,Submarine,302,302,532,"69,016"
Ruapehu,Confirmed Eruption,1936 May 9,2,,Historical Observations,1936 May 13,-39.28,175.57,2797 m,New Zealand,Stratovolcano,14,298,"6,901","119,709"
Kerinci,Confirmed Eruption,1936 Apr 29,2,,Historical Observations,1936 Apr 29,-1.697,101.264,3800 m,Indonesia,Stratovolcano,304,"33,878","264,107","1,437,454"
Shikotsu,Confirmed Eruption,1936 Apr 19,1,Tarumai,Historical Observations,1936 Apr 19,42.688,141.38,1320 m,Japan,Caldera,"130,474","130,474","316,816","3,096,376"
Farallon de Pajaros,Confirmed Eruption,1936 Apr 15,2,,Historical Observations,Unknown,20.546,144.893,337 m,United States,Stratovolcano,0,0,0,0
Galeras,Confirmed Eruption,1936 Feb 9,2,,Historical Observations,1936 Aug 27 (?),1.22,-77.37,4276 m,Colombia,Complex,705,"120,817","630,777","1,700,248"
Asosan,Confirmed Eruption,1936 Feb 5,2,Naka-dake,Historical Observations,1936 Feb 5,32.884,131.104,1592 m,Japan,Caldera,"75,559","75,559","234,591","6,507,519"
Pavlof,Confirmed Eruption,1936,3,,Historical Observations,1948 May (?),55.417,-161.894,2493 m,United States,Stratovolcano,0,0,0,"3,002"
Okmok,Uncertain Eruption,1936,--,SW part of caldera (Cone A), ,[ Unknown ],53.43,-168.13,1073 m,United States,Shield,0,0,0,4
Macdonald,Uncertain Eruption,1936,0,Volcano Uncertain: pumice rafts in South Pacific, ,[ Unknown ],-28.98,-140.25,-39 m,Undersea Features,Submarine,0,0,0,0
San Miguel,Uncertain Eruption,1936,2,, ,[ Unknown ],13.434,-88.269,2130 m,El Salvador,Stratovolcano,"1,232","63,007","796,482","3,633,885"
Bristol Island,Confirmed Eruption,1935 Dec 31,2,,Historical Observations,Unknown,-59.017,-26.533,1100 m,United Kingdom,Stratovolcano,0,0,0,0
Niuafo'ou,Confirmed Eruption,1935 Dec 7,2,South flank,Historical Observations,1936 Feb (?),-15.6,-175.63,260 m,Tonga,Shield,118,155,155,155
Villarrica,Confirmed Eruption,1935 Dec 1,1,,Historical Observations,1936 Jun 27,-39.42,-71.93,2847 m,Chile,Stratovolcano,477,"1,067","35,118","667,788"
Lewotobi,Confirmed Eruption,1935 Dec,2,Lewetobi Perempuan,Historical Observations,1935 Dec 25 (in or after),-8.542,122.775,1703 m,Indonesia,Stratovolcano(es),"18,686","59,084","284,976","906,184"
Shiretoko-Iozan,Confirmed Eruption,1935 Dec,1,NW flank,Historical Observations,1936 Oct,44.133,145.161,1562 m,Japan,Stratovolcano,6,"1,516","7,890","209,060"
Mauna Loa,Confirmed Eruption,1935 Nov 21,0,NE rift zone (3690 m) and Mokuaweoweo,Historical Observations,1936 Jan 2,19.475,-155.608,4170 m,United States,Shield,45,45,"1,906","175,315"
Hokkaido-Komagatake,Uncertain Eruption,1935 Oct 15,--,, ,[ 1935 Oct 15 ],42.063,140.677,1131 m,Japan,Stratovolcano,173,"23,091","234,213","962,081"
Aira,Confirmed Eruption,1935 Sep 20,1,Minami-dake,Historical Observations,1935 Sep 24,31.593,130.657,1117 m,Japan,Caldera,"4,918","113,874","905,254","2,610,033"
Yakedake,Confirmed Eruption,1935 Sep 11,2,,Historical Observations,1935 Nov 12,36.227,137.587,2455 m,Japan,Stratovolcano(es),995,"2,995","156,542","4,595,286"
Ambrym,Confirmed Eruption,1935 Sep,2,Benbow,Historical Observations,1936 Jan,-16.25,168.12,1334 m,Vanuatu,Pyroclastic shield,9,186,"10,826","63,999"
Karangetang,Confirmed Eruption,1935 Aug 31,2,,Historical Observations,Unknown,2.781,125.407,1797 m,Indonesia,Stratovolcano,892,"4,478","11,066","65,667"
Hokkaido-Komagatake,Discredited Eruption,1935 Jul 8,--,, ,[ Unknown ],42.063,140.677,1131 m,Japan,Stratovolcano,173,"23,091","234,213","962,081"
Etna,Confirmed Eruption,1935 Jul 7,3,"Central Crater, NE Crater",Historical Observations,1941 Jan 27 (?),37.748,14.999,3320 m,Italy,Stratovolcano(es),78,"3,291","1,016,540","3,052,770"
"Chillan, Nevados de",Confirmed Eruption,1935 Jul 2,2,West flank of Volcán Viejo,Historical Observations,Unknown,-36.868,-71.378,3180 m,Chile,Stratovolcano,68,371,"3,733","512,325"
Tengger Caldera,Confirmed Eruption,1935 Jul,2,Bromo,Historical Observations,Unknown,-7.942,112.95,2329 m,Indonesia,Stratovolcano(es),"27,826","69,451","1,420,878","22,628,278"
Perbakti-Gagak,Confirmed Eruption,1935 May 31,1,Kawah Cibodas,Historical Observations,Unknown,-6.75,106.7,1699 m,Indonesia,Stratovolcano(es),"1,490","28,784","2,333,456","36,630,568"
Izu-Oshima,Confirmed Eruption,1935 Apr 26,0,Mihara-yama,Historical Observations,1935 May 6 (?),34.724,139.394,746 m,Japan,Stratovolcano,"2,381","8,037","8,375","11,837,468"
Klyuchevskoy,Confirmed Eruption,1935 Apr 21,3,,Historical Observations,1936 Nov 4 (in or after),56.056,160.642,4754 m,Russia,Stratovolcano,0,0,292,"12,406"
Augustine,Confirmed Eruption,1935 Mar 13,3,,Historical Observations,1935 Aug 18,59.363,-153.43,1252 m,United States,Lava dome(s),0,0,0,759
Salak,Confirmed Eruption,1935 Feb,2,Kawah Cikaluwung Putri,Historical Observations,Unknown,-6.72,106.73,2211 m,Indonesia,Stratovolcano,"1,367","80,578","2,675,904","38,154,252"
Wolf,Confirmed Eruption,1935 Feb,--,,Historical Observations,Unknown,0.02,-91.35,1710 m,Ecuador,Shield,165,165,237,"1,673"
Concepcion,Confirmed Eruption,1935 Feb,2,,Historical Observations,1935 Feb,11.538,-85.622,1700 m,Nicaragua,Stratovolcano,"14,072","28,900","92,378","2,266,903"
Asosan,Confirmed Eruption,1935 Jan 7,2,Naka-dake,Historical Observations,1935 Oct 8,32.884,131.104,1592 m,Japan,Caldera,"75,559","75,559","234,591","6,507,519"
Krakatau,Confirmed Eruption,1935 Jan 4,2,Anak Krakatau,Historical Observations,1935 Jul 12,-6.102,105.423,155 m,Indonesia,Caldera,"7,177","7,177","8,027","6,326,159"
"Fournaise, Piton de la",Confirmed Eruption,1935,2,,Historical Observations,Unknown,-21.244,55.708,2632 m,France,Shield,"55,859","55,859","246,792","717,820"
Ioto,Confirmed Eruption,1935,1,SW side at Chidoriga-hara,Historical Observations,Unknown,24.751,141.289,169 m,Japan,Caldera,"1,179","1,179","1,189","1,370"
Pinacate,Uncertain Eruption,1934 Dec 31,--,, ,[ 1935 Jan 2 (?) ],31.85,-113.5,1183 m,Mexico,Pyroclastic cone(s),92,92,408,"62,753"
Grimsvotn,Confirmed Eruption,1934 Dec 21,--,Volcano Uncertain: Vatnajökull,Unknown,1934 Dec 26,64.416,-17.316,1719 m,Iceland,Caldera,0,0,0,"1,736"
Ruapehu,Confirmed Eruption,1934 Dec,2,,Historical Observations,1935 Feb,-39.28,175.57,2797 m,New Zealand,Stratovolcano,14,298,"6,901","119,709"
Tongariro,Confirmed Eruption,1934 Dec,2,Ngauruhoe,Historical Observations,1935 Feb,-39.157,175.632,1978 m,New Zealand,Stratovolcano(es),27,286,"7,591","81,567"
Asamayama,Confirmed Eruption,1934 Nov 13,3,,Historical Observations,1937 Jul,36.406,138.523,2568 m,Japan,Complex,583,"22,371","457,576","7,629,353"
Karymsky,Confirmed Eruption,1934 Nov,2,Tephra layer PM11?,Historical Observations,1935 Feb,54.049,159.443,1513 m,Russia,Stratovolcano,0,0,291,"10,848"
Ebeko,Confirmed Eruption,1934 Oct 4,2,Sredniy crater,Historical Observations,1935 Oct 15 ± 45 days,50.686,156.014,1103 m,Russia,Stratovolcano,0,267,"1,076","3,098"
Kikai,Confirmed Eruption,1934 Sep 19,2,2 km east of Tokara-Iwo-Jima,Historical Observations,1935 Aug (?),30.793,130.305,704 m,Japan,Caldera,152,152,152,"1,002,905"
Kilauea,Confirmed Eruption,1934 Sep 6,0,Halemaumau,Historical Observations,1934 Oct 8,19.421,-155.287,1222 m,United States,Shield,"3,122","3,122","8,495","169,550"
Izu-Oshima,Uncertain Eruption,1934 Sep,--,Mihara-yama, ,[ Unknown ],34.724,139.394,746 m,Japan,Stratovolcano,"2,381","8,037","8,375","11,837,468"
Ruapehu,Confirmed Eruption,1934 Aug 11,2,,Historical Observations,Unknown,-39.28,175.57,2797 m,New Zealand,Stratovolcano,14,298,"6,901","119,709"
Sangay,Confirmed Eruption,1934 Aug 8,3,,Historical Observations,2011 Mar 2,-2.005,-78.341,5286 m,Ecuador,Stratovolcano,231,"1,675","15,130","1,355,275"
Asosan,Confirmed Eruption,1934 Jul 16,2,Naka-dake,Historical Observations,Unknown,32.884,131.104,1592 m,Japan,Caldera,"75,559","75,559","234,591","6,507,519"
Farallon de Pajaros,Confirmed Eruption,1934 Jul 15,0,Immediately south of Uracas,Historical Observations,Unknown,20.546,144.893,337 m,United States,Stratovolcano,0,0,0,0
Iwatesan,Uncertain Eruption,1934 Jul,--,, ,[ 1935 ],39.853,141.001,2038 m,Japan,Complex,439,"18,462","415,920","2,976,795"
Sirung,Confirmed Eruption,1934 Jun 14,2,,Historical Observations,1934 Jul 15 ± 5 days,-8.508,124.13,862 m,Indonesia,Complex,"5,966","19,334","69,744","418,756"
Tongariro,Confirmed Eruption,1934 Jun,2,Ngauruhoe,Historical Observations,Unknown,-39.157,175.632,1978 m,New Zealand,Stratovolcano(es),27,286,"7,591","81,567"
Asamayama,Confirmed Eruption,1934 Jun,1,,Historical Observations,1934 Jun,36.406,138.523,2568 m,Japan,Complex,583,"22,371","457,576","7,629,353"
Myojinsho,Confirmed Eruption,1934 May,0,9 km E of Bayonnaise Rocks,Historical Observations,Unknown,31.888,139.918,11 m,Japan,Submarine,0,0,0,242
Izu-Oshima,Confirmed Eruption,1934 Apr 15,0,Mihara-yama,Historical Observations,1934 Apr 25 (?),34.724,139.394,746 m,Japan,Stratovolcano,"2,381","8,037","8,375","11,837,468"
Grimsvotn,Confirmed Eruption,1934 Mar 30,2,Near south caldera wall,Historical Observations,1934 Apr 7,64.416,-17.316,1719 m,Iceland,Caldera,0,0,0,"1,736"
Puyehue-Cordon Caulle,Confirmed Eruption,1934 Mar 6,2,Cordón Caulle,Historical Observations,Unknown,-40.59,-72.117,2236 m,Chile,Stratovolcano,129,783,"7,163","515,357"
Stromboli,Confirmed Eruption,1934 Feb 2,2,Summit craters and Sciara del Fuoco,Historical Observations,2021 Dec 9 (continuing),38.789,15.213,924 m,Italy,Stratovolcano,"2,225","2,225","3,894","1,347,563"
Dempo,Confirmed Eruption,1934 Jan 24,2,,Historical Observations,1934 Apr 25,-4.016,103.121,3142 m,Indonesia,Stratovolcano(es),124,"9,613","96,058","2,307,584"
"Chillan, Nevados de",Confirmed Eruption,1934 Jan 17,2,Volcán Nuevo,Historical Observations,Unknown,-36.868,-71.378,3180 m,Chile,Stratovolcano,68,371,"3,733","512,325"
Suwanosejima,Uncertain Eruption,1934 Jan 11,2,O-take, ,[ Unknown ],29.638,129.714,796 m,Japan,Stratovolcano(es),107,107,325,"1,966"
Asamayama,Confirmed Eruption,1934 Jan 9,1,,Historical Observations,1934 Feb 11,36.406,138.523,2568 m,Japan,Complex,583,"22,371","457,576","7,629,353"
Etna,Confirmed Eruption,1934 Jan 5,1,NE Crater,Historical Observations,1934 Mar,37.748,14.999,3320 m,Italy,Stratovolcano(es),78,"3,291","1,016,540","3,052,770"
Telica,Confirmed Eruption,1934 Jan,2,,Historical Observations,Unknown,12.606,-86.84,1036 m,Nicaragua,Stratovolcano(es),"1,079","21,990","327,294","2,982,538"
Kirishimayama,Discredited Eruption,1934,--,, ,[ Unknown ],31.934,130.862,1700 m,Japan,Shield,647,"8,415","407,050","3,972,044"
Slamet,Uncertain Eruption,1934,--,, ,[ Unknown ],-7.242,109.208,3428 m,Indonesia,Stratovolcano,856,"13,401","2,904,026","20,217,467"
Kusatsu-Shiranesan,Confirmed Eruption,1934,2,,Historical Observations,Unknown,36.618,138.528,2165 m,Japan,Stratovolcano(es),"4,485","14,296","434,049","5,947,593"
Bulusan,Confirmed Eruption,1933 Dec 25,2,,Historical Observations,Unknown,12.769,124.056,1535 m,Philippines,Stratovolcano(es),"2,789","74,286","518,705","3,360,418"
Kuchinoerabujima,Confirmed Eruption,1933 Dec 23,4,Shindake,Historical Observations,1934 Jan 12,30.443,130.217,657 m,Japan,Stratovolcano(es),"1,544","1,698","5,348","149,518"
Mauna Loa,Confirmed Eruption,1933 Dec 2,0,Mokuaweoweo,Historical Observations,1933 Dec 18,19.475,-155.608,4170 m,United States,Shield,45,45,"1,906","175,315"
Shikotsu,Confirmed Eruption,1933 Dec 1,2,Tarumai (east-west summit fissure),Historical Observations,1933 Dec 14,42.688,141.38,1320 m,Japan,Caldera,"130,474","130,474","316,816","3,096,376"
Izalco,Confirmed Eruption,1933 Nov 30,2,,Historical Observations,1934 Jan 12 (in or after),13.813,-89.633,1950 m,El Salvador,Stratovolcano,937,"55,665","1,272,308","6,415,818"
Grimsvotn,Confirmed Eruption,1933 Nov 29,1,North of Grímsvötn caldera,Historical Observations,1933 Dec 9 ± 1 days,64.416,-17.316,1719 m,Iceland,Caldera,0,0,0,"1,736"
Raung,Confirmed Eruption,1933 Nov 21,2,,Historical Observations,1933 Dec 6,-8.119,114.056,3260 m,Indonesia,Stratovolcano,152,572,"581,515","8,123,987"
Alaid,Confirmed Eruption,1933 Nov 13,2,East submarine flank (Taketomi),Historical Observations,1934 Aug,50.861,155.565,2285 m,Russia,Stratovolcano,0,64,64,"2,887"
Gamalama,Confirmed Eruption,1933 Nov 12,2,,Historical Observations,Unknown,0.8,127.33,1715 m,Indonesia,Stratovolcano(es),"103,429","204,820","308,691","536,972"
Great Sitkin,Confirmed Eruption,1933 Nov,2,,Historical Observations,Unknown,52.076,-176.13,1740 m,United States,Stratovolcano,0,0,0,0
Izu-Oshima,Confirmed Eruption,1933 Oct 14,0,Mihara-yama,Historical Observations,1933 Nov,34.724,139.394,746 m,Japan,Stratovolcano,"2,381","8,037","8,375","11,837,468"
Lascar,Confirmed Eruption,1933 Oct 9,2,,Historical Observations,1933 Dec,-23.37,-67.73,5592 m,Chile,Stratovolcano(es),0,70,570,"8,119"
Merapi,Confirmed Eruption,1933 Oct 1,2,,Historical Observations,1935 Apr,-7.54,110.446,2910 m,Indonesia,Stratovolcano,"49,205","185,849","4,348,473","24,728,414"
Karymsky,Confirmed Eruption,1933 Sep,2,,Historical Observations,1933 Oct,54.049,159.443,1513 m,Russia,Stratovolcano,0,0,291,"10,848"
Dukono,Confirmed Eruption,1933 Aug 13,3,Malupang Magiwe and Malupang Warirang,Historical Observations,2021 Dec 9 (continuing),1.693,127.894,1229 m,Indonesia,Complex,"1,575","3,348","101,506","393,070"
Suoh,Confirmed Eruption,1933 Jul 10,4,Pematang Bata,Historical Observations,1933 Aug 5,-5.25,104.27,1000 m,Indonesia,Caldera(s),837,"2,048","24,619","1,616,500"
Witori,Confirmed Eruption,1933 Jul,2,Pago,Historical Observations,1933 Aug (?),-5.576,150.516,724 m,Papua New Guinea,Caldera,"24,509","24,509","37,824","145,382"
Hainan Volcanic Field,Confirmed Eruption,1933 Jun 26,--,Nansheling ridge,Historical Observations,1933 Jul 8 (in or after),19.905,110.229,196 m,China,Pyroclastic cone(s),"1,731,229","1,731,229","1,731,229","6,213,231"
"Fournaise, Piton de la",Confirmed Eruption,1933 Jun 7,2,"Dolomieu, upper and SE flanks",Historical Observations,1934 Apr 1,-21.244,55.708,2632 m,France,Shield,"55,859","55,859","246,792","717,820"
Redoubt,Uncertain Eruption,1933 May 25,--,, ,[ Unknown ],60.485,-152.742,3108 m,United States,Stratovolcano,0,0,1,"32,410"
Slamet,Confirmed Eruption,1933 May 12,1,,Historical Observations,1933 May 13,-7.242,109.208,3428 m,Indonesia,Stratovolcano,856,"13,401","2,904,026","20,217,467"
Iliamna,Uncertain Eruption,1933 May 5,--,, ,[ Unknown ],60.032,-153.09,3053 m,United States,Stratovolcano,0,0,1,"7,564"
Chikurachki,Uncertain Eruption,1933 Apr 15,--,, ,[ Unknown ],50.324,155.461,1781 m,Russia,Stratovolcano(es),0,65,527,"2,492"
Whakaari/White Island,Confirmed Eruption,1933 Apr 2,3,Foot of crater ridge (1933 crater),Historical Observations,Unknown,-37.52,177.18,294 m,New Zealand,Stratovolcano(es),5,5,5,"190,290"
Fonuafo'ou,Confirmed Eruption,1933 Apr,2,,Historical Observations,Unknown,-20.32,-175.42,-17 m,Tonga,Submarine,302,302,532,"69,016"
Irazu,Confirmed Eruption,1933 Mar 22,2,,Historical Observations,1933 Jul 25,9.979,-83.852,3432 m,Costa Rica,Stratovolcano,"1,978","25,442","1,667,528","3,432,860"
Sumaco,Uncertain Eruption,1933 Feb,2,, ,[ Unknown ],-0.538,-77.626,3990 m,Ecuador,Stratovolcano,39,324,"8,384","679,867"
Lautaro,Confirmed Eruption,1933 Feb,2,,Historical Observations,Unknown,-49.019,-73.504,3542 m,Chile,Stratovolcano,0,0,46,"2,365"
Popocatepetl,Confirmed Eruption,1933 Jan 23,1,,Historical Observations,Unknown,19.023,-98.622,5393 m,Mexico,Stratovolcano(es),325,"2,584","634,054","26,509,510"
Asamayama,Confirmed Eruption,1933 Jan 9,2,,Historical Observations,1933 Aug 3,36.406,138.523,2568 m,Japan,Complex,583,"22,371","457,576","7,629,353"
Kharimkotan,Confirmed Eruption,1933 Jan 8,5,Severgin,Historical Observations,1933 Apr 14 (in or after),49.12,154.508,1145 m,Russia,Stratovolcano,2,2,4,22
Villarrica,Confirmed Eruption,1933 Jan 5,2,,Historical Observations,1933 Jan 18 ± 12 days,-39.42,-71.93,2847 m,Chile,Stratovolcano,477,"1,067","35,118","667,788"
Lonquimay,Confirmed Eruption,1933 Jan 4,2,,Historical Observations,Unknown,-38.379,-71.586,2832 m,Chile,Stratovolcano,96,540,"13,635","504,320"
"Azul, Cerro",Confirmed Eruption,1933,2,Quizapu,Historical Observations,1938 Jul 25 (?),-35.653,-70.761,3788 m,Chile,Stratovolcano,9,158,"3,832","720,948"
Wolf,Confirmed Eruption,1933,0,,Historical Observations,Unknown,0.02,-91.35,1710 m,Ecuador,Shield,165,165,237,"1,673"
Galeras,Uncertain Eruption,1933,--,, ,[ Unknown ],1.22,-77.37,4276 m,Colombia,Complex,705,"120,817","630,777","1,700,248"
Fuss Peak,Uncertain Eruption,1933,--,, ,[ Unknown ],50.267,155.246,1742 m,Russia,Stratovolcano,0,62,354,"1,891"
Kusatsu-Shiranesan,Uncertain Eruption,1933,--,, ,[ Unknown ],36.618,138.528,2165 m,Japan,Stratovolcano(es),"4,485","14,296","434,049","5,947,593"
Kanaga,Discredited Eruption,1933,--,, ,[ Unknown ],51.923,-177.168,1307 m,United States,Stratovolcano,0,0,0,0
Long Island,Confirmed Eruption,1933,--,Lake Wisdom,Historical Observations,Unknown,-5.358,147.12,1280 m,Papua New Guinea,Complex,172,"2,023","4,017","78,803"
Lopevi,Confirmed Eruption,1933,--,,Historical Observations,Unknown,-16.507,168.346,1413 m,Vanuatu,Stratovolcano,690,793,"7,942","50,310"
San Martin,Uncertain Eruption,1932 Dec 31,--,, ,[ Unknown ],18.57,-95.2,1650 m,Mexico,Shield,280,"3,581","259,640","1,645,811"
Llaima,Confirmed Eruption,1932 Dec 31,3,,Historical Observations,1933 Jan 5,-38.692,-71.729,3125 m,Chile,Stratovolcano,86,811,"18,568","630,458"
Unnamed,Confirmed Eruption,1932 Dec 1,0,,Historical Observations,Unknown,-21.338,-175.65,-68 m,Tonga,Submarine,0,0,0,"88,771"
Kanlaon,Confirmed Eruption,1932 Dec,2,,Historical Observations,1933 Jan,10.412,123.132,2435 m,Philippines,Stratovolcano,"1,662","40,276","923,257","9,345,000"
Krakatau,Confirmed Eruption,1932 Nov 14,3,Anak Krakatau,Historical Observations,1934 Jun 9,-6.102,105.423,155 m,Indonesia,Caldera,"7,177","7,177","8,027","6,326,159"
Gamalama,Confirmed Eruption,1932 Nov 10,2,,Historical Observations,1932 Nov 13,0.8,127.33,1715 m,Indonesia,Stratovolcano(es),"103,429","204,820","308,691","536,972"
Merapi,Confirmed Eruption,1932 Nov,1,,Historical Observations,Unknown,-7.54,110.446,2910 m,Indonesia,Stratovolcano,"49,205","185,849","4,348,473","24,728,414"
"Fournaise, Piton de la",Confirmed Eruption,1932 Nov,--,,Historical Observations,1932 Nov,-21.244,55.708,2632 m,France,Shield,"55,859","55,859","246,792","717,820"
Galeras,Confirmed Eruption,1932 Oct 10,2,,Historical Observations,Unknown,1.22,-77.37,4276 m,Colombia,Complex,705,"120,817","630,777","1,700,248"
Kusatsu-Shiranesan,Confirmed Eruption,1932 Oct 1,3,"NE part of Yu-gama, SE outer rim",Historical Observations,1932 Nov,36.618,138.528,2165 m,Japan,Stratovolcano(es),"4,485","14,296","434,049","5,947,593"
Farallon de Pajaros,Confirmed Eruption,1932 Sep 7,2,"Summit, east side ?",Historical Observations,1932 Oct 7,20.546,144.893,337 m,United States,Stratovolcano,0,0,0,0
Kuchinoerabujima,Uncertain Eruption,1932 Jul 23,1,Shindake, ,[ 1932 Jul 23 ],30.443,130.217,657 m,Japan,Stratovolcano(es),"1,544","1,698","5,348","149,518"
Akita-Komagatake,Confirmed Eruption,1932 Jul 21,2,Ishibora (south flank of Me-dake),Historical Observations,1932 Jul 24,39.761,140.799,1637 m,Japan,Stratovolcano(es),376,"3,864","216,708","2,521,611"
Slamet,Confirmed Eruption,1932 Jul 1,2,,Historical Observations,1932 Sep 10,-7.242,109.208,3428 m,Indonesia,Stratovolcano,856,"13,401","2,904,026","20,217,467"
Descabezado Grande,Confirmed Eruption,1932 Jun 5,3,Upper NNE slope,Historical Observations,1933,-35.58,-70.75,3953 m,Chile,Stratovolcano(es),39,142,"3,454","704,116"
Stromboli,Confirmed Eruption,1932 Jun 3,2,,Historical Observations,1932 Jun 3,38.789,15.213,924 m,Italy,Stratovolcano,"2,225","2,225","3,894","1,347,563"
Asosan,Confirmed Eruption,1932 Jun,2,Naka-dake,Historical Observations,1933 Sep 28,32.884,131.104,1592 m,Japan,Caldera,"75,559","75,559","234,591","6,507,519"
Karymsky,Confirmed Eruption,1932 Jun,2,,Historical Observations,Unknown,54.049,159.443,1513 m,Russia,Stratovolcano,0,0,291,"10,848"
Lewotobi,Confirmed Eruption,1932 May 23,3,Lewotobi Lakilaki,Historical Observations,1933 Dec 26 ± 5 days,-8.542,122.775,1703 m,Indonesia,Stratovolcano(es),"18,686","59,084","284,976","906,184"
Nila,Confirmed Eruption,1932 Mar 13,2,SE flank,Historical Observations,Unknown,-6.73,129.5,781 m,Indonesia,Stratovolcano,200,200,200,"1,382"
Llaima,Confirmed Eruption,1932 Mar 2,2,,Historical Observations,1932 Mar 2,-38.692,-71.729,3125 m,Chile,Stratovolcano,86,811,"18,568","630,458"
Yakedake,Confirmed Eruption,1932 Feb 6,2,,Historical Observations,1932 Feb 6,36.227,137.587,2455 m,Japan,Stratovolcano(es),995,"2,995","156,542","4,595,286"
Shishaldin,Confirmed Eruption,1932 Feb 1,2,,Historical Observations,1932 May 21,54.756,-163.97,2857 m,United States,Stratovolcano,0,0,10,197
Klyuchevskoy,Confirmed Eruption,1932 Jan 25,2,"NE flank (Kirgurich, Tuyla, Biokos)",Historical Observations,1932 Dec 26 ± 5 days,56.056,160.642,4754 m,Russia,Stratovolcano,0,0,292,"12,406"
Fuego,Confirmed Eruption,1932 Jan 21,4,,Historical Observations,1932 Jan 22,14.473,-90.88,3763 m,Guatemala,Stratovolcano(es),"1,373","54,332","1,016,339","7,677,809"
Cleveland,Confirmed Eruption,1932 Jan 1,--,,Historical Observations,Unknown,52.825,-169.944,1730 m,United States,Stratovolcano,0,0,0,9
Nemo Peak,Uncertain Eruption,1932,--,SE flank, ,[ Unknown ],49.57,154.808,1018 m,Russia,Caldera,15,15,46,582
Gorely,Uncertain Eruption,1932,--,, ,[ Unknown ],52.559,158.03,1799 m,Russia,Caldera,0,0,19,"250,293"
Etorofu-Atosanupuri [Atosanupuri],Confirmed Eruption,1932,2,,Historical Observations,Unknown,44.808,147.131,1206 m,Japan - administered by Russia,Stratovolcano,1,289,644,"4,311"
Sarychev Peak,Uncertain Eruption,1932,--,, ,[ Unknown ],48.092,153.2,1496 m,Russia,Stratovolcano,17,143,143,148
Marapi,Confirmed Eruption,1932,2,,Historical Observations,Unknown,-0.38,100.474,2885 m,Indonesia,Complex,706,"57,453","818,039","4,059,773"
Manam,Confirmed Eruption,1932,2,,Historical Observations,1934,-4.08,145.037,1807 m,Papua New Guinea,Stratovolcano,"1,106","2,553","24,364","180,402"
"Azul, Cerro",Confirmed Eruption,1932,1,,Historical Observations,Unknown,-0.92,-91.408,1640 m,Ecuador,Shield,220,220,314,"1,936"
Calbuco,Confirmed Eruption,1932,--,,Historical Observations,Unknown,-41.33,-72.618,1974 m,Chile,Stratovolcano,70,871,"32,265","575,233"
Poas,Confirmed Eruption,1932,1,,Historical Observations,1934,10.2,-84.233,2697 m,Costa Rica,Stratovolcano,"1,947","11,107","950,796","3,411,023"
Kilauea,Confirmed Eruption,1931 Dec 23,0,Halemaumau,Historical Observations,1932 Jan 5,19.421,-155.287,1222 m,United States,Shield,"3,122","3,122","8,495","169,550"
Bogoslof,Confirmed Eruption,1931 Oct 31,1,1926-1927 dome,Historical Observations,Unknown,53.93,-168.03,150 m,United States,Submarine,0,0,0,"4,216"
Asosan,Uncertain Eruption,1931 Oct 18,1,Naka-dake, ,[ Unknown ],32.884,131.104,1592 m,Japan,Caldera,"75,559","75,559","234,591","6,507,519"
Shikotsu,Confirmed Eruption,1931 Oct 11,1,Tarumai,Historical Observations,1931 Oct 24,42.688,141.38,1320 m,Japan,Caldera,"130,474","130,474","316,816","3,096,376"
Krakatau,Confirmed Eruption,1931 Sep 23,2,Anak Krakatau,Historical Observations,1932 Feb 17,-6.102,105.423,155 m,Indonesia,Caldera,"7,177","7,177","8,027","6,326,159"
Kharimkotan,Confirmed Eruption,1931 Sep,1,Severgin,Historical Observations,Unknown,49.12,154.508,1145 m,Russia,Stratovolcano,2,2,4,22
Klyuchevskoy,Confirmed Eruption,1931 Aug,2,,Historical Observations,1931 Sep,56.056,160.642,4754 m,Russia,Stratovolcano,0,0,292,"12,406"
Etna,Confirmed Eruption,1931 Jul 26,2,"Central Crater, NE Crater",Historical Observations,1933 Sep,37.748,14.999,3320 m,Italy,Stratovolcano(es),78,"3,291","1,016,540","3,052,770"
Tokachidake,Confirmed Eruption,1931 May 16,1,,Historical Observations,1931 May 16,43.418,142.686,2077 m,Japan,Stratovolcano(es),12,227,"60,382","1,373,264"
Katmai,Discredited Eruption,1931 May 8,--,, ,[ 1931 Jul ],58.28,-154.963,2047 m,United States,Stratovolcano,0,0,0,128
Aniakchak,Confirmed Eruption,1931 May 1,4,West and SW caldera floor,Historical Observations,1931 Jun 13 (in or after),56.88,-158.17,1341 m,United States,Caldera,0,0,36,479
Akutan,Confirmed Eruption,1931 May,2,,Historical Observations,1931 Aug,54.134,-165.986,1303 m,United States,Stratovolcano,0,24,233,"4,361"
Gorely,Confirmed Eruption,1931 May,2,,Historical Observations,1931 Jul 15 ± 45 days,52.559,158.03,1799 m,Russia,Caldera,0,0,19,"250,293"
Kuchinoerabujima,Confirmed Eruption,1931 Apr 2,3,SW flank of Shindake,Historical Observations,1931 Jun 22,30.443,130.217,657 m,Japan,Stratovolcano(es),"1,544","1,698","5,348","149,518"
Asamayama,Confirmed Eruption,1931 Mar 31,3,,Historical Observations,1932 Sep 21,36.406,138.523,2568 m,Japan,Complex,583,"22,371","457,576","7,629,353"
Izalco,Confirmed Eruption,1931 Mar 31,2,,Historical Observations,Unknown,13.813,-89.633,1950 m,El Salvador,Stratovolcano,937,"55,665","1,272,308","6,415,818"
Yakedake,Confirmed Eruption,1931 Mar 26,2,,Historical Observations,1931 Jun 24,36.227,137.587,2455 m,Japan,Stratovolcano(es),995,"2,995","156,542","4,595,286"
Klyuchevskoy,Confirmed Eruption,1931 Mar 25,4,,Historical Observations,1931 Mar 27,56.056,160.642,4754 m,Russia,Stratovolcano,0,0,292,"12,406"
Okmok,Confirmed Eruption,1931 Mar 21,2,Cone A?,Historical Observations,1931 May 13 (in or after),53.43,-168.13,1073 m,United States,Shield,0,0,0,4
Tolbachik,Confirmed Eruption,1931 Mar 4,2,,Historical Observations,1932,55.832,160.326,3611 m,Russia,Shield,0,0,225,"10,487"
San Miguel,Confirmed Eruption,1931 Mar,2,,Historical Observations,1931 Jun,13.434,-88.269,2130 m,El Salvador,Stratovolcano,"1,232","63,007","796,482","3,633,885"
Tongariro,Confirmed Eruption,1931 Feb,2,Ngauruhoe,Historical Observations,1931 May,-39.157,175.632,1978 m,New Zealand,Stratovolcano(es),27,286,"7,591","81,567"
"Fournaise, Piton de la",Confirmed Eruption,1931 Jan 22,2,"Summit, NE flank (Cratère Haug)",Historical Observations,1931 Aug 26 ± 5 days,-21.244,55.708,2632 m,France,Shield,"55,859","55,859","246,792","717,820"
Baluan,Uncertain Eruption,1931,0,, ,[ Unknown ],-2.57,147.28,254 m,Papua New Guinea,Stratovolcano,242,248,982,"46,898"
Cotopaxi,Confirmed Eruption,1931,2,,Historical Observations,Unknown,-0.677,-78.436,5911 m,Ecuador,Stratovolcano,251,"7,299","152,139","3,631,492"
San Jose,Discredited Eruption,1931,--,, ,[ Unknown ],-33.789,-69.895,6070 m,Chile-Argentina,Stratovolcano(es),194,616,"15,963","6,615,248"
Awu,Confirmed Eruption,1930 Dec,2,,Historical Observations,1931 Dec,3.689,125.447,1318 m,Indonesia,Stratovolcano,"6,409","22,655","52,725","58,719"
Merapi,Confirmed Eruption,1930 Nov 25,3,,Historical Observations,1931 Sep,-7.54,110.446,2910 m,Indonesia,Stratovolcano,"49,205","185,849","4,348,473","24,728,414"
Kilauea,Confirmed Eruption,1930 Nov 19,0,Halemaumau,Historical Observations,1930 Dec 7,19.421,-155.287,1222 m,United States,Shield,"3,122","3,122","8,495","169,550"
Etna,Confirmed Eruption,1930 Nov 1,1,NE Crater,Historical Observations,Unknown,37.748,14.999,3320 m,Italy,Stratovolcano(es),78,"3,291","1,016,540","3,052,770"
Karangetang,Confirmed Eruption,1930 Nov,2,,Historical Observations,Unknown,2.781,125.407,1797 m,Indonesia,Stratovolcano,892,"4,478","11,066","65,667"
Irazu,Confirmed Eruption,1930 Oct,2,,Historical Observations,Unknown,9.979,-83.852,3432 m,Costa Rica,Stratovolcano,"1,978","25,442","1,667,528","3,432,860"
Asosan,Confirmed Eruption,1930 Sep 3,2,Naka-dake,Historical Observations,1930 Sep 6,32.884,131.104,1592 m,Japan,Caldera,"75,559","75,559","234,591","6,507,519"
Gorely,Confirmed Eruption,1930 Sep,3,,Historical Observations,1931 Jan 17,52.559,158.03,1799 m,Russia,Caldera,0,0,19,"250,293"
Lokon-Empung,Confirmed Eruption,1930 Aug,2,Tompaluan,Historical Observations,Unknown,1.358,124.792,1580 m,Indonesia,Stratovolcano(es),"12,183","75,684","942,160","1,583,346"
Llaima,Confirmed Eruption,1930 Jul 6,2,,Historical Observations,1930 Aug 20,-38.692,-71.729,3125 m,Chile,Stratovolcano,86,811,"18,568","630,458"
Wrangell,Uncertain Eruption,1930 Jun 30,--,, ,[ Unknown ],62.006,-144.017,4278 m,United States,Shield,0,0,0,"1,844"
Veniaminof,Confirmed Eruption,1930 Jun,2,Western intracaldera cone,Historical Observations,Unknown,56.17,-159.38,2507 m,United States,Stratovolcano,0,0,0,542
Tengger Caldera,Confirmed Eruption,1930 May 30,2,Bromo,Historical Observations,1930 Jul,-7.942,112.95,2329 m,Indonesia,Stratovolcano(es),"27,826","69,451","1,420,878","22,628,278"
"Fournaise, Piton de la",Confirmed Eruption,1930 May 23,0,,Historical Observations,1930 May 24,-21.244,55.708,2632 m,France,Shield,"55,859","55,859","246,792","717,820"
Asamayama,Confirmed Eruption,1930 Apr 18,2,,Historical Observations,1930 Oct 17,36.406,138.523,2568 m,Japan,Complex,583,"22,371","457,576","7,629,353"
Galeras,Uncertain Eruption,1930 Apr 17,--,, ,[ Unknown ],1.22,-77.37,4276 m,Colombia,Complex,705,"120,817","630,777","1,700,248"
Marapi,Confirmed Eruption,1930 Apr 9,2,,Historical Observations,1930 Dec 7,-0.38,100.474,2885 m,Indonesia,Complex,706,"57,453","818,039","4,059,773"
Slamet,Confirmed Eruption,1930 Apr 2,2,,Historical Observations,1930 Apr 13,-7.242,109.208,3428 m,Indonesia,Stratovolcano,856,"13,401","2,904,026","20,217,467"
Izalco,Confirmed Eruption,1930 Apr,0,Outer slope of eastern summit crater,Historical Observations,Unknown,13.813,-89.633,1950 m,El Salvador,Stratovolcano,937,"55,665","1,272,308","6,415,818"
Whakaari/White Island,Confirmed Eruption,1930 Mar 16,2,,Historical Observations,Unknown,-37.52,177.18,294 m,New Zealand,Stratovolcano(es),5,5,5,"190,290"
Yakedake,Confirmed Eruption,1930 Mar 13,2,Inkyo-ko,Historical Observations,1930 May 11 (?),36.227,137.587,2455 m,Japan,Stratovolcano(es),995,"2,995","156,542","4,595,286"
Izu-Tobu,Uncertain Eruption,1930 Mar 1,--,3.6 km NE of Teishi-jima, ,[ Unknown ],34.9,139.098,1406 m,Japan,Pyroclastic cone(s),"5,886","61,727","447,660","17,928,355"
Sarychev Peak,Confirmed Eruption,1930 Feb 13,3,,Historical Observations,1930 Feb 13,48.092,153.2,1496 m,Russia,Stratovolcano,17,143,143,148
Karangetang,Confirmed Eruption,1930 Feb 4,2,Crater IV,Historical Observations,1930 Feb 6,2.781,125.407,1797 m,Indonesia,Stratovolcano,892,"4,478","11,066","65,667"
Sheveluch,Confirmed Eruption,1930 Feb 1,1,,Historical Observations,Unknown,56.653,161.36,3283 m,Russia,Stratovolcano,0,0,"1,718","11,613"
San Miguel,Confirmed Eruption,1930 Jan 26,2,,Historical Observations,Unknown,13.434,-88.269,2130 m,El Salvador,Stratovolcano,"1,232","63,007","796,482","3,633,885"
Tacora,Uncertain Eruption,1930,--,, ,[ Unknown ],-17.72,-69.77,5980 m,Chile-Peru,Stratovolcano(es),7,539,"8,757","411,691"
Puntiagudo-Cordon Cenizos,Uncertain Eruption,1930,--,, ,[ Unknown ],-40.969,-72.264,2493 m,Chile,Stratovolcano,30,284,"5,666","698,814"
Hodson,Uncertain Eruption,1930,--,, ,[ Unknown ],-56.712,-27.176,835 m,United Kingdom,Stratovolcano,0,0,0,0
Southern EPR-Segment K,Confirmed Eruption,1930,0,North of Aldo-Kiri lava flow,Magnetism,Unknown,-17.436,-113.206,-2566 m,Undersea Features,Submarine,0,0,0,0
Ioto,Confirmed Eruption,1930,1,NW side near the coast,Historical Observations,Unknown,24.751,141.289,169 m,Japan,Caldera,"1,179","1,179","1,189","1,370"
Kita-Ioto,Confirmed Eruption,1930,2,Funka-Asane,Historical Observations,1945,25.424,141.284,792 m,Japan,Stratovolcano,158,162,162,"1,210"
Villarrica,Confirmed Eruption,1929 Dec 27,1,,Historical Observations,Unknown,-39.42,-71.93,2847 m,Chile,Stratovolcano,477,"1,067","35,118","667,788"
"Fournaise, Piton de la",Confirmed Eruption,1929 Dec 23,2,,Historical Observations,1929 Dec 31,-21.244,55.708,2632 m,France,Shield,"55,859","55,859","246,792","717,820"
Chiginagak,Uncertain Eruption,1929 Dec,--,, ,[ Unknown ],57.135,-156.99,2221 m,United States,Stratovolcano,0,0,0,52
Katmai,Discredited Eruption,1929 Dec,--,, ,[ Unknown ],58.28,-154.963,2047 m,United States,Stratovolcano,0,0,0,128
Kagamil,Confirmed Eruption,1929 Dec,--,,Historical Observations,Unknown,52.974,-169.72,893 m,United States,Stratovolcano,0,0,0,7
Llaima,Confirmed Eruption,1929 Dec,2,,Historical Observations,Unknown,-38.692,-71.729,3125 m,Chile,Stratovolcano,86,811,"18,568","630,458"
Asamayama,Confirmed Eruption,1929 Sep 18,2,,Historical Observations,1929 Nov 15,36.406,138.523,2568 m,Japan,Complex,583,"22,371","457,576","7,629,353"
Pelee,Confirmed Eruption,1929 Sep 16,3,,Historical Observations,1932 Dec 1 ± 30 days,14.809,-61.165,1394 m,France,Stratovolcano,251,"5,025","382,633","609,576"
Gorely,Confirmed Eruption,1929 Sep 1,3,,Historical Observations,1930 Apr,52.559,158.03,1799 m,Russia,Caldera,0,0,19,"250,293"
Akita-Yakeyama,Confirmed Eruption,1929 Sep,2,,Historical Observations,Unknown,39.964,140.757,1366 m,Japan,Stratovolcano,127,721,"55,493","3,122,037"
Mageik,Uncertain Eruption,1929 Aug 19,2,, ,[ 1929 Dec ],58.195,-155.253,2165 m,United States,Stratovolcano,0,0,0,376
Tengger Caldera,Confirmed Eruption,1929 Aug 7,2,Bromo,Historical Observations,1929 Sep 8,-7.942,112.95,2329 m,Indonesia,Stratovolcano(es),"27,826","69,451","1,420,878","22,628,278"
Etna,Confirmed Eruption,1929 Aug 2,1,NE Crater,Historical Observations,Unknown,37.748,14.999,3320 m,Italy,Stratovolcano(es),78,"3,291","1,016,540","3,052,770"
San Miguel,Confirmed Eruption,1929 Aug,2,,Historical Observations,Unknown,13.434,-88.269,2130 m,El Salvador,Stratovolcano,"1,232","63,007","796,482","3,633,885"
Concepcion,Confirmed Eruption,1929 Aug,2,,Historical Observations,1929 Oct,11.538,-85.622,1700 m,Nicaragua,Stratovolcano,"14,072","28,900","92,378","2,266,903"
Niuafo'ou,Confirmed Eruption,1929 Jul 25,2,West flank,Historical Observations,1929 Jul 26,-15.6,-175.63,260 m,Tonga,Shield,118,155,155,155
Kilauea,Confirmed Eruption,1929 Jul 25,0,Halemaumau,Historical Observations,1929 Jul 28,19.421,-155.287,1222 m,United States,Shield,"3,122","3,122","8,495","169,550"
Ambrym,Confirmed Eruption,1929 Jun 28,2,"Benbow, west flank, Marum",Historical Observations,1929 Jul 1,-16.25,168.12,1334 m,Vanuatu,Pyroclastic shield,9,186,"10,826","63,999"
Marapi,Confirmed Eruption,1929 Jun 22,2,Kepundan Bongsu,Historical Observations,1929 Jun 22,-0.38,100.474,2885 m,Indonesia,Complex,706,"57,453","818,039","4,059,773"
Hokkaido-Komagatake,Confirmed Eruption,1929 Jun 17,4,"SE and NE of Ansei Crater, Layer Ko-a",Historical Observations,1929 Sep 6,42.063,140.677,1131 m,Japan,Stratovolcano,173,"23,091","234,213","962,081"
Slamet,Confirmed Eruption,1929 Jun 6,2,,Historical Observations,1929 Jun 15,-7.242,109.208,3428 m,Indonesia,Stratovolcano,856,"13,401","2,904,026","20,217,467"
Klyuchevskoy,Confirmed Eruption,1929 Jun,2,,Historical Observations,1929 Sep,56.056,160.642,4754 m,Russia,Stratovolcano,0,0,292,"12,406"
Shishaldin,Confirmed Eruption,1929 May 28,2,Summit and north flank,Historical Observations,1929 Jun 23 (in or after),54.756,-163.97,2857 m,United States,Stratovolcano,0,0,10,197
Tangkuban Parahu,Confirmed Eruption,1929 May 20,0,Kawah Ecoma,Historical Observations,1929 May 20,-6.77,107.6,2084 m,Indonesia,Stratovolcano,"100,608","518,822","5,729,309","32,855,731"
Akutan,Confirmed Eruption,1929 May,2,,Historical Observations,Unknown,54.134,-165.986,1303 m,United States,Stratovolcano,0,24,233,"4,361"
Raung,Confirmed Eruption,1929 Apr 27,2,,Historical Observations,Unknown,-8.119,114.056,3260 m,Indonesia,Stratovolcano,152,572,"581,515","8,123,987"
Yakedake,Confirmed Eruption,1929 Apr 17,2,"Summit (Inkyo-ko), NW flank (Kurodani)",Historical Observations,1929 Apr 19,36.227,137.587,2455 m,Japan,Stratovolcano(es),995,"2,995","156,542","4,595,286"
Gareloi,Confirmed Eruption,1929 Apr,3,SE flank fissure (near summit to sea),Historical Observations,1930,51.79,-178.794,1573 m,United States,Stratovolcano,0,0,0,0
Cleveland,Uncertain Eruption,1929 Mar,--,, ,[ Unknown ],52.825,-169.944,1730 m,United States,Stratovolcano,0,0,0,9
Pavlof,Confirmed Eruption,1929 Mar,2,,Historical Observations,1931 Aug,55.417,-161.894,2493 m,United States,Stratovolcano,0,0,0,"3,002"
Kilauea,Confirmed Eruption,1929 Feb 20,0,Halemaumau,Historical Observations,1929 Feb 21,19.421,-155.287,1222 m,United States,Shield,"3,122","3,122","8,495","169,550"
"Negro, Cerro",Confirmed Eruption,1929 Feb 10,2,,Historical Observations,1929 Mar,12.506,-86.702,728 m,Nicaragua,Pyroclastic cone(s),"1,690","10,243","296,320","3,540,933"
Mutnovsky,Confirmed Eruption,1929 Feb,2,,Historical Observations,Unknown,52.449,158.196,2288 m,Russia,Complex,0,0,97,"250,858"
Asamayama,Confirmed Eruption,1929 Jan 22,2,,Historical Observations,1929 Apr 5,36.406,138.523,2568 m,Japan,Complex,583,"22,371","457,576","7,629,353"
Puyehue-Cordon Caulle,Confirmed Eruption,1929 Jan 7,2,Cordón Caulle,Historical Observations,Unknown,-40.59,-72.117,2236 m,Chile,Stratovolcano,129,783,"7,163","515,357"
Calbuco,Confirmed Eruption,1929 Jan 6,3,,Historical Observations,1929 Jan 6,-41.33,-72.618,1974 m,Chile,Stratovolcano,70,871,"32,265","575,233"
Telica,Confirmed Eruption,1929 Jan,1,,Historical Observations,1929 Jan,12.606,-86.84,1036 m,Nicaragua,Stratovolcano(es),"1,079","21,990","327,294","2,982,538"
Kverkfjoll,Confirmed Eruption,1929 Jan,1,Hveradalur area,Historical Observations,1929 Feb,64.653,-16.647,1930 m,Iceland,Stratovolcano,0,0,0,"2,901"
Poas,Confirmed Eruption,1929,1,,Historical Observations,Unknown,10.2,-84.233,2697 m,Costa Rica,Stratovolcano,"1,947","11,107","950,796","3,411,023"
Reventador,Confirmed Eruption,1929,3,,Historical Observations,Unknown,-0.077,-77.656,3562 m,Ecuador,Stratovolcano,484,963,"4,403","2,619,647"
Antuco,Discredited Eruption,1929,--,, ,[ Unknown ],-37.406,-71.349,2979 m,Chile,Stratovolcano,117,474,"3,872","381,623"
Karymsky,Confirmed Eruption,1929,2,,Historical Observations,Unknown,54.049,159.443,1513 m,Russia,Stratovolcano,0,0,291,"10,848"
Zhupanovsky,Confirmed Eruption,1929,2,,Historical Observations,Unknown,53.589,159.15,2899 m,Russia,Compound,0,0,153,"267,080"
Pagan,Uncertain Eruption,1929,--,"South Pagan, cone within caldera", ,[ 1930 ],18.13,145.8,570 m,United States,Stratovolcano(es),0,0,0,0
Yunaska,Uncertain Eruption,1929,--,, ,[ Unknown ],52.643,-170.629,550 m,United States,Shield,0,0,0,0
Perbakti-Gagak,Confirmed Eruption,1929,1,Cibeureum West,Historical Observations,Unknown,-6.75,106.7,1699 m,Indonesia,Stratovolcano(es),"1,490","28,784","2,333,456","36,630,568"
Manda-Inakir,Confirmed Eruption,1928 Dec 31,2,Kammourta,Historical Observations,Unknown,12.38,42.2,600 m,Ethiopia-Djibouti,Fissure vent(s),116,"1,130","15,991","223,924"
Tengger Caldera,Confirmed Eruption,1928 Dec 16,2,Bromo,Historical Observations,Unknown,-7.942,112.95,2329 m,Indonesia,Stratovolcano(es),"27,826","69,451","1,420,878","22,628,278"
Farallon de Pajaros,Confirmed Eruption,1928 Dec 15,2,,Historical Observations,Unknown,20.546,144.893,337 m,United States,Stratovolcano,0,0,0,0
Tokachidake,Confirmed Eruption,1928 Dec 4,1,Shin-funkako,Historical Observations,1928 Dec 25,43.418,142.686,2077 m,Japan,Stratovolcano(es),12,227,"60,382","1,373,264"
"Chillan, Nevados de",Confirmed Eruption,1928 Nov 30,2,Volcán Nuevo,Historical Observations,1929,-36.868,-71.378,3180 m,Chile,Stratovolcano,68,371,"3,733","512,325"
Etna,Confirmed Eruption,1928 Nov 2,1,"East flank (3000-1200 m), NE Crater",Historical Observations,1928 Nov 20,37.748,14.999,3320 m,Italy,Stratovolcano(es),78,"3,291","1,016,540","3,052,770"
Raung,Confirmed Eruption,1928 Nov,2,,Historical Observations,Unknown,-8.119,114.056,3260 m,Indonesia,Stratovolcano,152,572,"581,515","8,123,987"
Shikotsu,Confirmed Eruption,1928 Sep 6,1,Tarumai,Historical Observations,1929 Feb 10,42.688,141.38,1320 m,Japan,Caldera,"130,474","130,474","316,816","3,096,376"
Asosan,Confirmed Eruption,1928 Sep 6,2,Naka-dake,Historical Observations,1929 Oct 23,32.884,131.104,1592 m,Japan,Caldera,"75,559","75,559","234,591","6,507,519"
Whakaari/White Island,Confirmed Eruption,1928 Sep 1,1,Between Big Donald and Lot's Wife,Historical Observations,1928 Sep 3 ± 1 days,-37.52,177.18,294 m,New Zealand,Stratovolcano(es),5,5,5,"190,290"
Izu-Oshima,Confirmed Eruption,1928 Aug 7,2,Mihara-yama,Historical Observations,1928 Aug 8,34.724,139.394,746 m,Japan,Stratovolcano,"2,381","8,037","8,375","11,837,468"
Paluweh,Confirmed Eruption,1928 Aug 4,3,Rokatenda,Historical Observations,1928 Sep 25,-8.32,121.708,875 m,Indonesia,Stratovolcano,446,446,"5,284","548,803"
Shishaldin,Confirmed Eruption,1928 Aug,2,,Historical Observations,Unknown,54.756,-163.97,2857 m,United States,Stratovolcano,0,0,10,197
Etna,Confirmed Eruption,1928 Jul 31,1,Central Crater,Historical Observations,1928 Aug 20,37.748,14.999,3320 m,Italy,Stratovolcano(es),78,"3,291","1,016,540","3,052,770"
Tongariro,Confirmed Eruption,1928 Jul,2,Ngauruhoe,Historical Observations,Unknown,-39.157,175.632,1978 m,New Zealand,Stratovolcano(es),27,286,"7,591","81,567"
Pinacate,Uncertain Eruption,1928 Jun 9,--,, ,[ Unknown ],31.85,-113.5,1183 m,Mexico,Pyroclastic cone(s),92,92,408,"62,753"
Bulusan,Confirmed Eruption,1928 Jun,2,,Historical Observations,Unknown,12.769,124.056,1535 m,Philippines,Stratovolcano(es),"2,789","74,286","518,705","3,360,418"
Dieng Volcanic Complex,Confirmed Eruption,1928 May 13,2,Butak Petarangan (Timbang),Historical Observations,Unknown,-7.2,109.879,2565 m,Indonesia,Complex,"1,092,929","1,092,929","1,886,942","24,381,814"
Hokkaido-Komagatake,Confirmed Eruption,1928 Mar 28,1,,Historical Observations,Unknown,42.063,140.677,1131 m,Japan,Stratovolcano,173,"23,091","234,213","962,081"
Slamet,Confirmed Eruption,1928 Mar 20,2,,Historical Observations,1928 May 12,-7.242,109.208,3428 m,Indonesia,Stratovolcano,856,"13,401","2,904,026","20,217,467"
Tengger Caldera,Confirmed Eruption,1928 Mar 15,2,Bromo,Historical Observations,1928 Jul,-7.942,112.95,2329 m,Indonesia,Stratovolcano(es),"27,826","69,451","1,420,878","22,628,278"
Tongariro,Confirmed Eruption,1928 Mar 3,2,Ngauruhoe,Historical Observations,Unknown,-39.157,175.632,1978 m,New Zealand,Stratovolcano(es),27,286,"7,591","81,567"
Sarychev Peak,Confirmed Eruption,1928 Feb 14,2,,Historical Observations,Unknown,48.092,153.2,1496 m,Russia,Stratovolcano,17,143,143,148
Irazu,Confirmed Eruption,1928 Feb 14,2,,Historical Observations,1928 May 26 ± 5 days,9.979,-83.852,3432 m,Costa Rica,Stratovolcano,"1,978","25,442","1,667,528","3,432,860"
Sheveluch,Confirmed Eruption,1928 Jan 27,1,,Historical Observations,1929 Apr 15 ± 45 days,56.653,161.36,3283 m,Russia,Stratovolcano,0,0,"1,718","11,613"
Mutnovsky,Confirmed Eruption,1928 Jan 25,2,,Historical Observations,1928 Feb,52.449,158.196,2288 m,Russia,Complex,0,0,97,"250,858"
Concepcion,Confirmed Eruption,1928 Jan 25,2,,Historical Observations,Unknown,11.538,-85.622,1700 m,Nicaragua,Stratovolcano,"14,072","28,900","92,378","2,266,903"
Santorini,Confirmed Eruption,1928 Jan 23,2,Nea Kameni (Naftilos dome),Historical Observations,1928 Mar 17,36.404,25.396,367 m,Greece,Shield(s),"5,176","12,266","12,336","67,468"
Kilauea,Discredited Eruption,1928 Jan 11,--,, ,[ 1928 Jan 11 ],19.421,-155.287,1222 m,United States,Shield,"3,122","3,122","8,495","169,550"
Shikotsu,Confirmed Eruption,1928 Jan 7,2,Tarumai,Historical Observations,1928 Jan 7,42.688,141.38,1320 m,Japan,Caldera,"130,474","130,474","316,816","3,096,376"
Tokachidake,Confirmed Eruption,1928 Jan,1,Shin-funkako,Historical Observations,1928 May 23,43.418,142.686,2077 m,Japan,Stratovolcano(es),12,227,"60,382","1,373,264"
Mayon,Confirmed Eruption,1928 Jan,3,,Historical Observations,1928 Aug 26 ± 5 days,13.257,123.685,2462 m,Philippines,Stratovolcano,"4,350","248,448","1,166,441","4,142,375"
Iliwerung,Confirmed Eruption,1928,2,Iliwerung,Historical Observations,Unknown,-8.532,123.573,583 m,Indonesia,Complex,968,"4,318","79,569","665,081"
Ayelu,Uncertain Eruption,1928,2,, ,[ Unknown ],10.082,40.702,2145 m,Ethiopia,Stratovolcano,193,"1,375","33,262","1,279,214"
Adwa,Uncertain Eruption,1928,2,, ,[ Unknown ],10.063,40.831,1670 m,Ethiopia,Stratovolcano,101,485,"18,645","1,242,922"
Karthala,Confirmed Eruption,1928,1,,Historical Observations,Unknown,-11.75,43.38,2361 m,Comoros,Shield,"225,379","225,379","278,330","399,067"
Macdonald,Uncertain Eruption,1928,0,Volcano Uncertain: pumice rafts in South Pacific, ,[ Unknown ],-28.98,-140.25,-39 m,Undersea Features,Submarine,0,0,0,0
Telica,Confirmed Eruption,1928,2,,Historical Observations,Unknown,12.606,-86.84,1036 m,Nicaragua,Stratovolcano(es),"1,079","21,990","327,294","2,982,538"
Pinta,Confirmed Eruption,1928,--,,Historical Observations,Unknown,0.58,-90.75,780 m,Ecuador,Shield,427,427,427,"1,626"
Kusatsu-Shiranesan,Confirmed Eruption,1927 Dec 29,2,"N Yu-gama & S outer rim (in 1927, not 1928)",Historical Observations,1927 Dec 31,36.618,138.528,2165 m,Japan,Stratovolcano(es),"4,485","14,296","434,049","5,947,593"
Krakatau,Confirmed Eruption,1927 Dec 29,2,Anak Krakatau,Historical Observations,1930 Aug 15,-6.102,105.423,155 m,Indonesia,Caldera,"7,177","7,177","8,027","6,326,159"
Yakedake,Confirmed Eruption,1927 Dec 15,2,"Summit (Inkyo-ko), NW flank (Kurodani)",Historical Observations,1927 Dec 15,36.227,137.587,2455 m,Japan,Stratovolcano(es),995,"2,995","156,542","4,595,286"
Fernandina,Confirmed Eruption,1927 Dec 13,0,South flank near Punta Mangle,Historical Observations,Unknown,-0.37,-91.55,1476 m,Ecuador,Shield,129,129,208,"1,972"
Kizimen,Confirmed Eruption,1927 Dec,2,,Historical Observations,1928 Jan,55.131,160.32,2334 m,Russia,Stratovolcano,0,26,197,"5,564"
Llaima,Confirmed Eruption,1927 Oct 5,2,SE crater and summit crater,Historical Observations,1927 Dec 5,-38.692,-71.729,3125 m,Chile,Stratovolcano,86,811,"18,568","630,458"
Fonuafo'ou,Confirmed Eruption,1927 Oct 4,2,,Historical Observations,1928 Sep (in or after),-20.32,-175.42,-17 m,Tonga,Submarine,302,302,532,"69,016"
Esjufjoll,Uncertain Eruption,1927 Sep 5,1,, ,[ Unknown ],64.25,-16.583,1620 m,Iceland,Stratovolcano,0,0,0,"2,564"
Mageik,Uncertain Eruption,1927 Aug 26,2,, ,[ Unknown ],58.195,-155.253,2165 m,United States,Stratovolcano,0,0,0,376
Raung,Confirmed Eruption,1927 Aug 2,2,Central cone and NW crater wall,Historical Observations,1928 Mar (?),-8.119,114.056,3260 m,Indonesia,Stratovolcano,152,572,"581,515","8,123,987"
Telica,Confirmed Eruption,1927 Aug,2,,Historical Observations,1927 Nov,12.606,-86.84,1036 m,Nicaragua,Stratovolcano(es),"1,079","21,990","327,294","2,982,538"
Kilauea,Confirmed Eruption,1927 Jul 7,0,Halemaumau,Historical Observations,1927 Jul 20,19.421,-155.287,1222 m,United States,Shield,"3,122","3,122","8,495","169,550"
Ulawun,Confirmed Eruption,1927 Jul,2,,Historical Observations,1927 Sep 17 (in or after),-5.05,151.33,2334 m,Papua New Guinea,Stratovolcano,30,"1,801","10,577","61,018"
"Chillan, Nevados de",Confirmed Eruption,1927 Apr 10,2,Volcán Nuevo,Historical Observations,Unknown,-36.868,-71.378,3180 m,Chile,Stratovolcano,68,371,"3,733","512,325"
Akan,Uncertain Eruption,1927 Apr,1,Me-Akan, ,[ 1927 May ],43.384,144.013,1499 m,Japan,Caldera,"2,062","2,062","9,756","929,538"
Kanlaon,Confirmed Eruption,1927 Mar 20,2,,Historical Observations,Unknown,10.412,123.132,2435 m,Philippines,Stratovolcano,"1,662","40,276","923,257","9,345,000"
Nyiragongo,Confirmed Eruption,1927 Mar 16,1,,Historical Observations,1977 Jan 10,-1.52,29.25,3470 m,DR Congo,Stratovolcano,"2,416","31,145","1,006,436","9,087,529"
Asamayama,Confirmed Eruption,1927 Mar,2,,Historical Observations,1928 Jul 25,36.406,138.523,2568 m,Japan,Complex,583,"22,371","457,576","7,629,353"
Slamet,Confirmed Eruption,1927 Feb 27,2,,Historical Observations,1927 Feb 27,-7.242,109.208,3428 m,Indonesia,Stratovolcano,856,"13,401","2,904,026","20,217,467"
Marapi,Confirmed Eruption,1927 Feb 5,2,Kepundan Bongsu,Historical Observations,1927 Aug 3,-0.38,100.474,2885 m,Indonesia,Complex,706,"57,453","818,039","4,059,773"
Yakedake,Confirmed Eruption,1927 Jan 23,2,"Summit (Inkyo-ko), NW flank (Kurodani)",Historical Observations,1927 Apr 29,36.227,137.587,2455 m,Japan,Stratovolcano(es),995,"2,995","156,542","4,595,286"
Mutnovsky,Confirmed Eruption,1927 Jan,2,,Historical Observations,1927 Feb,52.449,158.196,2288 m,Russia,Complex,0,0,97,"250,858"
Sarychev Peak,Confirmed Eruption,1927,2,,Historical Observations,Unknown,48.092,153.2,1496 m,Russia,Stratovolcano,17,143,143,148
Zaozan [Zaosan],Uncertain Eruption,1927,1,Okama, ,[ Unknown ],38.144,140.44,1841 m,Japan,Complex,632,"4,681","550,409","4,956,958"
Shishaldin,Confirmed Eruption,1927,--,,Historical Observations,Unknown,54.756,-163.97,2857 m,United States,Stratovolcano,0,0,10,197
Akutan,Confirmed Eruption,1927,2,,Historical Observations,1928,54.134,-165.986,1303 m,United States,Stratovolcano,0,24,233,"4,361"
Seguam,Uncertain Eruption,1927,--,, ,[ Unknown ],52.315,-172.51,1054 m,United States,Stratovolcano(es),0,0,0,0
Gareloi,Uncertain Eruption,1927,--,, ,[ Unknown ],51.79,-178.794,1573 m,United States,Stratovolcano,0,0,0,0
Kiska,Uncertain Eruption,1927,2,, ,[ Unknown ],52.103,177.602,1220 m,United States,Stratovolcano,0,0,0,0
Iliboleng,Confirmed Eruption,1927,2,,Historical Observations,Unknown,-8.342,123.258,1659 m,Indonesia,Stratovolcano,"30,359","87,503","260,688","757,701"
Sangeang Api,Confirmed Eruption,1927,2,,Historical Observations,Unknown,-8.2,119.07,1912 m,Indonesia,Complex,204,"1,155","39,301","809,132"
Sirung,Uncertain Eruption,1927,2,, ,[ Unknown ],-8.508,124.13,862 m,Indonesia,Complex,"5,966","19,334","69,744","418,756"
Tongariro,Uncertain Eruption,1927,1,North flank (Ketetahi), ,[ Unknown ],-39.157,175.632,1978 m,New Zealand,Stratovolcano(es),27,286,"7,591","81,567"
Villarrica,Confirmed Eruption,1927,2,,Historical Observations,1928,-39.42,-71.93,2847 m,Chile,Stratovolcano,477,"1,067","35,118","667,788"
Izalco,Confirmed Eruption,1927,2,,Historical Observations,1928 (?),13.813,-89.633,1950 m,El Salvador,Stratovolcano,937,"55,665","1,272,308","6,415,818"
Purace,Confirmed Eruption,1927,2,,Historical Observations,Unknown,2.32,-76.4,4650 m,Colombia,Stratovolcano(es),"1,465","7,152","335,698","1,751,540"
Deception Island,Discredited Eruption,1927,--,, ,[ Unknown ],-63.001,-60.652,602 m,Antarctica,Caldera,0,0,0,0
Makushin,Confirmed Eruption,1926 Dec 30,2,,Historical Observations,Unknown,53.891,-166.923,1800 m,United States,Stratovolcano,0,0,"3,437","3,850"
Koryaksky,Confirmed Eruption,1926 Dec 22,1,,Historical Observations,1926 Dec 22,53.321,158.712,3430 m,Russia,Stratovolcano,0,13,"142,050","257,322"
Tongariro,Confirmed Eruption,1926 Dec 21,2,Ngauruhoe,Historical Observations,1926 Dec 30 (?),-39.157,175.632,1978 m,New Zealand,Stratovolcano(es),27,286,"7,591","81,567"
Cumbal,Confirmed Eruption,1926 Dec 20,2,,Historical Observations,1926 Dec 21,0.95,-77.87,4764 m,Colombia,Stratovolcano,"1,405","10,206","244,853","1,800,919"
Slamet,Confirmed Eruption,1926 Nov 23,2,,Historical Observations,1926 Nov 30,-7.242,109.208,3428 m,Indonesia,Stratovolcano,856,"13,401","2,904,026","20,217,467"
Okataina,Confirmed Eruption,1926 Nov 17,1,Rotomahana,Historical Observations,1926 Nov 18,-38.12,176.5,1111 m,New Zealand,Lava dome(s),18,579,"79,591","362,413"
Shikotsu,Confirmed Eruption,1926 Oct 19,2,Tarumai,Historical Observations,1926 Oct 30,42.688,141.38,1320 m,Japan,Caldera,"130,474","130,474","316,816","3,096,376"
Karangetang,Confirmed Eruption,1926 Oct,2,,Historical Observations,Unknown,2.781,125.407,1797 m,Indonesia,Stratovolcano,892,"4,478","11,066","65,667"
Asosan,Confirmed Eruption,1926 Sep 21,2,Naka-dake,Historical Observations,1928 Jan 13,32.884,131.104,1592 m,Japan,Caldera,"75,559","75,559","234,591","6,507,519"
"Fournaise, Piton de la",Confirmed Eruption,1926 Sep 18,2,North flank,Historical Observations,1927 Jun 15,-21.244,55.708,2632 m,France,Shield,"55,859","55,859","246,792","717,820"
Batur,Confirmed Eruption,1926 Aug 2,2,SW flank below Batur III,Historical Observations,1926 Sep 21,-8.242,115.375,1717 m,Indonesia,Caldera,"466,899","466,899","937,766","4,289,189"
Acatenango,Confirmed Eruption,1926 Aug,2,Pico Central,Historical Observations,1927 May 19,14.501,-90.876,3976 m,Guatemala,Stratovolcano(es),"4,329","60,730","1,042,836","7,634,778"
Purace,Confirmed Eruption,1926 Aug,2,,Historical Observations,1926 Sep,2.32,-76.4,4650 m,Colombia,Stratovolcano(es),"1,465","7,152","335,698","1,751,540"
Askja,Confirmed Eruption,1926 Jul 15,2,South end of Öskjuvatn lake,Historical Observations,Unknown,65.033,-16.783,1080 m,Iceland,Stratovolcano,0,0,0,"13,028"
Bogoslof,Confirmed Eruption,1926 Jul,2,Between New and Old Bogoslof,Historical Observations,1928,53.93,-168.03,150 m,United States,Submarine,0,0,0,"4,216"
Eldey,Confirmed Eruption,1926 Jun 5,0,Reykjaneshryggur (NE of Eldey),Historical Observations,Unknown,63.733,-23,70 m,Iceland,Submarine,,,,
Gamkonora,Confirmed Eruption,1926 Jun,1,,Historical Observations,Unknown,1.38,127.53,1635 m,Indonesia,Stratovolcano,"3,354","12,744","61,376","627,128"
Dempo,Confirmed Eruption,1926 Apr 22,2,,Historical Observations,1926 Apr 24,-4.016,103.121,3142 m,Indonesia,Stratovolcano(es),124,"9,613","96,058","2,307,584"
Tongariro,Confirmed Eruption,1926 Apr 16,2,Ngauruhoe and Red Crater,Historical Observations,1926 Jun,-39.157,175.632,1978 m,New Zealand,Stratovolcano(es),27,286,"7,591","81,567"
Mauna Loa,Confirmed Eruption,1926 Apr 10,0,SW rift (2320 m),Historical Observations,1926 Apr 28 (?),19.475,-155.608,4170 m,United States,Shield,45,45,"1,906","175,315"
Avachinsky,Confirmed Eruption,1926 Mar 27,4,,Historical Observations,1927 Mar 14 (?),53.256,158.836,2717 m,Russia,Stratovolcano,0,0,"180,016","270,205"
Klyuchevskoy,Confirmed Eruption,1926 Mar 23,2,,Historical Observations,1926 Apr 7,56.056,160.642,4754 m,Russia,Stratovolcano,0,0,292,"12,406"
Tangkuban Parahu,Confirmed Eruption,1926 Mar 1,1,Kawah Ecoma,Historical Observations,1926 Jul 9,-6.77,107.6,2084 m,Indonesia,Stratovolcano,"100,608","518,822","5,729,309","32,855,731"
Manam,Confirmed Eruption,1926 Mar,2,,Historical Observations,1928 Mar 1 ± 30 days,-4.08,145.037,1807 m,Papua New Guinea,Stratovolcano,"1,106","2,553","24,364","180,402"
Whakaari/White Island,Confirmed Eruption,1926 Feb 3,2,Little Donald vent,Historical Observations,Unknown,-37.52,177.18,294 m,New Zealand,Stratovolcano(es),5,5,5,"190,290"
Reventador,Confirmed Eruption,1926 Jan 5,3,,Historical Observations,1926 May,-0.077,-77.656,3562 m,Ecuador,Stratovolcano,484,963,"4,403","2,619,647"
Etna,Confirmed Eruption,1926 Jan 2,1,NE Crater,Historical Observations,1926 Jun,37.748,14.999,3320 m,Italy,Stratovolcano(es),78,"3,291","1,016,540","3,052,770"
Dallol,Confirmed Eruption,1926,1,,Historical Observations,Unknown,14.242,40.3,-48 m,Ethiopia,Explosion crater(s),461,670,"2,372","820,823"
"Lengai, Ol Doinyo",Confirmed Eruption,1926,2,North Crater,Historical Observations,Unknown,-2.764,35.914,2962 m,Tanzania,Stratovolcano,186,"1,855","18,074","545,305"
Colima,Confirmed Eruption,1926,1,,Historical Observations,1931 (?),19.514,-103.62,3850 m,Mexico,Stratovolcano(es),76,746,"303,490","1,494,790"
Cotopaxi,Confirmed Eruption,1926,2,,Historical Observations,Unknown,-0.677,-78.436,5911 m,Ecuador,Stratovolcano,251,"7,299","152,139","3,631,492"
Fernandina,Confirmed Eruption,1926,--,,Historical Observations,Unknown,-0.37,-91.55,1476 m,Ecuador,Shield,129,129,208,"1,972"
"Fournaise, Piton de la",Confirmed Eruption,1925 Dec 30,2,,Historical Observations,1926 Apr 20,-21.244,55.708,2632 m,France,Shield,"55,859","55,859","246,792","717,820"
Izalco,Confirmed Eruption,1925 Dec 26,3,,Historical Observations,1927 Jan,13.813,-89.633,1950 m,El Salvador,Stratovolcano,937,"55,665","1,272,308","6,415,818"
Tokachidake,Confirmed Eruption,1925 Nov 20,3,Shin-funkako,Historical Observations,1927 Sep,43.418,142.686,2077 m,Japan,Stratovolcano(es),12,227,"60,382","1,373,264"
Tongariro,Confirmed Eruption,1925 Nov,2,Ngauruhoe,Historical Observations,1925 Dec,-39.157,175.632,1978 m,New Zealand,Stratovolcano(es),27,286,"7,591","81,567"
Purace,Confirmed Eruption,1925 Oct 12,2,,Historical Observations,1925 Nov 5,2.32,-76.4,4650 m,Colombia,Stratovolcano(es),"1,465","7,152","335,698","1,751,540"
Santorini,Confirmed Eruption,1925 Aug 11,2,Nea Kameni (Dafni dome),Historical Observations,1926 May,36.404,25.396,367 m,Greece,Shield(s),"5,176","12,266","12,336","67,468"
Karymsky,Confirmed Eruption,1925 Jul,2,,Historical Observations,Unknown,54.049,159.443,1513 m,Russia,Stratovolcano,0,0,291,"10,848"
