volcanoName,eruptionCertainty,startDate,maxVEI,activityArea,evidenceMethod,stopDate,latitude,longitude,volcanoHeight,country,primaryVolcanoType,population5km,population10km,population30km,population100km
Mayon,Confirmed Eruption,1896 Aug 31,2,,Historical Observations,1896 Sep 27,13.257,123.685,2462 m,Philippines,Stratovolcano,"4,350","248,448","1,166,441","4,142,375"
Gamalama,Uncertain Eruption,1896 Aug 3,1,, ,[ 1896 Aug 4 (?) ],0.8,127.33,1715 m,Indonesia,Stratovolcano(es),"103,429","204,820","308,691","536,972"
Raung,Confirmed Eruption,1896 Aug,2,,Historical Observations,Unknown,-8.119,114.056,3260 m,Indonesia,Stratovolcano,152,572,"581,515","8,123,987"
Kilauea,Confirmed Eruption,1896 Jul 11,0,Halemaumau,Historical Observations,1896 Sep 25 ± 5 days,19.421,-155.287,1222 m,United States,Shield,"3,122","3,122","8,495","169,550"
Tangkuban Parahu,Confirmed Eruption,1896 May 22,2,Kawah Baru,Historical Observations,1896 May 23,-6.77,107.6,2084 m,Indonesia,Stratovolcano,"100,608","518,822","5,729,309","32,855,731"
Semeru,Confirmed Eruption,1896 May,2,,Historical Observations,1896 Jun,-8.108,112.922,3657 m,Indonesia,Stratovolcano,"2,686","8,375","1,022,197","20,098,931"
Mauna Loa,Confirmed Eruption,1896 Apr 21,0,Mokuaweoweo,Historical Observations,1896 May 6,19.475,-155.608,4170 m,United States,Shield,45,45,"1,906","175,315"
Zaozan [Zaosan],Confirmed Eruption,1896 Mar 8,1,Okama,Historical Observations,1896 Mar 8,38.144,140.44,1841 m,Japan,Complex,632,"4,681","550,409","4,956,958"
Fuego,Confirmed Eruption,1896 Jan 10,2,,Historical Observations,Unknown,14.473,-90.88,3763 m,Guatemala,Stratovolcano(es),"1,373","54,332","1,016,339","7,677,809"
Kilauea,Confirmed Eruption,1896 Jan 3,0,Halemaumau,Historical Observations,1896 Jan 28,19.421,-155.287,1222 m,United States,Shield,"3,122","3,122","8,495","169,550"
Socorro,Uncertain Eruption,1896,2,, ,[ Unknown ],18.78,-110.95,1050 m,Mexico,Shield,0,0,0,0
Akutan,Confirmed Eruption,1896,--,,Historical Observations,Unknown,54.134,-165.986,1303 m,United States,Stratovolcano,0,24,233,"4,361"
Myojinsho,Confirmed Eruption,1896,2,14 km north of Bayonnaise Rocks,Historical Observations,Unknown,31.888,139.918,11 m,Japan,Submarine,0,0,0,242
Tengger Caldera,Confirmed Eruption,1896,2,Bromo,Historical Observations,Unknown,-7.942,112.95,2329 m,Indonesia,Stratovolcano(es),"27,826","69,451","1,420,878","22,628,278"
Okataina,Confirmed Eruption,1896,1,Waimangu (Echo Crater),Historical Observations,Unknown,-38.12,176.5,1111 m,New Zealand,Lava dome(s),18,579,"79,591","362,413"
Nyamulagira,Confirmed Eruption,1896,1,,Historical Observations,Unknown,-1.408,29.2,3058 m,DR Congo,Shield,"3,751","27,027","711,356","8,333,476"
Huequi,Confirmed Eruption,1896,2,,Historical Observations,Unknown,-42.377,-72.578,1318 m,Chile,Lava dome(s),0,7,"1,076","107,960"
Gamalama,Confirmed Eruption,1895 Dec 19,1,,Historical Observations,1895 Dec 19,0.8,127.33,1715 m,Indonesia,Stratovolcano(es),"103,429","204,820","308,691","536,972"
Hunter Island,Confirmed Eruption,1895 Nov 24,--,East side,Historical Observations,Unknown,-22.4,172.05,297 m,France,Stratovolcano,0,0,0,1
Koryaksky,Discredited Eruption,1895 Oct 15,--,, ,[ 1896 ],53.321,158.712,3430 m,Russia,Stratovolcano,0,13,"142,050","257,322"
Zaozan [Zaosan],Confirmed Eruption,1895 Aug 22,2,Okama,Historical Observations,1895 Sep 28,38.144,140.44,1841 m,Japan,Complex,632,"4,681","550,409","4,956,958"
Akutan,Confirmed Eruption,1895 Aug 1,2,,Historical Observations,1895 Aug 14,54.134,-165.986,1303 m,United States,Stratovolcano,0,24,233,"4,361"
Mayon,Confirmed Eruption,1895 Jul 20,2,Summit and east flank,Historical Observations,1895 Nov 26,13.257,123.685,2462 m,Philippines,Stratovolcano,"4,350","248,448","1,166,441","4,142,375"
Kirishimayama,Confirmed Eruption,1895 Jul 16,2,Ohachi,Historical Observations,1896 Jun 26,31.934,130.862,1700 m,Japan,Shield,647,"8,415","407,050","3,972,044"
Dempo,Confirmed Eruption,1895 Jul 2,2,,Historical Observations,1895 Sep 30,-4.016,103.121,3142 m,Indonesia,Stratovolcano(es),124,"9,613","96,058","2,307,584"
Banua Wuhu,Confirmed Eruption,1895 Jul,2,,Historical Observations,1895 Dec 26 ± 5 days,3.138,125.491,-5 m,Indonesia,Submarine,359,480,"4,586","69,756"
Karkar,Confirmed Eruption,1895 Jun 17,2,,Historical Observations,1895 Aug,-4.649,145.964,1839 m,Papua New Guinea,Stratovolcano,5,"4,159","20,127","189,841"
Semeru,Confirmed Eruption,1895 May 22,2,,Historical Observations,1895 Oct 1,-8.108,112.922,3657 m,Indonesia,Stratovolcano,"2,686","8,375","1,022,197","20,098,931"
Ruapehu,Confirmed Eruption,1895 Mar 10,2,,Historical Observations,1895 Mar 14 (in or after),-39.28,175.57,2797 m,New Zealand,Stratovolcano,14,298,"6,901","119,709"
Azumayama,Confirmed Eruption,1895 Mar 8,1,Issaikyo (near Oana),Historical Observations,1895 Sep 13,37.735,140.244,1949 m,Japan,Stratovolcano(es),128,907,"548,195","4,877,648"
Zaozan [Zaosan],Confirmed Eruption,1895 Feb 15,1,Okama,Historical Observations,1895 Mar 22,38.144,140.44,1841 m,Japan,Complex,632,"4,681","550,409","4,956,958"
Dakataua,Confirmed Eruption,1895,2,Makalia,Anthropology,Unknown,-5.094,150.094,408 m,Papua New Guinea,Caldera,"1,147","1,147","3,743","113,954"
"Barrier, The",Confirmed Eruption,1895,2,North flank (Teleki's Cone),Historical Observations,Unknown,2.32,36.57,1032 m,Kenya,Shield,17,112,"4,180","109,675"
Mahagnao,Uncertain Eruption,1895,--,, ,[ Unknown ],10.882,124.888,860 m,Philippines,Stratovolcano,11,"4,338","66,949","827,590"
San Jose,Confirmed Eruption,1895,2,,Historical Observations,1897,-33.789,-69.895,6070 m,Chile-Argentina,Stratovolcano(es),194,616,"15,963","6,615,248"
Llaima,Confirmed Eruption,1895,2,,Historical Observations,1896,-38.692,-71.729,3125 m,Chile,Stratovolcano,86,811,"18,568","630,458"
Sumaco,Confirmed Eruption,1895,2,,Historical Observations,Unknown,-0.538,-77.626,3990 m,Ecuador,Stratovolcano,39,324,"8,384","679,867"
Cotopaxi,Confirmed Eruption,1895,2,,Historical Observations,Unknown,-0.677,-78.436,5911 m,Ecuador,Stratovolcano,251,"7,299","152,139","3,631,492"
Poas,Confirmed Eruption,1895,1,,Historical Observations,Unknown,10.2,-84.233,2697 m,Costa Rica,Stratovolcano,"1,947","11,107","950,796","3,411,023"
Fonuafo'ou,Uncertain Eruption,1894 Dec,0,, ,[ Unknown ],-20.32,-175.42,-17 m,Tonga,Submarine,302,302,532,"69,016"
Rainier,Uncertain Eruption,1894 Nov 21,1,, ,[ 1894 Dec 24 (?) ],46.853,-121.76,4392 m,United States,Stratovolcano,0,128,"3,187","2,667,609"
Calbuco,Confirmed Eruption,1894 Nov 16,2,,Historical Observations,1895 (?),-41.33,-72.618,1974 m,Chile,Stratovolcano,70,871,"32,265","575,233"
Galunggung,Confirmed Eruption,1894 Oct 17,3,,Historical Observations,1894 Dec,-7.25,108.058,2168 m,Indonesia,Stratovolcano,"4,781","66,495","2,382,939","23,897,342"
Ambrym,Confirmed Eruption,1894 Oct 15,3,Benbow and west flank,Historical Observations,1895 Feb 10 (in or after),-16.25,168.12,1334 m,Vanuatu,Pyroclastic shield,9,186,"10,826","63,999"
Merapi,Confirmed Eruption,1894 Oct,1,,Historical Observations,Unknown,-7.54,110.446,2910 m,Indonesia,Stratovolcano,"49,205","185,849","4,348,473","24,728,414"
Avachinsky,Confirmed Eruption,1894 Oct,2,,Historical Observations,1895 Feb,53.256,158.836,2717 m,Russia,Stratovolcano,0,0,"180,016","270,205"
Shikotsu,Confirmed Eruption,1894 Aug 17,2,Tarumai,Historical Observations,1894 Aug 17,42.688,141.38,1320 m,Japan,Caldera,"130,474","130,474","316,816","3,096,376"
"Fournaise, Piton de la",Confirmed Eruption,1894 Aug,2,,Historical Observations,Unknown,-21.244,55.708,2632 m,France,Shield,"55,859","55,859","246,792","717,820"
Kolokol Group,Confirmed Eruption,1894 Jul 25,2,Berg ?,Historical Observations,1894 Jul 26,46.042,150.083,1328 m,Russia,Stratovolcano,2,2,128,375
Zaozan [Zaosan],Confirmed Eruption,1894 Jul 3,2,Okama,Historical Observations,1894 Jul 3,38.144,140.44,1841 m,Japan,Complex,632,"4,681","550,409","4,956,958"
Nyamulagira,Confirmed Eruption,1894 Jun,2,,Historical Observations,Unknown,-1.408,29.2,3058 m,DR Congo,Shield,"3,751","27,027","711,356","8,333,476"
Kanlaon,Confirmed Eruption,1894 May,2,,Historical Observations,1894 Jun,10.412,123.132,2435 m,Philippines,Stratovolcano,"1,662","40,276","923,257","9,345,000"
Asamayama,Confirmed Eruption,1894 Apr 6,2,,Historical Observations,1894 Jun 14,36.406,138.523,2568 m,Japan,Complex,583,"22,371","457,576","7,629,353"
Azumayama,Confirmed Eruption,1894 Mar 16,1,Issaikyo (near Oana),Historical Observations,1894 Apr 12,37.735,140.244,1949 m,Japan,Stratovolcano(es),128,907,"548,195","4,877,648"
Asosan,Confirmed Eruption,1894 Mar 6,2,Naka-dake,Historical Observations,1894 Aug 30,32.884,131.104,1592 m,Japan,Caldera,"75,559","75,559","234,591","6,507,519"
Kirishimayama,Confirmed Eruption,1894 Feb 25,2,Ohachi,Historical Observations,1894 Feb 28 (?),31.934,130.862,1700 m,Japan,Shield,647,"8,415","407,050","3,972,044"
Shikotsu,Confirmed Eruption,1894 Feb 8,2,Tarumai,Historical Observations,1894 Feb 8,42.688,141.38,1320 m,Japan,Caldera,"130,474","130,474","316,816","3,096,376"
Merapi,Confirmed Eruption,1894 Jan 27,2,,Historical Observations,1894 Feb 2,-7.54,110.446,2910 m,Indonesia,Stratovolcano,"49,205","185,849","4,348,473","24,728,414"
Bulusan,Confirmed Eruption,1894,2,,Historical Observations,Unknown,12.769,124.056,1535 m,Philippines,Stratovolcano(es),"2,789","74,286","518,705","3,360,418"
Nyiragongo,Confirmed Eruption,1894,1,,Historical Observations,Unknown,-1.52,29.25,3470 m,DR Congo,Stratovolcano,"2,416","31,145","1,006,436","9,087,529"
"Lengai, Ol Doinyo",Discredited Eruption,1894,--,, ,[ Unknown ],-2.764,35.914,2962 m,Tanzania,Stratovolcano,186,"1,855","18,074","545,305"
Bagana,Confirmed Eruption,1894,2,,Historical Observations,1895,-6.137,155.196,1855 m,Papua New Guinea,Lava cone,198,404,"7,861","115,257"
Lateiki,Uncertain Eruption,1894,2,, ,[ Unknown ],-19.18,-174.87,43 m,Tonga,Submarine,18,18,18,"7,907"
Opala,Discredited Eruption,1894,--,, ,[ Unknown ],52.543,157.339,2439 m,Russia,Caldera,22,22,50,"58,949"
Alaid,Confirmed Eruption,1894,2,,Historical Observations,Unknown,50.861,155.565,2285 m,Russia,Stratovolcano,0,64,64,"2,887"
Pavlof,Confirmed Eruption,1894,2,,Historical Observations,Unknown,55.417,-161.894,2493 m,United States,Stratovolcano,0,0,0,"3,002"
Reventador,Confirmed Eruption,1894,3,,Historical Observations,Unknown,-0.077,-77.656,3562 m,Ecuador,Stratovolcano,484,963,"4,403","2,619,647"
Irazu,Discredited Eruption,1894,--,, ,[ Unknown ],9.979,-83.852,3432 m,Costa Rica,Stratovolcano,"1,978","25,442","1,667,528","3,432,860"
Semeru,Confirmed Eruption,1893 Dec 11,2,,Historical Observations,1894 Feb,-8.108,112.922,3657 m,Indonesia,Stratovolcano,"2,686","8,375","1,022,197","20,098,931"
Colima,Confirmed Eruption,1893 Dec 4,2,,Historical Observations,1902,19.514,-103.62,3850 m,Mexico,Stratovolcano(es),76,746,"303,490","1,494,790"
Villarrica,Confirmed Eruption,1893 Dec 1,2,,Historical Observations,1894 Feb 1 ± 30 days,-39.42,-71.93,2847 m,Chile,Stratovolcano,477,"1,067","35,118","667,788"
Llaima,Confirmed Eruption,1893 Dec,2,,Historical Observations,1894 Dec,-38.692,-71.729,3125 m,Chile,Stratovolcano,86,811,"18,568","630,458"
Lamongan,Confirmed Eruption,1893 Nov 18,2,,Historical Observations,Unknown,-7.981,113.341,1641 m,Indonesia,Stratovolcano,"6,588","66,387","2,193,829","15,322,387"
Azumayama,Confirmed Eruption,1893 Nov 9,1,Issaikyo,Historical Observations,1893 Nov 10,37.735,140.244,1949 m,Japan,Stratovolcano(es),128,907,"548,195","4,877,648"
Mayon,Confirmed Eruption,1893 Oct 3,1,,Historical Observations,1893 Oct 31,13.257,123.685,2462 m,Philippines,Stratovolcano,"4,350","248,448","1,166,441","4,142,375"
Merapi,Confirmed Eruption,1893 Oct,1,,Historical Observations,Unknown,-7.54,110.446,2910 m,Indonesia,Stratovolcano,"49,205","185,849","4,348,473","24,728,414"
Kanlaon,Confirmed Eruption,1893 Jul,2,,Historical Observations,Unknown,10.412,123.132,2435 m,Philippines,Stratovolcano,"1,662","40,276","923,257","9,345,000"
Azumayama,Confirmed Eruption,1893 May 19,1,Issaikyo (west of Oana),Historical Observations,1893 Jul 13,37.735,140.244,1949 m,Japan,Stratovolcano(es),128,907,"548,195","4,877,648"
Etna,Confirmed Eruption,1893 Apr 26,1,Central Crater,Historical Observations,1898 Jun,37.748,14.999,3320 m,Italy,Stratovolcano(es),78,"3,291","1,016,540","3,052,770"
Lokon-Empung,Confirmed Eruption,1893 Mar 29,2,Tompaluan,Historical Observations,1894 Aug 14 (in or after),1.358,124.792,1580 m,Indonesia,Stratovolcano(es),"12,183","75,684","942,160","1,583,346"
"Chillan, Nevados de",Confirmed Eruption,1893 Mar 4,2,Volcán Viejo,Historical Observations,Unknown,-36.868,-71.378,3180 m,Chile,Stratovolcano,68,371,"3,733","512,325"
Tengger Caldera,Confirmed Eruption,1893 Jan 13,2,Bromo,Historical Observations,1893 Mar 27,-7.942,112.95,2329 m,Indonesia,Stratovolcano(es),"27,826","69,451","1,420,878","22,628,278"
Calbuco,Confirmed Eruption,1893 Jan 7,4,,Historical Observations,1894 Jan 16 (in or after),-41.33,-72.618,1974 m,Chile,Stratovolcano,70,871,"32,265","575,233"
Sorikmarapi,Confirmed Eruption,1893 Jan 4,2,East flank (Sibanggor Julu),Historical Observations,1893 Jan 4,0.686,99.539,2145 m,Indonesia,Stratovolcano,203,"1,469","90,257","1,831,957"
Semeru,Confirmed Eruption,1893 Jan,2,,Historical Observations,1893 May,-8.108,112.922,3657 m,Indonesia,Stratovolcano,"2,686","8,375","1,022,197","20,098,931"
Awu,Confirmed Eruption,1893,2,,Historical Observations,Unknown,3.689,125.447,1318 m,Indonesia,Stratovolcano,"6,409","22,655","52,725","58,719"
Cleveland,Confirmed Eruption,1893,--,,Historical Observations,Unknown,52.825,-169.944,1730 m,United States,Stratovolcano,0,0,0,9
Huequi,Confirmed Eruption,1893,2,,Historical Observations,Unknown,-42.377,-72.578,1318 m,Chile,Lava dome(s),0,7,"1,076","107,960"
Puyehue-Cordon Caulle,Confirmed Eruption,1893,2,Cordón Caulle,Historical Observations,Unknown,-40.59,-72.117,2236 m,Chile,Stratovolcano,129,783,"7,163","515,357"
Vulcano,Uncertain Eruption,1892 Dec 14,0,5 km east of Vulcanello, ,[ Unknown ],38.404,14.962,500 m,Italy,Stratovolcano(es),"2,259","23,059","86,766","2,093,800"
Tongariro,Confirmed Eruption,1892 Nov 30,2,NE flank (upper Te Mari Crater),Historical Observations,Unknown,-39.157,175.632,1978 m,New Zealand,Stratovolcano(es),27,286,"7,591","81,567"
Mauna Loa,Confirmed Eruption,1892 Nov 30,0,Mokuaweoweo,Historical Observations,1892 Dec 3,19.475,-155.608,4170 m,United States,Shield,45,45,"1,906","175,315"
Tongariro,Confirmed Eruption,1892 Nov,2,NE flank (upper Te Mari Crater),Historical Observations,Unknown,-39.157,175.632,1978 m,New Zealand,Stratovolcano(es),27,286,"7,591","81,567"
Lopevi,Confirmed Eruption,1892 Oct,2,,Historical Observations,1893,-16.507,168.346,1413 m,Vanuatu,Stratovolcano,690,793,"7,942","50,310"
Akutan,Confirmed Eruption,1892 Sep 23,1,,Historical Observations,Unknown,54.134,-165.986,1303 m,United States,Stratovolcano,0,24,233,"4,361"
Veniaminof,Confirmed Eruption,1892 Aug 28,3,Western intracaldera cone,Historical Observations,1892 Aug 30,56.17,-159.38,2507 m,United States,Stratovolcano,0,0,0,542
Etna,Confirmed Eruption,1892 Jul 9,2,"South flank (2045-1800 m), Mt. Silvestri",Historical Observations,1892 Dec 29,37.748,14.999,3320 m,Italy,Stratovolcano(es),78,"3,291","1,016,540","3,052,770"
Etna,Confirmed Eruption,1892 Jun 20,2,Central Crater,Historical Observations,1892 Jul 8 (?),37.748,14.999,3320 m,Italy,Stratovolcano(es),78,"3,291","1,016,540","3,052,770"
Karangetang,Confirmed Eruption,1892 Jun 14,2,,Historical Observations,Unknown,2.781,125.407,1797 m,Indonesia,Stratovolcano,892,"4,478","11,066","65,667"
Awu,Confirmed Eruption,1892 Jun 7,3,,Historical Observations,1892 Jun 12 (?),3.689,125.447,1318 m,Indonesia,Stratovolcano,"6,409","22,655","52,725","58,719"
Wurlali,Confirmed Eruption,1892 Jun 3,2,,Historical Observations,1892 Jun 5,-7.125,128.675,868 m,Indonesia,Stratovolcano,219,365,720,901
Sorikmarapi,Confirmed Eruption,1892 May 21,2,Summit and east flank (Jurang Siunik),Historical Observations,Unknown,0.686,99.539,2145 m,Indonesia,Stratovolcano,203,"1,469","90,257","1,831,957"
Seguam,Confirmed Eruption,1892 Apr 15,3,,Historical Observations,Unknown,52.315,-172.51,1054 m,United States,Stratovolcano(es),0,0,0,0
Semeru,Confirmed Eruption,1892 Mar,2,,Historical Observations,1892 Apr,-8.108,112.922,3657 m,Indonesia,Stratovolcano,"2,686","8,375","1,022,197","20,098,931"
Tongariro,Confirmed Eruption,1892 Feb,2,Ngauruhoe,Historical Observations,1892 Mar,-39.157,175.632,1978 m,New Zealand,Stratovolcano(es),27,286,"7,591","81,567"
Hunter Island,Uncertain Eruption,1892,--,, ,[ Unknown ],-22.4,172.05,297 m,France,Stratovolcano,0,0,0,1
Tandikat-Singgalang,Uncertain Eruption,1892,--,Tandikat, ,[ Unknown ],-0.39,100.331,2854 m,Indonesia,Stratovolcano(es),130,"38,799","604,282","4,022,932"
Bulusan,Confirmed Eruption,1892,2,,Historical Observations,Unknown,12.769,124.056,1535 m,Philippines,Stratovolcano(es),"2,789","74,286","518,705","3,360,418"
Pavlof,Confirmed Eruption,1892,2,,Historical Observations,Unknown,55.417,-161.894,2493 m,United States,Stratovolcano,0,0,0,"3,002"
Asamayama,Uncertain Eruption,1892,--,, ,[ Unknown ],36.406,138.523,2568 m,Japan,Complex,583,"22,371","457,576","7,629,353"
Llaima,Confirmed Eruption,1892,2,,Historical Observations,Unknown,-38.692,-71.729,3125 m,Chile,Stratovolcano,86,811,"18,568","630,458"
Melbourne,Confirmed Eruption,1892,--,,Tephrochronology,Unknown,-74.35,164.7,2732 m,Antarctica,Stratovolcano,0,0,0,0
Seguam,Confirmed Eruption,1891 Dec,2,,Historical Observations,Unknown,52.315,-172.51,1054 m,United States,Stratovolcano(es),0,0,0,0
Pantelleria,Uncertain Eruption,1891 Dec,--,South of Pantelleria, ,[ Unknown ],36.77,12.02,836 m,Italy,Shield,"6,561","10,985","12,403","142,817"
Kirishimayama,Confirmed Eruption,1891 Nov 10,2,Ohachi,Historical Observations,1891 Nov 20 (?),31.934,130.862,1700 m,Japan,Shield,647,"8,415","407,050","3,972,044"
Grimsvotn,Confirmed Eruption,1891 Nov,2,,Historical Observations,1892 Mar 16,64.416,-17.316,1719 m,Iceland,Caldera,0,0,0,"1,736"
Pantelleria,Confirmed Eruption,1891 Oct 17,1,Foerstner (4 km NNW of Pantelleria),Historical Observations,1891 Oct 25,36.77,12.02,836 m,Italy,Shield,"6,561","10,985","12,403","142,817"
Mayon,Confirmed Eruption,1891 Oct 3,2,,Historical Observations,1892 Feb 29,13.257,123.685,2462 m,Philippines,Stratovolcano,"4,350","248,448","1,166,441","4,142,375"
Asamayama,Confirmed Eruption,1891 Oct,--,,Historical Observations,1891 Nov (?),36.406,138.523,2568 m,Japan,Complex,583,"22,371","457,576","7,629,353"
Lamongan,Confirmed Eruption,1891 Sep 25,2,,Historical Observations,1891 Oct 5 ± 4 days,-7.981,113.341,1641 m,Indonesia,Stratovolcano,"6,588","66,387","2,193,829","15,322,387"
Merapi,Confirmed Eruption,1891 Aug 25,2,,Historical Observations,1892,-7.54,110.446,2910 m,Indonesia,Stratovolcano,"49,205","185,849","4,348,473","24,728,414"
Colima,Confirmed Eruption,1891 Jul,2,,Historical Observations,1892 Jun,19.514,-103.62,3850 m,Mexico,Stratovolcano(es),76,746,"303,490","1,494,790"
Kirishimayama,Confirmed Eruption,1891 Jun 19,2,Ohachi,Historical Observations,Unknown,31.934,130.862,1700 m,Japan,Shield,647,"8,415","407,050","3,972,044"
Concepcion,Confirmed Eruption,1891 Apr,2,,Historical Observations,1891 Apr,11.538,-85.622,1700 m,Nicaragua,Stratovolcano,"14,072","28,900","92,378","2,266,903"
Etna,Confirmed Eruption,1891 Feb 20,2,Central Crater,Historical Observations,1891 Dec,37.748,14.999,3320 m,Italy,Stratovolcano(es),78,"3,291","1,016,540","3,052,770"
"Chillan, Nevados de",Confirmed Eruption,1891 Feb,2,Volcán Viejo,Historical Observations,Unknown,-36.868,-71.378,3180 m,Chile,Stratovolcano,68,371,"3,733","512,325"
San Pedro-San Pablo,Confirmed Eruption,1891,2,,Historical Observations,Unknown,-21.888,-68.391,6142 m,Chile,Stratovolcano(es),0,156,"2,349","150,795"
"Hudson, Cerro",Confirmed Eruption,1891,--,,Historical Observations,Unknown,-45.9,-72.97,1905 m,Chile,Stratovolcano,0,12,28,"81,642"
Izalco,Confirmed Eruption,1891,2,,Historical Observations,1898 Jul,13.813,-89.633,1950 m,El Salvador,Stratovolcano,937,"55,665","1,272,308","6,415,818"
Galeras,Confirmed Eruption,1891,2,,Historical Observations,Unknown,1.22,-77.37,4276 m,Colombia,Complex,705,"120,817","630,777","1,700,248"
Nyiragongo,Confirmed Eruption,1891,--,Volcano Uncertain: probably Nyiragongo,Unknown,Unknown,-1.52,29.25,3470 m,DR Congo,Stratovolcano,"2,416","31,145","1,006,436","9,087,529"
Visoke,Confirmed Eruption,1891,--,Volcano Uncertain,Unknown,Unknown,-1.458,29.485,3696 m,DR Congo-Rwanda,Stratovolcano,"17,165","88,356","1,162,209","10,953,315"
Gede-Pangrango,Confirmed Eruption,1891,2,,Historical Observations,Unknown,-6.77,106.965,3008 m,Indonesia,Stratovolcano(es),"2,500","154,390","2,315,469","40,640,105"
Almolonga,Discredited Eruption,1891,--,, ,[ Unknown ],14.797,-91.519,3173 m,Guatemala,Stratovolcano,"91,323","287,487","1,126,942","6,828,403"
Akita-Komagatake,Confirmed Eruption,1890 Dec,2,,Historical Observations,1891 Jan,39.761,140.799,1637 m,Japan,Stratovolcano(es),376,"3,864","216,708","2,521,611"
Banda Api,Confirmed Eruption,1890 Nov 23,2,,Historical Observations,1890 Nov 23,-4.523,129.881,596 m,Indonesia,Caldera,"5,682","5,682","5,810","5,810"
Colima,Confirmed Eruption,1890 Nov 18,2,,Historical Observations,Unknown,19.514,-103.62,3850 m,Mexico,Stratovolcano(es),76,746,"303,490","1,494,790"
Akita-Yakeyama,Confirmed Eruption,1890 Sep 23,2,,Historical Observations,Unknown,39.964,140.757,1366 m,Japan,Stratovolcano,127,721,"55,493","3,122,037"
Mayon,Confirmed Eruption,1890 Sep 10,2,,Historical Observations,1890 Sep 30,13.257,123.685,2462 m,Philippines,Stratovolcano,"4,350","248,448","1,166,441","4,142,375"
Lamongan,Confirmed Eruption,1890 Sep 5,2,,Historical Observations,1891 Jan (in or after),-7.981,113.341,1641 m,Indonesia,Stratovolcano,"6,588","66,387","2,193,829","15,322,387"
Mono Lake Volcanic Field,Uncertain Eruption,1890 Aug 23,--,, ,[ 1890 Aug 23 (?) ],38,-119.03,2121 m,United States,Pyroclastic cone(s),"1,066","1,066","1,491","65,028"
Nikko-Shiranesan,Confirmed Eruption,1890 Aug 22,1,Shirane-san,Historical Observations,Unknown,36.799,139.376,2578 m,Japan,Shield,513,"2,502","79,844","9,303,980"
Slamet,Confirmed Eruption,1890 Aug 6,2,,Historical Observations,1890 Aug 29,-7.242,109.208,3428 m,Indonesia,Stratovolcano,856,"13,401","2,904,026","20,217,467"
Raung,Confirmed Eruption,1890 Jul,2,,Historical Observations,1890 Sep 15 ± 2 days,-8.119,114.056,3260 m,Indonesia,Stratovolcano,152,572,"581,515","8,123,987"
Makian,Confirmed Eruption,1890 Jun 20,2,,Historical Observations,1890 Jun 30,0.32,127.4,1357 m,Indonesia,Stratovolcano,"4,986","8,466","21,360","441,768"
Shiretoko-Iozan,Confirmed Eruption,1890 Jun 15,1,NW flank,Historical Observations,Unknown,44.133,145.161,1562 m,Japan,Stratovolcano,6,"1,516","7,890","209,060"
Tengger Caldera,Confirmed Eruption,1890 May,2,Bromo,Historical Observations,1890 Sep,-7.942,112.95,2329 m,Indonesia,Stratovolcano(es),"27,826","69,451","1,420,878","22,628,278"
Etna,Confirmed Eruption,1890 May,2,Central Crater,Historical Observations,1890 Oct 17 (?),37.748,14.999,3320 m,Italy,Stratovolcano(es),78,"3,291","1,016,540","3,052,770"
Klyuchevskoy,Confirmed Eruption,1890 Apr,2,,Historical Observations,Unknown,56.056,160.642,4754 m,Russia,Stratovolcano,0,0,292,"12,406"
Ushkovsky,Confirmed Eruption,1890 Apr,2,,Historical Observations,Unknown,56.113,160.509,3943 m,Russia,Compound,0,0,292,"12,461"
Izalco,Confirmed Eruption,1890 Mar 26,0,Summit and upper east flank,Historical Observations,1890 Apr 20,13.813,-89.633,1950 m,El Salvador,Stratovolcano,937,"55,665","1,272,308","6,415,818"
Lamongan,Confirmed Eruption,1890 Mar 23,2,,Historical Observations,1890 May,-7.981,113.341,1641 m,Indonesia,Stratovolcano,"6,588","66,387","2,193,829","15,322,387"
Tongariro,Uncertain Eruption,1890 Mar,1,SSE flank (Red Crater), ,[ Unknown ],-39.157,175.632,1978 m,New Zealand,Stratovolcano(es),27,286,"7,591","81,567"
"Fournaise, Piton de la",Confirmed Eruption,1890 Feb,2,"Summit, Grandes Pentes",Historical Observations,1891 Feb 4,-21.244,55.708,2632 m,France,Shield,"55,859","55,859","246,792","717,820"
Stromboli,Confirmed Eruption,1890,3,,Historical Observations,1907 May 29,38.789,15.213,924 m,Italy,Stratovolcano,"2,225","2,225","3,894","1,347,563"
Victory,Confirmed Eruption,1890,2,,Historical Observations,1935 ± 5 years,-9.2,149.07,1925 m,Papua New Guinea,Stratovolcano,16,96,"14,042","116,816"
Langila,Confirmed Eruption,1890,0,,Historical Observations,Unknown,-5.525,148.42,1330 m,Papua New Guinea,Complex,213,"3,653","11,641","45,698"
Soputan,Confirmed Eruption,1890,2,,Historical Observations,Unknown,1.112,124.737,1785 m,Indonesia,Stratovolcano,"4,724","69,991","501,336","1,696,768"
Southern EPR-Segment J,Confirmed Eruption,1890,0,,Magnetism,Unknown,-18.175,-113.35,-2650 m,Undersea Features,Submarine,0,0,0,0
Koryaksky,Confirmed Eruption,1890,1,Upper SW flank,Historical Observations,Unknown,53.321,158.712,3430 m,Russia,Stratovolcano,0,13,"142,050","257,322"
Zaozan [Zaosan],Uncertain Eruption,1890,1,Okama, ,[ Unknown ],38.144,140.44,1841 m,Japan,Complex,632,"4,681","550,409","4,956,958"
San Miguel,Confirmed Eruption,1890,2,,Historical Observations,1891,13.434,-88.269,2130 m,El Salvador,Stratovolcano,"1,232","63,007","796,482","3,633,885"
Huequi,Confirmed Eruption,1890,3,,Historical Observations,Unknown,-42.377,-72.578,1318 m,Chile,Lava dome(s),0,7,"1,076","107,960"
Villarrica,Confirmed Eruption,1890,2,,Varve Count,Unknown,-39.42,-71.93,2847 m,Chile,Stratovolcano,477,"1,067","35,118","667,788"
Ioto,Confirmed Eruption,1889 Dec 31,1,Chidoriga-ana,Historical Observations,Unknown,24.751,141.289,169 m,Japan,Caldera,"1,179","1,179","1,189","1,370"
Asamayama,Confirmed Eruption,1889 Dec 24,2,,Historical Observations,Unknown,36.406,138.523,2568 m,Japan,Complex,583,"22,371","457,576","7,629,353"
Kirishimayama,Confirmed Eruption,1889 Dec 10,2,Ohachi,Historical Observations,1889 Dec 18,31.934,130.862,1700 m,Japan,Shield,647,"8,415","407,050","3,972,044"
Nikko-Shiranesan,Confirmed Eruption,1889 Dec 4,1,Shirane-san (west flank),Historical Observations,Unknown,36.799,139.376,2578 m,Japan,Shield,513,"2,502","79,844","9,303,980"
Suwanosejima,Confirmed Eruption,1889 Oct 2,4,O-take,Historical Observations,1889 Oct 13,29.638,129.714,796 m,Japan,Stratovolcano(es),107,107,325,"1,966"
Lamongan,Confirmed Eruption,1889 Sep 7,2,,Historical Observations,1889 Nov,-7.981,113.341,1641 m,Indonesia,Stratovolcano,"6,588","66,387","2,193,829","15,322,387"
Banua Wuhu,Confirmed Eruption,1889 Sep 6,2,,Historical Observations,1889 Sep 9,3.138,125.491,-5 m,Indonesia,Submarine,359,480,"4,586","69,756"
Planchon-Peteroa,Confirmed Eruption,1889 Sep,2,Peteroa (SE of 1762 crater),Historical Observations,1894 (?),-35.223,-70.568,3977 m,Chile,Stratovolcano(es),6,48,"1,345","634,959"
Shiretoko-Iozan,Confirmed Eruption,1889 Aug 9,2,NW flank,Historical Observations,1889 Oct 7 ± 7 days,44.133,145.161,1562 m,Japan,Stratovolcano,6,"1,516","7,890","209,060"
Colima,Confirmed Eruption,1889 Aug 9,4,,Historical Observations,1890 Feb 16,19.514,-103.62,3850 m,Mexico,Stratovolcano(es),76,746,"303,490","1,494,790"
Galeras,Confirmed Eruption,1889 Jul 3,2,,Historical Observations,Unknown,1.22,-77.37,4276 m,Colombia,Complex,705,"120,817","630,777","1,700,248"
Merapi,Confirmed Eruption,1889 Jul,1,,Historical Observations,Unknown,-7.54,110.446,2910 m,Indonesia,Stratovolcano,"49,205","185,849","4,348,473","24,728,414"
Ruang,Confirmed Eruption,1889 Jun,1,,Historical Observations,Unknown,2.3,125.37,725 m,Indonesia,Stratovolcano,878,"1,652","2,766","149,159"
"Fournaise, Piton de la",Confirmed Eruption,1889 Jun,2,Grandes Pentes and summit,Historical Observations,1889 Aug 11 (in or after),-21.244,55.708,2632 m,France,Shield,"55,859","55,859","246,792","717,820"
Gede-Pangrango,Uncertain Eruption,1889 May 8,1,, ,[ Unknown ],-6.77,106.965,3008 m,Indonesia,Stratovolcano(es),"2,500","154,390","2,315,469","40,640,105"
Ruapehu,Confirmed Eruption,1889 May 1,2,,Historical Observations,Unknown,-39.28,175.57,2797 m,New Zealand,Stratovolcano,14,298,"6,901","119,709"
Llaima,Confirmed Eruption,1889 Apr 20,2,,Historical Observations,1889 Jul,-38.692,-71.729,3125 m,Chile,Stratovolcano,86,811,"18,568","630,458"
Marapi,Confirmed Eruption,1889 Mar 27,2,,Historical Observations,1889 Apr 17 (?),-0.38,100.474,2885 m,Indonesia,Complex,706,"57,453","818,039","4,059,773"
Irazu,Discredited Eruption,1889 Feb 28,--,, ,[ Unknown ],9.979,-83.852,3432 m,Costa Rica,Stratovolcano,"1,978","25,442","1,667,528","3,432,860"
Tandikat-Singgalang,Confirmed Eruption,1889 Feb 19,1,Tandikat summit crater and upper NE flank,Historical Observations,1889 Dec 4,-0.39,100.331,2854 m,Indonesia,Stratovolcano(es),130,"38,799","604,282","4,022,932"
Semeru,Confirmed Eruption,1889 Jan,2,,Historical Observations,1891 May 31 (in or after),-8.108,112.922,3657 m,Indonesia,Stratovolcano,"2,686","8,375","1,022,197","20,098,931"
Lewotobi,Confirmed Eruption,1889,2,Lewotobi Lakilaki,Historical Observations,Unknown,-8.542,122.775,1703 m,Indonesia,Stratovolcano(es),"18,686","59,084","284,976","906,184"
Bulusan,Confirmed Eruption,1889,--,,Historical Observations,Unknown,12.769,124.056,1535 m,Philippines,Stratovolcano(es),"2,789","74,286","518,705","3,360,418"
Tokachidake,Confirmed Eruption,1889,2,Maru-yama (Yunuma),Historical Observations,Unknown,43.418,142.686,2077 m,Japan,Stratovolcano(es),12,227,"60,382","1,373,264"
San Jose,Confirmed Eruption,1889,2,,Historical Observations,1890,-33.789,-69.895,6070 m,Chile-Argentina,Stratovolcano(es),194,616,"15,963","6,615,248"
Tupungatito,Confirmed Eruption,1889,2,,Historical Observations,1890,-33.425,-69.797,5660 m,Chile-Argentina,Stratovolcano,612,923,"6,161","6,169,105"
Mayon,Confirmed Eruption,1888 Dec 15,1,,Historical Observations,Unknown,13.257,123.685,2462 m,Philippines,Stratovolcano,"4,350","248,448","1,166,441","4,142,375"
Iya,Uncertain Eruption,1888 Dec,--,, ,[ Unknown ],-8.891,121.641,618 m,Indonesia,Stratovolcano,"10,837","46,835","62,974","535,387"
Nisyros,Confirmed Eruption,1888 Sep 25,2,Polyvotis Micros,Historical Observations,Unknown,36.586,27.16,698 m,Greece,Stratovolcano,672,680,"14,285","461,031"
Lamongan,Confirmed Eruption,1888 Sep,2,,Historical Observations,1888 Oct 6,-7.981,113.341,1641 m,Indonesia,Stratovolcano,"6,588","66,387","2,193,829","15,322,387"
Merapi,Confirmed Eruption,1888 Aug 18,2,,Historical Observations,1888 Dec 20,-7.54,110.446,2910 m,Indonesia,Stratovolcano,"49,205","185,849","4,348,473","24,728,414"
Vulcano,Confirmed Eruption,1888 Aug 2,3,Fossa,Historical Observations,1890 Mar 22,38.404,14.962,500 m,Italy,Stratovolcano(es),"2,259","23,059","86,766","2,093,800"
Bandaisan,Confirmed Eruption,1888 Jul 15,4,"Kobandai, RE1 tephra",Historical Observations,1888 Jul 15,37.601,140.072,1816 m,Japan,Stratovolcano,"5,923","17,608","327,454","4,709,782"
Batur,Confirmed Eruption,1888 May 30,2,SE flank of Batur I,Historical Observations,1888 May 31,-8.242,115.375,1717 m,Indonesia,Caldera,"466,899","466,899","937,766","4,289,189"
Hokkaido-Komagatake,Confirmed Eruption,1888 Apr 14,2,NW side of 1856 (Ansei) crater,Historical Observations,Unknown,42.063,140.677,1131 m,Japan,Stratovolcano,173,"23,091","234,213","962,081"
Etna,Confirmed Eruption,1888 Apr 13,2,Central Crater,Historical Observations,1889 Aug,37.748,14.999,3320 m,Italy,Stratovolcano(es),78,"3,291","1,016,540","3,052,770"
Fernandina,Confirmed Eruption,1888 Apr 10,1,,Historical Observations,Unknown,-0.37,-91.55,1476 m,Ecuador,Shield,129,129,208,"1,972"
Ritter Island,Confirmed Eruption,1888 Mar 13,2,,Historical Observations,1888 Mar 13,-5.519,148.115,75 m,Papua New Guinea,Stratovolcano,3,43,"4,323","68,670"
Tengger Caldera,Uncertain Eruption,1888 Feb 27,2,Bromo, ,[ Unknown ],-7.942,112.95,2329 m,Indonesia,Stratovolcano(es),"27,826","69,451","1,420,878","22,628,278"
Ambrym,Confirmed Eruption,1888 Feb 24,2,"SE flank (6 km from SE Point), Marum",Historical Observations,1888 Apr (?),-16.25,168.12,1334 m,Vanuatu,Pyroclastic shield,9,186,"10,826","63,999"
Kirishimayama,Confirmed Eruption,1888 Feb 21,2,Ohachi,Historical Observations,1888 May 9,31.934,130.862,1700 m,Japan,Shield,647,"8,415","407,050","3,972,044"
Marapi,Confirmed Eruption,1888 Feb 19,2,,Historical Observations,1888 Mar 19,-0.38,100.474,2885 m,Indonesia,Complex,706,"57,453","818,039","4,059,773"
Sorikmarapi,Uncertain Eruption,1888 Feb,--,, ,[ Unknown ],0.686,99.539,2145 m,Indonesia,Stratovolcano,203,"1,469","90,257","1,831,957"
Semeru,Confirmed Eruption,1888 Feb,2,,Historical Observations,1888 Oct,-8.108,112.922,3657 m,Indonesia,Stratovolcano,"2,686","8,375","1,022,197","20,098,931"
Poas,Confirmed Eruption,1888 Jan,1,,Historical Observations,1891,10.2,-84.233,2697 m,Costa Rica,Stratovolcano,"1,947","11,107","950,796","3,411,023"
Egon,Uncertain Eruption,1888,2,, ,[ 1892 ],-8.676,122.455,1661 m,Indonesia,Stratovolcano,818,"23,263","250,257","868,670"
Iliboleng,Confirmed Eruption,1888,2,,Historical Observations,Unknown,-8.342,123.258,1659 m,Indonesia,Stratovolcano,"30,359","87,503","260,688","757,701"
Ebulobo,Confirmed Eruption,1888,2,,Historical Observations,Unknown,-8.817,121.191,2096 m,Indonesia,Stratovolcano,"1,278","24,149","140,204","674,614"
Gede-Pangrango,Confirmed Eruption,1888,2,,Historical Observations,Unknown,-6.77,106.965,3008 m,Indonesia,Stratovolcano(es),"2,500","154,390","2,315,469","40,640,105"
Bam,Uncertain Eruption,1888,--,, ,[ Unknown ],-3.613,144.818,685 m,Papua New Guinea,Stratovolcano,192,192,462,"103,203"
South Island,Confirmed Eruption,1888,1,,Historical Observations,Unknown,2.63,36.6,800 m,Kenya,Stratovolcano,0,0,"1,959","98,303"
"Barrier, The",Confirmed Eruption,1888,0,North flank (Teleki's Cone),Historical Observations,Unknown,2.32,36.57,1032 m,Kenya,Shield,17,112,"4,180","109,675"
Macauley,Uncertain Eruption,1887 Dec 1,0,22 km NNE of Macauley Island, ,[ Unknown ],-30.21,-178.475,238 m,New Zealand,Caldera,0,0,0,0
Alamagan,Uncertain Eruption,1887 Nov 29,--,, ,[ Unknown ],17.6,145.83,744 m,United States,Stratovolcano,0,0,0,0
Sundoro,Confirmed Eruption,1887 Nov 13,2,,Historical Observations,1887 Nov 14,-7.3,109.992,3136 m,Indonesia,Stratovolcano,"52,462","496,751","2,086,299","24,996,512"
Lamongan,Confirmed Eruption,1887 Nov,2,,Historical Observations,1888 Feb 27,-7.981,113.341,1641 m,Indonesia,Stratovolcano,"6,588","66,387","2,193,829","15,322,387"
Gede-Pangrango,Confirmed Eruption,1887 Oct 22,2,,Historical Observations,1887 Oct 22,-6.77,106.965,3008 m,Indonesia,Stratovolcano(es),"2,500","154,390","2,315,469","40,640,105"
Ranau,Uncertain Eruption,1887 Oct 7,--,, ,[ 1888 Jan 20 ],-4.871,103.925,1854 m,Indonesia,Caldera,"12,275","12,275","21,279","939,197"
Shikotsu,Confirmed Eruption,1887 Sep 3,2,Tarumai,Historical Observations,1887 Oct 8,42.688,141.38,1320 m,Japan,Caldera,"130,474","130,474","316,816","3,096,376"
Thordarhyrna,Confirmed Eruption,1887 Aug 15,2,Thordarhyrna,Historical Observations,1889,64.267,-17.617,1650 m,Iceland,Stratovolcano,,,,
Semeru,Confirmed Eruption,1887 Aug,2,,Historical Observations,1887 Oct 11,-8.108,112.922,3657 m,Indonesia,Stratovolcano,"2,686","8,375","1,022,197","20,098,931"
Lamongan,Confirmed Eruption,1887 Jul 3,2,,Historical Observations,1887 Jul 9,-7.981,113.341,1641 m,Indonesia,Stratovolcano,"6,588","66,387","2,193,829","15,322,387"
Lonquimay,Confirmed Eruption,1887 Jun 2,3,NE flank,Historical Observations,1890 Jan,-38.379,-71.586,2832 m,Chile,Stratovolcano,96,540,"13,635","504,320"
Manam,Confirmed Eruption,1887 Jun,2,,Historical Observations,1895,-4.08,145.037,1807 m,Papua New Guinea,Stratovolcano,"1,106","2,553","24,364","180,402"
Tokachidake,Confirmed Eruption,1887 Jun,2,Lower part of Maru-yama?,Historical Observations,Unknown,43.418,142.686,2077 m,Japan,Stratovolcano(es),12,227,"60,382","1,373,264"
Etna,Confirmed Eruption,1887 May 31,1,Central Crater,Historical Observations,1887 Aug,37.748,14.999,3320 m,Italy,Stratovolcano(es),78,"3,291","1,016,540","3,052,770"
Karangetang,Confirmed Eruption,1887 May 27,2,,Historical Observations,1887 May 27,2.781,125.407,1797 m,Indonesia,Stratovolcano,892,"4,478","11,066","65,667"
Kirishimayama,Confirmed Eruption,1887 May,2,Ohachi,Historical Observations,Unknown,31.934,130.862,1700 m,Japan,Shield,647,"8,415","407,050","3,972,044"
Kerinci,Confirmed Eruption,1887 Mar 23,2,,Historical Observations,1887 Mar 30,-1.697,101.264,3800 m,Indonesia,Stratovolcano,304,"33,878","264,107","1,437,454"
Ritter Island,Confirmed Eruption,1887 Feb 2,2,Volcano Uncertain: Probably Ritter or Langila,Unknown,1887 Feb 5,-5.519,148.115,75 m,Papua New Guinea,Stratovolcano,3,43,"4,323","68,670"
Semeru,Confirmed Eruption,1887 Feb,2,,Historical Observations,1887 Mar,-8.108,112.922,3657 m,Indonesia,Stratovolcano,"2,686","8,375","1,022,197","20,098,931"
Mauna Loa,Confirmed Eruption,1887 Jan 16,0,SW rift zone (1740 m) and Mokuaweoweo,Historical Observations,1887 Jan 28 (?),19.475,-155.608,4170 m,United States,Shield,45,45,"1,906","175,315"
Llaima,Confirmed Eruption,1887 Jan 16,2,,Historical Observations,1887 Jun 24,-38.692,-71.729,3125 m,Chile,Stratovolcano,86,811,"18,568","630,458"
Izalco,Confirmed Eruption,1887,2,,Historical Observations,1889,13.813,-89.633,1950 m,El Salvador,Stratovolcano,937,"55,665","1,272,308","6,415,818"
Colima,Confirmed Eruption,1887,0,,Historical Observations,Unknown,19.514,-103.62,3850 m,Mexico,Stratovolcano(es),76,746,"303,490","1,494,790"
Akutan,Confirmed Eruption,1887,0,,Historical Observations,Unknown,54.134,-165.986,1303 m,United States,Stratovolcano,0,24,233,"4,361"
Akita-Yakeyama,Confirmed Eruption,1887,2,Karenuma,Historical Observations,Unknown,39.964,140.757,1366 m,Japan,Stratovolcano,127,721,"55,493","3,122,037"
Guntur,Uncertain Eruption,1887,--,, ,[ Unknown ],-7.143,107.84,2249 m,Indonesia,Complex,"4,652","218,012","3,412,038","24,486,191"
Niuafo'ou,Confirmed Eruption,1887,2,,Historical Observations,Unknown,-15.6,-175.63,260 m,Tonga,Shield,118,155,155,155
Musuan,Uncertain Eruption,1886 Dec 31,1,, ,[ Unknown ],7.877,125.068,646 m,Philippines,Lava dome,"67,591","134,114","517,243","6,198,562"
Tengger Caldera,Confirmed Eruption,1886 Nov 11,2,Bromo,Historical Observations,1887 Jan 25,-7.942,112.95,2329 m,Indonesia,Stratovolcano(es),"27,826","69,451","1,420,878","22,628,278"
Whakaari/White Island,Confirmed Eruption,1886 Sep 16,2,,Historical Observations,1886 Dec (?),-37.52,177.18,294 m,New Zealand,Stratovolcano(es),5,5,5,"190,290"
Niuafo'ou,Confirmed Eruption,1886 Aug 31,4,NE side of caldera,Historical Observations,1886 Sep 18 (?),-15.6,-175.63,260 m,Tonga,Shield,118,155,155,155
Mayon,Confirmed Eruption,1886 Jul 8,3,,Historical Observations,1887 Mar 10,13.257,123.685,2462 m,Philippines,Stratovolcano,"4,350","248,448","1,166,441","4,142,375"
Ambrym,Confirmed Eruption,1886 Jul,2,,Historical Observations,Unknown,-16.25,168.12,1334 m,Vanuatu,Pyroclastic shield,9,186,"10,826","63,999"
Whakaari/White Island,Uncertain Eruption,1886 Jun 10,2,, ,[ 1886 Jun 15 ],-37.52,177.18,294 m,New Zealand,Stratovolcano(es),5,5,5,"190,290"
Okataina,Confirmed Eruption,1886 Jun 10,5,Tarawera (Wahanga-Waimangu fissure),Historical Observations,1886 Aug,-38.12,176.5,1111 m,New Zealand,Lava dome(s),18,579,"79,591","362,413"
Gede-Pangrango,Confirmed Eruption,1886 Jun 10,2,,Historical Observations,1886 Aug 16,-6.77,106.965,3008 m,Indonesia,Stratovolcano(es),"2,500","154,390","2,315,469","40,640,105"
Tongariro,Confirmed Eruption,1886 Jun,2,NE flank (upper Te Mari Crater),Historical Observations,Unknown,-39.157,175.632,1978 m,New Zealand,Stratovolcano(es),27,286,"7,591","81,567"
Momotombo,Confirmed Eruption,1886 May 19,2,,Historical Observations,1887 (?),12.423,-86.539,1270 m,Nicaragua,Stratovolcano,100,"1,851","98,583","3,569,021"
Etna,Confirmed Eruption,1886 May 18,3,"S flank (1525-1320 m), Mt. Gemmellaro",Historical Observations,1886 Jun 7,37.748,14.999,3320 m,Italy,Stratovolcano(es),78,"3,291","1,016,540","3,052,770"
Karangetang,Confirmed Eruption,1886 Apr 25,2,Crater III,Historical Observations,1886 Jun 19 (in or after),2.781,125.407,1797 m,Indonesia,Stratovolcano,892,"4,478","11,066","65,667"
Tengger Caldera,Confirmed Eruption,1886 Apr 15,2,Bromo,Historical Observations,1886 Apr 26,-7.942,112.95,2329 m,Indonesia,Stratovolcano(es),"27,826","69,451","1,420,878","22,628,278"
Shikotsu,Confirmed Eruption,1886 Apr 13,2,Tarumai,Historical Observations,1886 Apr 28,42.688,141.38,1320 m,Japan,Caldera,"130,474","130,474","316,816","3,096,376"
Marapi,Confirmed Eruption,1886 Mar 31,2,,Historical Observations,1886 May 3,-0.38,100.474,2885 m,Indonesia,Complex,706,"57,453","818,039","4,059,773"
Raoul Island,Confirmed Eruption,1886 Mar,0,NNE flank (7.5 km from Raoul Island),Historical Observations,Unknown,-29.27,-177.92,516 m,New Zealand,Stratovolcano,0,0,0,0
Semeru,Confirmed Eruption,1886 Jan 25,2,,Historical Observations,1886 Aug 26 ± 5 days,-8.108,112.922,3657 m,Indonesia,Stratovolcano,"2,686","8,375","1,022,197","20,098,931"
Tungurahua,Confirmed Eruption,1886 Jan 11,4,,Historical Observations,1888 ± 1 years,-1.467,-78.442,5023 m,Ecuador,Stratovolcano,476,"20,990","183,640","1,571,744"
Vulcano,Confirmed Eruption,1886 Jan 5,3,Fossa,Historical Observations,Unknown,38.404,14.962,500 m,Italy,Stratovolcano(es),"2,259","23,059","86,766","2,093,800"
Cotopaxi,Confirmed Eruption,1886 Jan,2,,Historical Observations,Unknown,-0.677,-78.436,5911 m,Ecuador,Stratovolcano,251,"7,299","152,139","3,631,492"
Irazu,Confirmed Eruption,1886,2,,Historical Observations,Unknown,9.979,-83.852,3432 m,Costa Rica,Stratovolcano,"1,978","25,442","1,667,528","3,432,860"
Meru,Confirmed Eruption,1886,0,Dome NW of Ash Cone,Historical Observations,Unknown,-3.244,36.75,4550 m,Tanzania,Stratovolcano,0,"2,506","828,942","2,375,631"
Lateiki,Confirmed Eruption,1886,2,,Historical Observations,Unknown,-19.18,-174.87,43 m,Tonga,Submarine,18,18,18,"7,907"
Tinakula,Confirmed Eruption,1886,--,,Historical Observations,Unknown,-10.386,165.804,796 m,Solomon Islands,Stratovolcano,0,19,19,"20,155"
Bamus,Confirmed Eruption,1886,3,,Historical Observations,Unknown,-5.2,151.23,2248 m,Papua New Guinea,Stratovolcano,50,630,"19,320","71,997"
Bulusan,Confirmed Eruption,1886,2,,Historical Observations,Unknown,12.769,124.056,1535 m,Philippines,Stratovolcano(es),"2,789","74,286","518,705","3,360,418"
Pavlof,Confirmed Eruption,1886,2,,Historical Observations,Unknown,55.417,-161.894,2493 m,United States,Stratovolcano,0,0,0,"3,002"
Colima,Confirmed Eruption,1885 Dec 26,3,,Historical Observations,1886 Oct,19.514,-103.62,3850 m,Mexico,Stratovolcano(es),76,746,"303,490","1,494,790"
Pacaya,Confirmed Eruption,1885 Dec,2,,Historical Observations,Unknown,14.382,-90.601,2569 m,Guatemala,Complex,"4,250","53,579","2,454,482","7,033,094"
Lawu,Confirmed Eruption,1885 Nov 28,1,,Historical Observations,1885 Nov 28,-7.625,111.192,3265 m,Indonesia,Stratovolcano,"2,171","68,175","2,344,575","24,931,156"
Mayon,Confirmed Eruption,1885 Nov 21,2,,Historical Observations,1885 Dec 2,13.257,123.685,2462 m,Philippines,Stratovolcano,"4,350","248,448","1,166,441","4,142,375"
Marapi,Confirmed Eruption,1885 Nov 12,2,,Historical Observations,Unknown,-0.38,100.474,2885 m,Indonesia,Complex,706,"57,453","818,039","4,059,773"
Tengger Caldera,Confirmed Eruption,1885 Oct 31,2,Bromo,Historical Observations,1886 Jan 10,-7.942,112.95,2329 m,Indonesia,Stratovolcano(es),"27,826","69,451","1,420,878","22,628,278"
Fonuafo'ou,Confirmed Eruption,1885 Oct 12,3,,Historical Observations,1886,-20.32,-175.42,-17 m,Tonga,Submarine,302,302,532,"69,016"
Tofua,Confirmed Eruption,1885 Oct,2,,Historical Observations,Unknown,-19.75,-175.07,515 m,Tonga,Caldera,"1,556","1,556","1,556","8,789"
Whakaari/White Island,Confirmed Eruption,1885 Oct,2,West end of crater,Historical Observations,Unknown,-37.52,177.18,294 m,New Zealand,Stratovolcano(es),5,5,5,"190,290"
Momotombo,Uncertain Eruption,1885 Oct,1,, ,[ Unknown ],12.423,-86.539,1270 m,Nicaragua,Stratovolcano,100,"1,851","98,583","3,569,021"
Iliboleng,Confirmed Eruption,1885 Sep,2,,Historical Observations,1885 Oct,-8.342,123.258,1659 m,Indonesia,Stratovolcano,"30,359","87,503","260,688","757,701"
Awu,Confirmed Eruption,1885 Aug 18,2,,Historical Observations,Unknown,3.689,125.447,1318 m,Indonesia,Stratovolcano,"6,409","22,655","52,725","58,719"
Cotopaxi,Confirmed Eruption,1885 Jul 23,2,,Historical Observations,Unknown,-0.677,-78.436,5911 m,Ecuador,Stratovolcano,251,"7,299","152,139","3,631,492"
Raung,Confirmed Eruption,1885 Jun 21,2,,Historical Observations,1885 Jun 22,-8.119,114.056,3260 m,Indonesia,Stratovolcano,152,572,"581,515","8,123,987"
Tengger Caldera,Confirmed Eruption,1885 Jun,2,Bromo,Historical Observations,Unknown,-7.942,112.95,2329 m,Indonesia,Stratovolcano(es),"27,826","69,451","1,420,878","22,628,278"
Purace,Confirmed Eruption,1885 May 25,3,,Historical Observations,Unknown,2.32,-76.4,4650 m,Colombia,Stratovolcano(es),"1,465","7,152","335,698","1,751,540"
Bam,Uncertain Eruption,1885 May 20,--,, ,[ Unknown ],-3.613,144.818,685 m,Papua New Guinea,Stratovolcano,192,192,462,"103,203"
Manam,Confirmed Eruption,1885 May,--,,Historical Observations,Unknown,-4.08,145.037,1807 m,Papua New Guinea,Stratovolcano,"1,106","2,553","24,364","180,402"
Slamet,Confirmed Eruption,1885 Mar 21,2,,Historical Observations,1885 Mar 30,-7.242,109.208,3428 m,Indonesia,Stratovolcano,856,"13,401","2,904,026","20,217,467"
Lamongan,Confirmed Eruption,1885 Mar 11,2,,Historical Observations,1886 Oct 15 ± 5 days,-7.981,113.341,1641 m,Indonesia,Stratovolcano,"6,588","66,387","2,193,829","15,322,387"
Merapi,Confirmed Eruption,1885 Feb 24,1,,Historical Observations,1887,-7.54,110.446,2910 m,Indonesia,Stratovolcano,"49,205","185,849","4,348,473","24,728,414"
Guntur,Uncertain Eruption,1885 Jan 18,--,, ,[ Unknown ],-7.143,107.84,2249 m,Indonesia,Complex,"4,652","218,012","3,412,038","24,486,191"
Ritter Island,Uncertain Eruption,1885 Jan 13,--,, ,[ Unknown ],-5.519,148.115,75 m,Papua New Guinea,Stratovolcano,3,43,"4,323","68,670"
Shikotsu,Confirmed Eruption,1885 Jan 4,2,Tarumai,Historical Observations,1885 Mar 26,42.688,141.38,1320 m,Japan,Caldera,"130,474","130,474","316,816","3,096,376"
Whakaari/White Island,Uncertain Eruption,1885 Jan,2,, ,[ Unknown ],-37.52,177.18,294 m,New Zealand,Stratovolcano(es),5,5,5,"190,290"
Gede-Pangrango,Uncertain Eruption,1885 Jan,2,, ,[ 1885 Feb ],-6.77,106.965,3008 m,Indonesia,Stratovolcano(es),"2,500","154,390","2,315,469","40,640,105"
Suwanosejima,Confirmed Eruption,1885 Jan,2,O-take,Historical Observations,1885 May,29.638,129.714,796 m,Japan,Stratovolcano(es),107,107,325,"1,966"
Tungurahua,Confirmed Eruption,1885 Jan,2,,Historical Observations,1885 Oct 16,-1.467,-78.442,5023 m,Ecuador,Stratovolcano,476,"20,990","183,640","1,571,744"
Irazu,Confirmed Eruption,1885,2,,Historical Observations,Unknown,9.979,-83.852,3432 m,Costa Rica,Stratovolcano,"1,978","25,442","1,667,528","3,432,860"
Izalco,Confirmed Eruption,1885,2,,Historical Observations,Unknown,13.813,-89.633,1950 m,El Salvador,Stratovolcano,937,"55,665","1,272,308","6,415,818"
Isluga,Confirmed Eruption,1885,1,,Historical Observations,Unknown,-19.15,-68.83,5550 m,Chile,Stratovolcano,1,703,"5,961","32,205"
Taal,Uncertain Eruption,1885,--,, ,[ Unknown ],14.002,120.993,311 m,Philippines,Caldera,"717,090","717,090","2,380,326","24,814,047"
Gamkonora,Confirmed Eruption,1885,2,,Historical Observations,Unknown,1.38,127.53,1635 m,Indonesia,Stratovolcano,"3,354","12,744","61,376","627,128"
Tongariro,Confirmed Eruption,1885,1,SSE flank (Red Crater),Historical Observations,1887,-39.157,175.632,1978 m,New Zealand,Stratovolcano(es),27,286,"7,591","81,567"
Karkar,Confirmed Eruption,1885,2,,Historical Observations,Unknown,-4.649,145.964,1839 m,Papua New Guinea,Stratovolcano,5,"4,159","20,127","189,841"
Semeru,Confirmed Eruption,1884 Dec 10,2,,Historical Observations,1885 Sep,-8.108,112.922,3657 m,Indonesia,Stratovolcano,"2,686","8,375","1,022,197","20,098,931"
Gamalama,Uncertain Eruption,1884 Dec 8,1,, ,[ 1884 Dec 9 (?) ],0.8,127.33,1715 m,Indonesia,Stratovolcano(es),"103,429","204,820","308,691","536,972"
Wrangell,Uncertain Eruption,1884 Oct 26,2,, ,[ 1885 Feb 4 ],62.006,-144.017,4278 m,United States,Shield,0,0,0,"1,844"
Rinjani,Confirmed Eruption,1884 Aug 8,2,Gunung Barujari,Historical Observations,1884 Aug 10 ± 1 days,-8.42,116.47,3726 m,Indonesia,Stratovolcano,"10,289","55,594","1,374,441","3,555,330"
Eldey,Uncertain Eruption,1884 Jul 26,2,Reykjaneshryggur (NW of Eldey), ,[ Unknown ],63.733,-23,70 m,Iceland,Submarine,,,,
Ushishur,Confirmed Eruption,1884 Jul,1,SE caldera wall,Historical Observations,Unknown,47.52,152.8,401 m,Russia,Caldera,0,0,16,275
Dempo,Confirmed Eruption,1884 Jun,2,,Historical Observations,1884 Jul,-4.016,103.121,3142 m,Indonesia,Stratovolcano(es),124,"9,613","96,058","2,307,584"
Gamalama,Confirmed Eruption,1884 May,2,,Historical Observations,1884 May,0.8,127.33,1715 m,Indonesia,Stratovolcano(es),"103,429","204,820","308,691","536,972"
Kanlaon,Uncertain Eruption,1884 May,2,, ,[ 1884 Jun ],10.412,123.132,2435 m,Philippines,Stratovolcano,"1,662","40,276","923,257","9,345,000"
Asosan,Confirmed Eruption,1884 Mar 21,2,Naka-dake,Historical Observations,1884 Jun,32.884,131.104,1592 m,Japan,Caldera,"75,559","75,559","234,591","6,507,519"
Izalco,Confirmed Eruption,1884 Mar 9,2,,Historical Observations,1884 Mar 10,13.813,-89.633,1950 m,El Salvador,Stratovolcano,937,"55,665","1,272,308","6,415,818"
Santa Ana,Confirmed Eruption,1884 Mar 9,2,,Historical Observations,1884 Mar 10,13.853,-89.63,2381 m,El Salvador,Stratovolcano,489,"21,653","1,240,131","6,486,880"
"Fournaise, Piton de la",Confirmed Eruption,1884 Feb 4,0,,Historical Observations,1884 Feb 5,-21.244,55.708,2632 m,France,Shield,"55,859","55,859","246,792","717,820"
San Miguel,Confirmed Eruption,1884 Jan 25,2,NE side of main crater,Historical Observations,1884 Jan 28 ± 1 days,13.434,-88.269,2130 m,El Salvador,Stratovolcano,"1,232","63,007","796,482","3,633,885"
Kilauea,Confirmed Eruption,1884 Jan 22,0,East rift zone (-20? m),Historical Observations,1884 Jan 22,19.421,-155.287,1222 m,United States,Shield,"3,122","3,122","8,495","169,550"
Lamongan,Confirmed Eruption,1884 Jan 6,2,,Historical Observations,1884 Jun 23,-7.981,113.341,1641 m,Indonesia,Stratovolcano,"6,588","66,387","2,193,829","15,322,387"
Suwanosejima,Confirmed Eruption,1884,1,Northeastern summit crater (O-take),Historical Observations,Unknown,29.638,129.714,796 m,Japan,Stratovolcano(es),107,107,325,"1,966"
Nyiragongo,Confirmed Eruption,1884,1,Southern pit,Historical Observations,Unknown,-1.52,29.25,3470 m,DR Congo,Stratovolcano,"2,416","31,145","1,006,436","9,087,529"
Etna,Confirmed Eruption,1884,1,Central Crater,Historical Observations,1886 Apr,37.748,14.999,3320 m,Italy,Stratovolcano(es),78,"3,291","1,016,540","3,052,770"
Langila,Confirmed Eruption,1884,2,,Historical Observations,Unknown,-5.525,148.42,1330 m,Papua New Guinea,Complex,213,"3,653","11,641","45,698"
Ambrym,Confirmed Eruption,1884,2,Marum and/or Benbow,Historical Observations,Unknown,-16.25,168.12,1334 m,Vanuatu,Pyroclastic shield,9,186,"10,826","63,999"
Manam,Uncertain Eruption,1884,--,, ,[ Unknown ],-4.08,145.037,1807 m,Papua New Guinea,Stratovolcano,"1,106","2,553","24,364","180,402"
Bam,Discredited Eruption,1884,--,, ,[ Unknown ],-3.613,144.818,685 m,Papua New Guinea,Stratovolcano,192,192,462,"103,203"
Baker,Uncertain Eruption,1884,--,Sherman Crater, ,[ Unknown ],48.777,-121.813,3285 m,United States,Stratovolcano(es),0,46,"8,568","1,990,504"
Chirinkotan,Confirmed Eruption,1884,0,North foot of inner summit cone,Historical Observations,Unknown,48.98,153.48,724 m,Russia,Stratovolcano,0,0,0,6
Concepcion,Confirmed Eruption,1884,2,,Historical Observations,1886,11.538,-85.622,1700 m,Nicaragua,Stratovolcano,"14,072","28,900","92,378","2,266,903"
Bagana,Confirmed Eruption,1883 Dec 31,3,,Historical Observations,Unknown,-6.137,155.196,1855 m,Papua New Guinea,Lava cone,198,404,"7,861","115,257"
Dieng Volcanic Complex,Confirmed Eruption,1883 Dec 26,1,Sikidang,Historical Observations,1884 Mar 18,-7.2,109.879,2565 m,Indonesia,Complex,"1,092,929","1,092,929","1,886,942","24,381,814"
Marapi,Confirmed Eruption,1883 Dec,1,,Historical Observations,1883 Dec,-0.38,100.474,2885 m,Indonesia,Complex,706,"57,453","818,039","4,059,773"
Cotopaxi,Confirmed Eruption,1883 Dec,2,,Historical Observations,Unknown,-0.677,-78.436,5911 m,Ecuador,Stratovolcano,251,"7,299","152,139","3,631,492"
Shikotsu,Confirmed Eruption,1883 Oct 7,2,Tarumai,Historical Observations,1883 Nov 5,42.688,141.38,1320 m,Japan,Caldera,"130,474","130,474","316,816","3,096,376"
Augustine,Confirmed Eruption,1883 Oct 6,4,,Historical Observations,1884 (?),59.363,-153.43,1252 m,United States,Lava dome(s),0,0,0,759
Bogoslof,Confirmed Eruption,1883 Sep 27,3,New Bogoslof (Grewingk),Historical Observations,1895 ± 2 years,53.93,-168.03,150 m,United States,Submarine,0,0,0,"4,216"
Izalco,Confirmed Eruption,1883 Sep 5,2,,Historical Observations,1883 Nov 13,13.813,-89.633,1950 m,El Salvador,Stratovolcano,937,"55,665","1,272,308","6,415,818"
Awu,Confirmed Eruption,1883 Aug 25,2,,Historical Observations,1883 Aug 26,3.689,125.447,1318 m,Indonesia,Stratovolcano,"6,409","22,655","52,725","58,719"
Karangetang,Confirmed Eruption,1883 Aug 25,2,Crater II?,Historical Observations,1883 Aug 26,2.781,125.407,1797 m,Indonesia,Stratovolcano,892,"4,478","11,066","65,667"
Sundoro,Confirmed Eruption,1883 Aug,2,,Historical Observations,Unknown,-7.3,109.992,3136 m,Indonesia,Stratovolcano,"52,462","496,751","2,086,299","24,996,512"
Cotopaxi,Confirmed Eruption,1883 Aug,2,,Historical Observations,Unknown,-0.677,-78.436,5911 m,Ecuador,Stratovolcano,251,"7,299","152,139","3,631,492"
Kanlaon,Uncertain Eruption,1883 Jul,2,, ,[ Unknown ],10.412,123.132,2435 m,Philippines,Stratovolcano,"1,662","40,276","923,257","9,345,000"
Klyuchevskoy,Confirmed Eruption,1883 Jul,2,,Historical Observations,1883 Aug,56.056,160.642,4754 m,Russia,Stratovolcano,0,0,292,"12,406"
Marapi,Confirmed Eruption,1883 Jun 25,1,,Historical Observations,1883 Aug 27,-0.38,100.474,2885 m,Indonesia,Complex,706,"57,453","818,039","4,059,773"
Krakatau,Confirmed Eruption,1883 May 20,6,"Krakatau Island (Perbuwatan, Danan)",Historical Observations,1883 Oct 21 (?),-6.102,105.423,155 m,Indonesia,Caldera,"7,177","7,177","8,027","6,326,159"
Moyorodake [Medvezhia],Confirmed Eruption,1883 May,2,Kudriavy,Historical Observations,1883 Jun,45.389,148.838,1124 m,Japan - administered by Russia,Stratovolcano,11,42,600,"4,333"
Tongariro,Confirmed Eruption,1883 Apr 25,2,Ngauruhoe (south sub-crater),Historical Observations,Unknown,-39.157,175.632,1978 m,New Zealand,Stratovolcano(es),27,286,"7,591","81,567"
Milna,Confirmed Eruption,1883 Apr 15,1,Goriaschaia Sopka,Historical Observations,Unknown,46.815,151.786,1504 m,Russia,Stratovolcano,43,47,49,188
Lamongan,Confirmed Eruption,1883 Apr 13,2,,Historical Observations,1883 May 4 ± 1 days,-7.981,113.341,1641 m,Indonesia,Stratovolcano,"6,588","66,387","2,193,829","15,322,387"
Concepcion,Confirmed Eruption,1883 Apr 5,2,,Historical Observations,1883 Jun 30,11.538,-85.622,1700 m,Nicaragua,Stratovolcano,"14,072","28,900","92,378","2,266,903"
St. Andrew Strait,Confirmed Eruption,1883 Mar 28,2,Tuluman,Historical Observations,Unknown,-2.38,147.35,270 m,Papua New Guinea,Complex,633,678,"2,870","47,539"
Etna,Confirmed Eruption,1883 Mar 22,2,"South flank (1200-950 m, Mt. Leone)",Historical Observations,1883 Mar 24,37.748,14.999,3320 m,Italy,Stratovolcano(es),78,"3,291","1,016,540","3,052,770"
Karthala,Confirmed Eruption,1883 Mar,2,SE flank,Historical Observations,1884,-11.75,43.38,2361 m,Comoros,Shield,"225,379","225,379","278,330","399,067"
Bam,Uncertain Eruption,1883 Mar,--,, ,[ Unknown ],-3.613,144.818,685 m,Papua New Guinea,Stratovolcano,192,192,462,"103,203"
"Chillan, Nevados de",Uncertain Eruption,1883 Jan 21,2,Volcán Viejo (Volcán las Aguilas?), ,[ Unknown ],-36.868,-71.378,3180 m,Chile,Stratovolcano,68,371,"3,733","512,325"
Grimsvotn,Confirmed Eruption,1883 Jan 15,2,,Historical Observations,1883 Apr 15 ± 5 days,64.416,-17.316,1719 m,Iceland,Caldera,0,0,0,"1,736"
Irazu,Discredited Eruption,1883 Jan 3,--,, ,[ Unknown ],9.979,-83.852,3432 m,Costa Rica,Stratovolcano,"1,978","25,442","1,667,528","3,432,860"
Merapi,Confirmed Eruption,1883 Jan,1,East dome,Historical Observations,1884 Nov,-7.54,110.446,2910 m,Indonesia,Stratovolcano,"49,205","185,849","4,348,473","24,728,414"
Hainan Volcanic Field,Confirmed Eruption,1883,--,Lingao,Historical Observations,Unknown,19.905,110.229,196 m,China,Pyroclastic cone(s),"1,731,229","1,731,229","1,731,229","6,213,231"
Ambrym,Confirmed Eruption,1883,2,Marum,Historical Observations,Unknown,-16.25,168.12,1334 m,Vanuatu,Pyroclastic shield,9,186,"10,826","63,999"
Lopevi,Confirmed Eruption,1883,--,,Historical Observations,1884,-16.507,168.346,1413 m,Vanuatu,Stratovolcano,690,793,"7,942","50,310"
"Tair, Jebel at",Confirmed Eruption,1883,2,,Historical Observations,Unknown,15.55,41.83,244 m,Yemen,Stratovolcano,0,0,0,"14,493"
Guguan,Confirmed Eruption,1883,2,,Historical Observations,Unknown,17.307,145.845,287 m,United States,Stratovolcano,0,0,0,0
Kharimkotan,Confirmed Eruption,1883,3,Severgin,Historical Observations,Unknown,49.12,154.508,1145 m,Russia,Stratovolcano,2,2,4,22
Makushin,Confirmed Eruption,1883,2,,Historical Observations,Unknown,53.891,-166.923,1800 m,United States,Stratovolcano,0,0,"3,437","3,850"
Akutan,Confirmed Eruption,1883,2,,Historical Observations,Unknown,54.134,-165.986,1303 m,United States,Stratovolcano,0,24,233,"4,361"
Shishaldin,Confirmed Eruption,1883,2,,Historical Observations,Unknown,54.756,-163.97,2857 m,United States,Stratovolcano,0,0,10,197
Llaima,Confirmed Eruption,1883,2,,Historical Observations,Unknown,-38.692,-71.729,3125 m,Chile,Stratovolcano,86,811,"18,568","630,458"
Lascar,Confirmed Eruption,1883,2,,Historical Observations,1885,-23.37,-67.73,5592 m,Chile,Stratovolcano(es),0,70,570,"8,119"
Villarrica,Confirmed Eruption,1883,2,,Historical Observations,Unknown,-39.42,-71.93,2847 m,Chile,Stratovolcano,477,"1,067","35,118","667,788"
San Miguel,Confirmed Eruption,1882 Dec 5,2,,Historical Observations,Unknown,13.434,-88.269,2130 m,El Salvador,Stratovolcano,"1,232","63,007","796,482","3,633,885"
Momotombo,Confirmed Eruption,1882 Sep 9,2,,Historical Observations,Unknown,12.423,-86.539,1270 m,Nicaragua,Stratovolcano,100,"1,851","98,583","3,569,021"
Klyuchevskoy,Confirmed Eruption,1882 Sep,2,,Historical Observations,Unknown,56.056,160.642,4754 m,Russia,Stratovolcano,0,0,292,"12,406"
Kusatsu-Shiranesan,Confirmed Eruption,1882 Aug 6,2,"Yu-gama, NE end of Kara-gama",Historical Observations,1882 Aug 16 (in or after),36.618,138.528,2165 m,Japan,Stratovolcano(es),"4,485","14,296","434,049","5,947,593"
Izalco,Confirmed Eruption,1882 Jul 12,2,,Historical Observations,Unknown,13.813,-89.633,1950 m,El Salvador,Stratovolcano,937,"55,665","1,272,308","6,415,818"
Sundoro,Confirmed Eruption,1882 Apr 1,2,"Summit, NW and NE flanks",Historical Observations,1882 Apr 7,-7.3,109.992,3136 m,Indonesia,Stratovolcano,"52,462","496,751","2,086,299","24,996,512"
Cotopaxi,Confirmed Eruption,1882 Jan,2,,Historical Observations,1882 Mar,-0.677,-78.436,5911 m,Ecuador,Stratovolcano,251,"7,299","152,139","3,631,492"
Irazu,Uncertain Eruption,1882,2,, ,[ Unknown ],9.979,-83.852,3432 m,Costa Rica,Stratovolcano,"1,978","25,442","1,667,528","3,432,860"
Santa Ana,Uncertain Eruption,1882,--,, ,[ Unknown ],13.853,-89.63,2381 m,El Salvador,Stratovolcano,489,"21,653","1,240,131","6,486,880"
Iya,Confirmed Eruption,1882,2,,Historical Observations,Unknown,-8.891,121.641,618 m,Indonesia,Stratovolcano,"10,837","46,835","62,974","535,387"
Makaturing,Confirmed Eruption,1882,--,,Historical Observations,Unknown,7.644,124.317,1818 m,Philippines,Stratovolcano,"1,501","9,752","418,007","6,142,586"
"Lengai, Ol Doinyo",Confirmed Eruption,1882,2,North Crater,Historical Observations,1883,-2.764,35.914,2962 m,Tanzania,Stratovolcano,186,"1,855","18,074","545,305"
Nyamulagira,Confirmed Eruption,1882,--,North flank,Historical Observations,Unknown,-1.408,29.2,3058 m,DR Congo,Shield,"3,751","27,027","711,356","8,333,476"
"Fournaise, Piton de la",Uncertain Eruption,1882,0,, ,[ Unknown ],-21.244,55.708,2632 m,France,Shield,"55,859","55,859","246,792","717,820"
Zhupanovsky,Confirmed Eruption,1882,2,,Historical Observations,Unknown,53.589,159.15,2899 m,Russia,Compound,0,0,153,"267,080"
Rainier,Uncertain Eruption,1882,2,, ,[ Unknown ],46.853,-121.76,4392 m,United States,Stratovolcano,0,128,"3,187","2,667,609"
Colima,Confirmed Eruption,1882,1,,Historical Observations,1884,19.514,-103.62,3850 m,Mexico,Stratovolcano(es),76,746,"303,490","1,494,790"
Dempo,Confirmed Eruption,1881 Dec,2,,Historical Observations,1881 Dec,-4.016,103.121,3142 m,Indonesia,Stratovolcano(es),124,"9,613","96,058","2,307,584"
Milna,Confirmed Eruption,1881 Sep,2,Goriaschaia Sopka,Historical Observations,Unknown,46.815,151.786,1504 m,Russia,Stratovolcano,43,47,49,188
Mayon,Confirmed Eruption,1881 Jul 6,3,Summit and south and SW flanks,Historical Observations,1882 Aug,13.257,123.685,2462 m,Philippines,Stratovolcano,"4,350","248,448","1,166,441","4,142,375"
Tongariro,Confirmed Eruption,1881 Jul 6,2,Ngauruhoe,Historical Observations,Unknown,-39.157,175.632,1978 m,New Zealand,Stratovolcano(es),27,286,"7,591","81,567"
Nasudake,Confirmed Eruption,1881 Jul 1,1,Chausu-dake (west and NW side of summit),Historical Observations,Unknown,37.125,139.963,1915 m,Japan,Stratovolcano(es),639,"5,802","298,717","5,725,203"
Heard,Uncertain Eruption,1881 Jun 2,2,, ,[ Unknown ],-53.106,73.513,2745 m,Australia,Stratovolcano,0,0,0,0
Leroboleng,Confirmed Eruption,1881 Mar 16,2,Burak (Kawah XXVII),Historical Observations,Unknown,-8.365,122.833,1095 m,Indonesia,Complex,"9,164","26,794","358,627","896,194"
Guagua Pichincha,Confirmed Eruption,1881 Mar 10,2,,Historical Observations,Unknown,-0.171,-78.598,4784 m,Ecuador,Stratovolcano,449,"32,488","2,064,475","3,581,801"
Dempo,Confirmed Eruption,1881 Feb 16,2,,Historical Observations,Unknown,-4.016,103.121,3142 m,Indonesia,Stratovolcano(es),124,"9,613","96,058","2,307,584"
Izalco,Confirmed Eruption,1881 Jan 1,0,,Historical Observations,Unknown,13.813,-89.633,1950 m,El Salvador,Stratovolcano,937,"55,665","1,272,308","6,415,818"
Purace,Confirmed Eruption,1881,2,,Historical Observations,Unknown,2.32,-76.4,4650 m,Colombia,Stratovolcano(es),"1,465","7,152","335,698","1,751,540"
Tupungatito,Uncertain Eruption,1881,--,, ,[ Unknown ],-33.425,-69.797,5660 m,Chile-Argentina,Stratovolcano,612,923,"6,161","6,169,105"
San Jose,Confirmed Eruption,1881,2,,Historical Observations,Unknown,-33.789,-69.895,6070 m,Chile-Argentina,Stratovolcano(es),194,616,"15,963","6,615,248"
Maipo,Uncertain Eruption,1881,--,, ,[ Unknown ],-34.164,-69.832,5323 m,Chile-Argentina,Caldera,"3,916","3,916","8,221","1,684,481"
Singkut,Confirmed Eruption,1881,--,,Historical Observations,Unknown,3.248,98.501,2181 m,Indonesia,Caldera(s),"11,833","21,448","228,453","7,958,409"
Sinabung,Uncertain Eruption,1881,--,, ,[ Unknown ],3.17,98.392,2460 m,Indonesia,Stratovolcano,997,"13,801","163,630","7,646,863"
Raung,Confirmed Eruption,1881,--,,Historical Observations,Unknown,-8.119,114.056,3260 m,Indonesia,Stratovolcano,152,572,"581,515","8,123,987"
Traitor's Head,Confirmed Eruption,1881,0,NE flank submarine vent,Historical Observations,Unknown,-18.754,169.238,817 m,Vanuatu,Stratovolcano,207,380,"7,007","30,651"
Avachinsky,Confirmed Eruption,1881,2,,Historical Observations,Unknown,53.256,158.836,2717 m,Russia,Stratovolcano,0,0,"180,016","270,205"
Colima,Confirmed Eruption,1880 Dec 1,2,,Historical Observations,1881 Apr 12,19.514,-103.62,3850 m,Mexico,Stratovolcano(es),76,746,"303,490","1,494,790"
"Lengai, Ol Doinyo",Confirmed Eruption,1880 Dec,2,North Crater,Historical Observations,Unknown,-2.764,35.914,2962 m,Tanzania,Stratovolcano,186,"1,855","18,074","545,305"
Shiretoko-Iozan,Uncertain Eruption,1880 Nov 24,--,, ,[ 1880 Nov 26 ],44.133,145.161,1562 m,Japan,Stratovolcano,6,"1,516","7,890","209,060"
Mauna Loa,Confirmed Eruption,1880 Nov 5,1,NE rift zone (3170 m),Historical Observations,1881 Aug 10,19.475,-155.608,4170 m,United States,Shield,45,45,"1,906","175,315"
Baker,Confirmed Eruption,1880 Sep 7,2,Sherman Crater,Historical Observations,1880 Nov 27,48.777,-121.813,3285 m,United States,Stratovolcano(es),0,46,"8,568","1,990,504"
Kirishimayama,Confirmed Eruption,1880 Sep,2,Ohachi,Historical Observations,Unknown,31.934,130.862,1700 m,Japan,Shield,647,"8,415","407,050","3,972,044"
Srednii,Uncertain Eruption,1880 Jul 12,0,, ,[ 1880 Jul 12 (?) ],47.6,152.92,36 m,Russia,Submarine,0,0,8,279
Fuego,Confirmed Eruption,1880 Jun 28,4,,Historical Observations,1880 Aug 20,14.473,-90.88,3763 m,Guatemala,Stratovolcano(es),"1,373","54,332","1,016,339","7,677,809"
Mauna Loa,Confirmed Eruption,1880 May 1,1,Mokuaweoweo,Historical Observations,1880 May 6,19.475,-155.608,4170 m,United States,Shield,45,45,"1,906","175,315"
Dempo,Confirmed Eruption,1880 May,2,,Historical Observations,Unknown,-4.016,103.121,3142 m,Indonesia,Stratovolcano(es),124,"9,613","96,058","2,307,584"
Santa Ana,Confirmed Eruption,1880 Mar,3,NW flank (Mala Cara),Historical Observations,Unknown,13.853,-89.63,2381 m,El Salvador,Stratovolcano,489,"21,653","1,240,131","6,486,880"
Cotopaxi,Confirmed Eruption,1880 Feb,3,,Historical Observations,1880 Jul,-0.677,-78.436,5911 m,Ecuador,Stratovolcano,251,"7,299","152,139","3,631,492"
"Watt, Morne",Confirmed Eruption,1880 Jan 4,2,NE of Watt Mtn (Valley of Desolation),Historical Observations,1880 Jan 4,15.307,-61.305,1224 m,Dominica,Stratovolcano(es),"1,818","35,821","63,178","545,352"
Soufriere St. Vincent,Uncertain Eruption,1880,0,, ,[ Unknown ],13.33,-61.18,1220 m,Saint Vincent and the Grenadines,Stratovolcano,"1,491","15,327","103,882","291,476"
Villarrica,Confirmed Eruption,1880,2,,Historical Observations,Unknown,-39.42,-71.93,2847 m,Chile,Stratovolcano,477,"1,067","35,118","667,788"
Poas,Confirmed Eruption,1880,1,,Historical Observations,Unknown,10.2,-84.233,2697 m,Costa Rica,Stratovolcano,"1,947","11,107","950,796","3,411,023"
Sete Cidades,Confirmed Eruption,1880,0,Volcano Uncertain: submarine vent off Sao Miguel,Unknown,Unknown,37.865,-25.785,842 m,Portugal,Stratovolcano,"3,515","10,365","102,848","127,154"
Tambora,Confirmed Eruption,1880,2,SW part of caldera (Doro Afi Toi),Historical Observations,Unknown,-8.25,118,2850 m,Indonesia,Stratovolcano,"4,156","11,331","89,006","1,036,033"
Tangkoko-Duasudara,Confirmed Eruption,1880,1,Batu Angus,Historical Observations,Unknown,1.518,125.185,1334 m,Indonesia,Stratovolcano,445,"57,792","135,761","1,227,998"
Karthala,Confirmed Eruption,1880,2,SE flank (Badjini Massif),Historical Observations,Unknown,-11.75,43.38,2361 m,Comoros,Shield,"225,379","225,379","278,330","399,067"
Shishaldin,Uncertain Eruption,1880,--,, ,[ 1881 ],54.756,-163.97,2857 m,United States,Stratovolcano,0,0,10,197
Vsevidof,Uncertain Eruption,1880,--,, ,[ Unknown ],53.13,-168.693,2149 m,United States,Stratovolcano,0,0,6,6
Pavlof,Confirmed Eruption,1880,1,,Historical Observations,Unknown,55.417,-161.894,2493 m,United States,Stratovolcano,0,0,0,"3,002"
Raususan [Mendeleev],Confirmed Eruption,1880,1,NE solfatara field,Historical Observations,Unknown,43.979,145.733,882 m,Japan - administered by Russia,Stratovolcano,236,"1,783","3,527","114,486"
Kita-Ioto,Confirmed Eruption,1880,0,Funka-Asane,Historical Observations,1889,25.424,141.284,792 m,Japan,Stratovolcano,158,162,162,"1,210"
Ilopango,Confirmed Eruption,1879 Dec 31,3,Islas Quemadas,Historical Observations,1880 Mar 26 ± 5 days,13.672,-89.053,450 m,El Salvador,Caldera,"2,049,583","2,049,583","2,948,989","6,689,160"
Izalco,Confirmed Eruption,1879 Dec 25,2,,Historical Observations,1880 Mar,13.813,-89.633,1950 m,El Salvador,Stratovolcano,937,"55,665","1,272,308","6,415,818"
Colima,Confirmed Eruption,1879 Dec 23,1,Summit vent and SW flank,Historical Observations,1880 Apr 30,19.514,-103.62,3850 m,Mexico,Stratovolcano(es),76,746,"303,490","1,494,790"
Asamayama,Confirmed Eruption,1879 Sep 27,2,,Historical Observations,1879 Sep 28,36.406,138.523,2568 m,Japan,Complex,583,"22,371","457,576","7,629,353"
Eldey,Confirmed Eruption,1879 May 30,1,Reykjaneshryggur (Geirfugladrangur),Historical Observations,1879 Jun 15 ± 5 days,63.733,-23,70 m,Iceland,Submarine,,,,
Etna,Confirmed Eruption,1879 May 26,3,"SSW (2650-2300 m), NNE (2450-1690 m)",Historical Observations,1879 Jun 7,37.748,14.999,3320 m,Italy,Stratovolcano(es),78,"3,291","1,016,540","3,052,770"
Dempo,Confirmed Eruption,1879 May 18,2,,Historical Observations,Unknown,-4.016,103.121,3142 m,Indonesia,Stratovolcano(es),124,"9,613","96,058","2,307,584"
Chirpoi,Confirmed Eruption,1879 May,2,Snow,Historical Observations,1879 Jun,46.532,150.871,742 m,Russia,Caldera,1,1,3,491
Mauna Loa,Confirmed Eruption,1879 Mar 9,0,Mokuaweoweo,Historical Observations,1879 Mar 9 (?),19.475,-155.608,4170 m,United States,Shield,45,45,"1,906","175,315"
Cotopaxi,Confirmed Eruption,1879 Feb 26,2,,Historical Observations,1879 Jun 19,-0.677,-78.436,5911 m,Ecuador,Stratovolcano,251,"7,299","152,139","3,631,492"
Villarrica,Confirmed Eruption,1879 Feb 2,2,,Historical Observations,1879 Mar,-39.42,-71.93,2847 m,Chile,Stratovolcano,477,"1,067","35,118","667,788"
Santa Ana,Confirmed Eruption,1879 Feb 1,2,,Historical Observations,Unknown,13.853,-89.63,2381 m,El Salvador,Stratovolcano,489,"21,653","1,240,131","6,486,880"
Sarychev Peak,Confirmed Eruption,1879 Jan 15,0,,Historical Observations,Unknown,48.092,153.2,1496 m,Russia,Stratovolcano,17,143,143,148
Rainier,Uncertain Eruption,1879,2,, ,[ Unknown ],46.853,-121.76,4392 m,United States,Stratovolcano,0,128,"3,187","2,667,609"
Klyuchevskoy,Confirmed Eruption,1879,2,,Historical Observations,Unknown,56.056,160.642,4754 m,Russia,Stratovolcano,0,0,292,"12,406"
Sheveluch,Confirmed Eruption,1879,3,,Historical Observations,1883,56.653,161.36,3283 m,Russia,Stratovolcano,0,0,"1,718","11,613"
Sorikmarapi,Confirmed Eruption,1879,2,,Historical Observations,Unknown,0.686,99.539,2145 m,Indonesia,Stratovolcano,203,"1,469","90,257","1,831,957"
Semeru,Confirmed Eruption,1879,2,,Historical Observations,Unknown,-8.108,112.922,3657 m,Indonesia,Stratovolcano,"2,686","8,375","1,022,197","20,098,931"
Poas,Uncertain Eruption,1879,1,, ,[ Unknown ],10.2,-84.233,2697 m,Costa Rica,Stratovolcano,"1,947","11,107","950,796","3,411,023"
Reclus,Confirmed Eruption,1879,2,,Historical Observations,Unknown,-50.964,-73.585,1000 m,Chile,Pyroclastic cone,0,1,420,"12,382"
Lautaro,Confirmed Eruption,1879,--,Volcano Uncertain: Between lakes San Martín and Viedma,Unknown,Unknown,-49.019,-73.504,3542 m,Chile,Stratovolcano,0,0,46,"2,365"
Ritter Island,Uncertain Eruption,1878 Dec 31,--,, ,[ Unknown ],-5.519,148.115,75 m,Papua New Guinea,Stratovolcano,3,43,"4,323","68,670"
Etna,Confirmed Eruption,1878 Dec 23,2,Central Crater,Historical Observations,1883 Mar 31 (in or after),37.748,14.999,3320 m,Italy,Stratovolcano(es),78,"3,291","1,016,540","3,052,770"
Kerinci,Confirmed Eruption,1878 Dec 11,2,,Historical Observations,Unknown,-1.697,101.264,3800 m,Indonesia,Stratovolcano,304,"33,878","264,107","1,437,454"
Marapi,Uncertain Eruption,1878 Dec,2,, ,[ Unknown ],-0.38,100.474,2885 m,Indonesia,Complex,706,"57,453","818,039","4,059,773"
Taal,Confirmed Eruption,1878 Nov 12,2,,Historical Observations,1878 Nov 15,14.002,120.993,311 m,Philippines,Caldera,"717,090","717,090","2,380,326","24,814,047"
Momotombo,Confirmed Eruption,1878 Oct 14,2,,Historical Observations,Unknown,12.423,-86.539,1270 m,Nicaragua,Stratovolcano,100,"1,851","98,583","3,569,021"
Tecapa,Uncertain Eruption,1878 Oct 2,--,, ,[ Unknown ],13.494,-88.502,1593 m,El Salvador,Stratovolcano,"37,337","80,502","590,144","5,599,535"
Tongariro,Confirmed Eruption,1878 Sep 1,2,Ngauruhoe (NW sub-crater),Historical Observations,Unknown,-39.157,175.632,1978 m,New Zealand,Stratovolcano(es),27,286,"7,591","81,567"
Klyuchevskoy,Confirmed Eruption,1878 Sep,2,,Historical Observations,Unknown,56.056,160.642,4754 m,Russia,Stratovolcano,0,0,292,"12,406"
Purace,Confirmed Eruption,1878 Aug 31,2,,Historical Observations,Unknown,2.32,-76.4,4650 m,Colombia,Stratovolcano(es),"1,465","7,152","335,698","1,751,540"
Cotopaxi,Confirmed Eruption,1878 Aug 23,2,,Historical Observations,1878 Aug 24,-0.677,-78.436,5911 m,Ecuador,Stratovolcano,251,"7,299","152,139","3,631,492"
Lateiki,Confirmed Eruption,1878 Apr,2,,Historical Observations,Unknown,-19.18,-174.87,43 m,Tonga,Submarine,18,18,18,"7,907"
"Fournaise, Piton de la",Confirmed Eruption,1878 Mar 14,0,,Historical Observations,1878 Mar 30,-21.244,55.708,2632 m,France,Shield,"55,859","55,859","246,792","717,820"
Hekla,Confirmed Eruption,1878 Feb 27,2,East of Hekla (Krakagigar),Historical Observations,1878 Apr,63.983,-19.666,1490 m,Iceland,Stratovolcano,0,0,298,"22,845"
Isluga,Confirmed Eruption,1878 Feb,2,,Historical Observations,Unknown,-19.15,-68.83,5550 m,Chile,Stratovolcano,1,703,"5,961","32,205"
Rabaul,Confirmed Eruption,1878 Jan 30,3,Vulcan Island and Tavurvur,Historical Observations,1878 Feb 26 ± 2 days,-4.271,152.203,688 m,Papua New Guinea,Pyroclastic shield,"3,311","43,531","199,361","252,121"
Lautaro,Uncertain Eruption,1878 Jan 18,1,, ,[ Unknown ],-49.019,-73.504,3542 m,Chile,Stratovolcano,0,0,46,"2,365"
Planchon-Peteroa,Confirmed Eruption,1878,2,Peteroa,Historical Observations,Unknown,-35.223,-70.568,3977 m,Chile,Stratovolcano(es),6,48,"1,345","634,959"
Santa Ana,Uncertain Eruption,1878,2,, ,[ Unknown ],13.853,-89.63,2381 m,El Salvador,Stratovolcano,489,"21,653","1,240,131","6,486,880"
Izalco,Confirmed Eruption,1878,--,,Historical Observations,Unknown,13.813,-89.633,1950 m,El Salvador,Stratovolcano,937,"55,665","1,272,308","6,415,818"
Ulawun,Confirmed Eruption,1878,2,,Historical Observations,Unknown,-5.05,151.33,2334 m,Papua New Guinea,Stratovolcano,30,"1,801","10,577","61,018"
Langila,Confirmed Eruption,1878,2,Crater 2,Historical Observations,Unknown,-5.525,148.42,1330 m,Papua New Guinea,Complex,213,"3,653","11,641","45,698"
Meru,Confirmed Eruption,1878,2,Dome NW of Ash Cone,Historical Observations,Unknown,-3.244,36.75,4550 m,Tanzania,Stratovolcano,0,"2,506","828,942","2,375,631"
Semeru,Confirmed Eruption,1878,2,,Historical Observations,Unknown,-8.108,112.922,3657 m,Indonesia,Stratovolcano,"2,686","8,375","1,022,197","20,098,931"
Merapi,Confirmed Eruption,1878,2,,Historical Observations,1879 Jun 20,-7.54,110.446,2910 m,Indonesia,Stratovolcano,"49,205","185,849","4,348,473","24,728,414"
Vsevidof,Confirmed Eruption,1878,2,West flank fissure ?,Historical Observations,Unknown,53.13,-168.693,2149 m,United States,Stratovolcano,0,0,6,6
Okmok,Confirmed Eruption,1878,2,Cone A?,Historical Observations,Unknown,53.43,-168.13,1073 m,United States,Shield,0,0,0,4
Amukta,Confirmed Eruption,1878,--,,Historical Observations,Unknown,52.5,-171.252,1066 m,United States,Stratovolcano,0,0,0,0
Tacana,Confirmed Eruption,1878,1,SW side,Historical Observations,Unknown,15.132,-92.109,4064 m,Mexico-Guatemala,Stratovolcano,"3,032","20,932","598,594","4,523,701"
Avachinsky,Confirmed Eruption,1878,2,,Historical Observations,Unknown,53.256,158.836,2717 m,Russia,Stratovolcano,0,0,"180,016","270,205"
Asamayama,Uncertain Eruption,1878,2,, ,[ Unknown ],36.406,138.523,2568 m,Japan,Complex,583,"22,371","457,576","7,629,353"
Cumbal,Confirmed Eruption,1877 Dec,2,,Historical Observations,Unknown,0.95,-77.87,4764 m,Colombia,Stratovolcano,"1,405","10,206","244,853","1,800,919"
Bam,Confirmed Eruption,1877 Nov 13,3,,Historical Observations,Unknown,-3.613,144.818,685 m,Papua New Guinea,Stratovolcano,192,192,462,"103,203"
Manam,Confirmed Eruption,1877 Oct 29,2,South Crater,Historical Observations,1877 Nov 13 (in or after),-4.08,145.037,1807 m,Papua New Guinea,Stratovolcano,"1,106","2,553","24,364","180,402"
Semeru,Confirmed Eruption,1877 Sep,2,,Historical Observations,Unknown,-8.108,112.922,3657 m,Indonesia,Stratovolcano,"2,686","8,375","1,022,197","20,098,931"
Llullaillaco,Confirmed Eruption,1877 May,2,,Historical Observations,Unknown,-24.72,-68.53,6739 m,Chile-Argentina,Stratovolcano,0,18,391,"9,859"
Lamongan,Confirmed Eruption,1877 Apr 24,3,,Historical Observations,1877 May 12 (?),-7.981,113.341,1641 m,Indonesia,Stratovolcano,"6,588","66,387","2,193,829","15,322,387"
Tengger Caldera,Confirmed Eruption,1877 Apr 24,2,Bromo,Historical Observations,Unknown,-7.942,112.95,2329 m,Indonesia,Stratovolcano(es),"27,826","69,451","1,420,878","22,628,278"
Semeru,Confirmed Eruption,1877 Apr,2,,Historical Observations,Unknown,-8.108,112.922,3657 m,Indonesia,Stratovolcano,"2,686","8,375","1,022,197","20,098,931"
Villarrica,Confirmed Eruption,1877 Mar 12,2,,Historical Observations,1877 May,-39.42,-71.93,2847 m,Chile,Stratovolcano,477,"1,067","35,118","667,788"
Mauna Loa,Confirmed Eruption,1877 Feb 14,0,"Mokuaweoweo, submarine west flank",Historical Observations,1877 Feb 24,19.475,-155.608,4170 m,United States,Shield,45,45,"1,906","175,315"
"Chillan, Nevados de",Confirmed Eruption,1877 Feb 12,2,Volcán Chillán,Historical Observations,Unknown,-36.868,-71.378,3180 m,Chile,Stratovolcano,68,371,"3,733","512,325"
Llaima,Confirmed Eruption,1877 Jan 16,2,,Historical Observations,1877 Jun 24,-38.692,-71.729,3125 m,Chile,Stratovolcano,86,811,"18,568","630,458"
Cotopaxi,Confirmed Eruption,1877 Jan,4,,Historical Observations,1877 Sep 2,-0.677,-78.436,5911 m,Ecuador,Stratovolcano,251,"7,299","152,139","3,631,492"
San Pedro-San Pablo,Confirmed Eruption,1877,2,,Historical Observations,Unknown,-21.888,-68.391,6142 m,Chile,Stratovolcano(es),0,156,"2,349","150,795"
Isluga,Confirmed Eruption,1877,2,,Historical Observations,Unknown,-19.15,-68.83,5550 m,Chile,Stratovolcano,1,703,"5,961","32,205"
Klyuchevskoy,Confirmed Eruption,1877,2,,Historical Observations,Unknown,56.056,160.642,4754 m,Russia,Stratovolcano,0,0,292,"12,406"
Suwanosejima,Confirmed Eruption,1877,4,,Historical Observations,Unknown,29.638,129.714,796 m,Japan,Stratovolcano(es),107,107,325,"1,966"
Fonuafo'ou,Confirmed Eruption,1877,2,,Historical Observations,Unknown,-20.32,-175.42,-17 m,Tonga,Submarine,302,302,532,"69,016"
Izu-Oshima,Confirmed Eruption,1876 Dec 27,2,Mihara-yama,Historical Observations,1877 Feb 5,34.724,139.394,746 m,Japan,Stratovolcano,"2,381","8,037","8,375","11,837,468"
"Fournaise, Piton de la",Confirmed Eruption,1876 Dec 11,--,,Historical Observations,1876 Dec 11 (?),-21.244,55.708,2632 m,France,Shield,"55,859","55,859","246,792","717,820"
Mayon,Confirmed Eruption,1876 Nov 26,1,,Historical Observations,1876 Nov 26,13.257,123.685,2462 m,Philippines,Stratovolcano,"4,350","248,448","1,166,441","4,142,375"
Lautaro,Confirmed Eruption,1876 Oct,2,,Historical Observations,Unknown,-49.019,-73.504,3542 m,Chile,Stratovolcano,0,0,46,"2,365"
Shiretoko-Iozan,Confirmed Eruption,1876 Sep 23,2,NW flank,Historical Observations,1876 Sep 26,44.133,145.161,1562 m,Japan,Stratovolcano,6,"1,516","7,890","209,060"
Marapi,Confirmed Eruption,1876 Aug,2,,Historical Observations,1877 Jun,-0.38,100.474,2885 m,Indonesia,Complex,706,"57,453","818,039","4,059,773"
Marapi,Confirmed Eruption,1876 Apr 4,2,,Historical Observations,Unknown,-0.38,100.474,2885 m,Indonesia,Complex,706,"57,453","818,039","4,059,773"
Mayon,Confirmed Eruption,1876 Apr,1,,Historical Observations,Unknown,13.257,123.685,2462 m,Philippines,Stratovolcano,"4,350","248,448","1,166,441","4,142,375"
Mauna Loa,Confirmed Eruption,1876 Feb 13,0,Mokuaweoweo,Historical Observations,1876 Feb 14 (?),19.475,-155.608,4170 m,United States,Shield,45,45,"1,906","175,315"
Farallon de Pajaros,Confirmed Eruption,1876 Jan 1,2,"Summit, NE side",Historical Observations,1876 Jan 3 (?),20.546,144.893,337 m,United States,Stratovolcano,0,0,0,0
Amukta,Uncertain Eruption,1876,--,, ,[ Unknown ],52.5,-171.252,1066 m,United States,Stratovolcano,0,0,0,0
Iliamna,Confirmed Eruption,1876,3,,Historical Observations,Unknown,60.032,-153.09,3053 m,United States,Stratovolcano,0,0,1,"7,564"
Talang,Confirmed Eruption,1876,2,NE flank,Historical Observations,Unknown,-0.979,100.681,2575 m,Indonesia,Stratovolcano,"1,593","18,512","214,975","3,283,153"
Leroboleng,Confirmed Eruption,1876,2,Burak (Kawah XXVI),Historical Observations,Unknown,-8.365,122.833,1095 m,Indonesia,Complex,"9,164","26,794","358,627","896,194"
Karthala,Confirmed Eruption,1876,0,SE flank (Badjini Massif),Historical Observations,Unknown,-11.75,43.38,2361 m,Comoros,Shield,"225,379","225,379","278,330","399,067"
Vesuvius,Confirmed Eruption,1875 Dec 18,4,Summit and upper flanks,Historical Observations,1906 Apr 22,40.821,14.426,1281 m,Italy,Stratovolcano,"19,162","675,705","3,907,941","6,009,961"
"Fournaise, Piton de la",Confirmed Eruption,1875 Nov 26,0,,Historical Observations,1875 Dec 11 (?),-21.244,55.708,2632 m,France,Shield,"55,859","55,859","246,792","717,820"
Villarrica,Confirmed Eruption,1875 Nov 17,2,,Historical Observations,1876,-39.42,-71.93,2847 m,Chile,Stratovolcano,477,"1,067","35,118","667,788"
Slamet,Confirmed Eruption,1875 Nov 2,2,,Historical Observations,1875 Dec 26 ± 5 days,-7.242,109.208,3428 m,Indonesia,Stratovolcano,856,"13,401","2,904,026","20,217,467"
Tongariro,Uncertain Eruption,1875 Oct 1,2,Ngauruhoe, ,[ Unknown ],-39.157,175.632,1978 m,New Zealand,Stratovolcano(es),27,286,"7,591","81,567"
Mauna Loa,Confirmed Eruption,1875 Aug 11,0,Mokuaweoweo,Historical Observations,1875 Aug 18 (?),19.475,-155.608,4170 m,United States,Shield,45,45,"1,906","175,315"
Awu,Confirmed Eruption,1875 Aug,2,,Historical Observations,1875 Aug,3.689,125.447,1318 m,Indonesia,Stratovolcano,"6,409","22,655","52,725","58,719"
Asamayama,Confirmed Eruption,1875 Jun 14,2,,Historical Observations,Unknown,36.406,138.523,2568 m,Japan,Complex,583,"22,371","457,576","7,629,353"
Slamet,Confirmed Eruption,1875 May 29,2,,Historical Observations,1875 Jun 4 ± 4 days,-7.242,109.208,3428 m,Indonesia,Stratovolcano,856,"13,401","2,904,026","20,217,467"
Kelud,Discredited Eruption,1875 Jan 29,--,, ,[ Unknown ],-7.935,112.314,1730 m,Indonesia,Stratovolcano,279,"50,901","2,087,876","24,999,627"
Mauna Loa,Confirmed Eruption,1875 Jan 10,0,Mokuaweoweo,Historical Observations,1875 Feb 9 (?),19.475,-155.608,4170 m,United States,Shield,45,45,"1,906","175,315"
Askja,Confirmed Eruption,1875 Jan 1,5,"Öskjuvatn Caldera, Viti, Sveinagja",Historical Observations,1875 Oct 17,65.033,-16.783,1080 m,Iceland,Stratovolcano,0,0,0,"13,028"
Lascar,Confirmed Eruption,1875,2,,Historical Observations,Unknown,-23.37,-67.73,5592 m,Chile,Stratovolcano(es),0,70,570,"8,119"
Llaima,Confirmed Eruption,1875,2,,Historical Observations,1876,-38.692,-71.729,3125 m,Chile,Stratovolcano,86,811,"18,568","630,458"
Irazu,Confirmed Eruption,1875,2,,Historical Observations,Unknown,9.979,-83.852,3432 m,Costa Rica,Stratovolcano,"1,978","25,442","1,667,528","3,432,860"
Northern EPR at 9.8°N,Confirmed Eruption,1875,0,East Pacific Rise (9.9 deg N),Magnetism,Unknown,9.83,-104.3,-2500 m,Undersea Features,Submarine,0,0,0,0
Colima,Confirmed Eruption,1875,1,NE flank (El Volcancito),Historical Observations,1878,19.514,-103.62,3850 m,Mexico,Stratovolcano(es),76,746,"303,490","1,494,790"
Ruang,Confirmed Eruption,1874 Nov 15,2,,Historical Observations,Unknown,2.3,125.37,725 m,Indonesia,Stratovolcano,878,"1,652","2,766","149,159"
Etna,Confirmed Eruption,1874 Aug 29,2,"North flank (2520-2110 m), Central Crater",Historical Observations,1874 Aug 31,37.748,14.999,3320 m,Italy,Stratovolcano(es),78,"3,291","1,016,540","3,052,770"
Taal,Confirmed Eruption,1874 Jul 19,2,,Historical Observations,Unknown,14.002,120.993,311 m,Philippines,Caldera,"717,090","717,090","2,380,326","24,814,047"
Veniaminof,Confirmed Eruption,1874 Jul 15,2,Western intracaldera cone,Historical Observations,Unknown,56.17,-159.38,2507 m,United States,Stratovolcano,0,0,0,542
Miyakejima,Confirmed Eruption,1874 Jul 3,3,NNE flank (560 m),Historical Observations,1874 Jul 17 (?),34.094,139.526,775 m,Japan,Stratovolcano,"1,848","3,189","3,474","95,663"
"Fournaise, Piton de la",Confirmed Eruption,1874 Jun 29,2,,Historical Observations,1874 Nov 7 (in or after),-21.244,55.708,2632 m,France,Shield,"55,859","55,859","246,792","717,820"
Colima,Confirmed Eruption,1874 Jun 12,1,NE flank (El Volcancito),Historical Observations,Unknown,19.514,-103.62,3850 m,Mexico,Stratovolcano(es),76,746,"303,490","1,494,790"
Esan,Confirmed Eruption,1874 Jun 8,1,Es-6 tephra,Historical Observations,Unknown,41.805,141.166,618 m,Japan,Lava dome(s),"1,734","5,831","33,197","916,560"
Bam,Confirmed Eruption,1874 May 20,2,,Historical Observations,Unknown,-3.613,144.818,685 m,Papua New Guinea,Stratovolcano,192,192,462,"103,203"
Lamongan,Confirmed Eruption,1874 May 20,2,,Historical Observations,1874 Aug 21,-7.981,113.341,1641 m,Indonesia,Stratovolcano,"6,588","66,387","2,193,829","15,322,387"
Etna,Confirmed Eruption,1874 May,2,Central Crater,Historical Observations,Unknown,37.748,14.999,3320 m,Italy,Stratovolcano(es),78,"3,291","1,016,540","3,052,770"
Villarrica,Confirmed Eruption,1874 Apr 16,2,,Historical Observations,Unknown,-39.42,-71.93,2847 m,Chile,Stratovolcano,477,"1,067","35,118","667,788"
Shikotsu,Confirmed Eruption,1874 Feb 8,3,Tarumai,Historical Observations,1874 Feb 16,42.688,141.38,1320 m,Japan,Caldera,"130,474","130,474","316,816","3,096,376"
Asosan,Confirmed Eruption,1874 Feb 7,2,Naka-dake,Historical Observations,Unknown,32.884,131.104,1592 m,Japan,Caldera,"75,559","75,559","234,591","6,507,519"
"Fournaise, Piton de la",Confirmed Eruption,1874 Feb 1,--,,Historical Observations,Unknown,-21.244,55.708,2632 m,France,Shield,"55,859","55,859","246,792","717,820"
Vesuvius,Uncertain Eruption,1874 Jan,1,, ,[ Unknown ],40.821,14.426,1281 m,Italy,Stratovolcano,"19,162","675,705","3,907,941","6,009,961"
Lopevi,Confirmed Eruption,1874,2,,Historical Observations,Unknown,-16.507,168.346,1413 m,Vanuatu,Stratovolcano,690,793,"7,942","50,310"
Kerinci,Confirmed Eruption,1874,2,,Historical Observations,Unknown,-1.697,101.264,3800 m,Indonesia,Stratovolcano,304,"33,878","264,107","1,437,454"
Llaima,Uncertain Eruption,1874,--,, ,[ Unknown ],-38.692,-71.729,3125 m,Chile,Stratovolcano,86,811,"18,568","630,458"
Izalco,Uncertain Eruption,1874,--,, ,[ 1875 ],13.813,-89.633,1950 m,El Salvador,Stratovolcano,937,"55,665","1,272,308","6,415,818"
Santa Ana,Confirmed Eruption,1874,3,,Historical Observations,Unknown,13.853,-89.63,2381 m,El Salvador,Stratovolcano,489,"21,653","1,240,131","6,486,880"
Vulcano,Confirmed Eruption,1873 Sep,3,Fossa,Historical Observations,1879,38.404,14.962,500 m,Italy,Stratovolcano(es),"2,259","23,059","86,766","2,093,800"
Zaozan [Zaosan],Confirmed Eruption,1873 Aug,1,Okama,Historical Observations,1873 Sep,38.144,140.44,1841 m,Japan,Complex,632,"4,681","550,409","4,956,958"
Mayon,Confirmed Eruption,1873 Jun 20,2,,Historical Observations,1873 Jul 22,13.257,123.685,2462 m,Philippines,Stratovolcano,"4,350","248,448","1,166,441","4,142,375"
Nisyros,Confirmed Eruption,1873 Jun,2,Plegathon and Polyvotis,Historical Observations,1873 Sep 26,36.586,27.16,698 m,Greece,Stratovolcano,672,680,"14,285","461,031"
Mauna Loa,Confirmed Eruption,1873 Apr 20,1,Mokuaweoweo,Historical Observations,1874 Oct 19 (?),19.475,-155.608,4170 m,United States,Shield,45,45,"1,906","175,315"
Nikko-Shiranesan,Confirmed Eruption,1873 Mar 12,1,Shirane-san,Historical Observations,Unknown,36.799,139.376,2578 m,Japan,Shield,513,"2,502","79,844","9,303,980"
Ragang,Confirmed Eruption,1873 Jan 16,2,,Historical Observations,1873 Apr,7.691,124.507,2790 m,Philippines,Stratovolcano,447,"2,646","331,796","6,423,725"
Grimsvotn,Confirmed Eruption,1873 Jan 8,4,,Historical Observations,1873 Aug,64.416,-17.316,1719 m,Iceland,Caldera,0,0,0,"1,736"
Mauna Loa,Confirmed Eruption,1873 Jan 6,0,Mokuaweoweo,Historical Observations,1873 Jan 7 (?),19.475,-155.608,4170 m,United States,Shield,45,45,"1,906","175,315"
Yunaska,Uncertain Eruption,1873,2,, ,[ Unknown ],52.643,-170.629,550 m,United States,Shield,0,0,0,0
Gareloi,Confirmed Eruption,1873,2,,Historical Observations,Unknown,51.79,-178.794,1573 m,United States,Stratovolcano,0,0,0,0
Semisopochnoi,Confirmed Eruption,1873,--,Cerberus,Historical Observations,Unknown,51.93,179.58,1221 m,United States,Stratovolcano,0,0,0,0
Sumisujima,Uncertain Eruption,1873,0,31.28 N 139.92 E, ,[ Unknown ],31.44,140.051,136 m,Japan,Submarine,0,0,0,0
Pagan,Confirmed Eruption,1873,3,North Pagan,Historical Observations,Unknown,18.13,145.8,570 m,United States,Stratovolcano(es),0,0,0,0
Taal,Confirmed Eruption,1873,2,,Historical Observations,Unknown,14.002,120.993,311 m,Philippines,Caldera,"717,090","717,090","2,380,326","24,814,047"
Kaba,Confirmed Eruption,1873,2,Kaba Volgelsang and Kaba Baru,Historical Observations,1892 Nov 1 ± 30 days,-3.522,102.615,1940 m,Indonesia,Stratovolcano,278,"15,352","333,750","2,608,259"
Leroboleng,Confirmed Eruption,1873,2,Burak (Kawah XXIV),Historical Observations,Unknown,-8.365,122.833,1095 m,Indonesia,Complex,"9,164","26,794","358,627","896,194"
Erta Ale,Uncertain Eruption,1873,2,, ,[ Unknown ],13.6,40.67,613 m,Ethiopia,Shield,"2,685","2,796","8,857","235,083"
Asosan,Confirmed Eruption,1872 Dec 1,3,Naka-dake,Historical Observations,1873 Jun 8,32.884,131.104,1592 m,Japan,Caldera,"75,559","75,559","234,591","6,507,519"
Izalco,Confirmed Eruption,1872 Dec,2,,Historical Observations,1873 Mar 19 (in or after),13.813,-89.633,1950 m,El Salvador,Stratovolcano,937,"55,665","1,272,308","6,415,818"
Merapi,Confirmed Eruption,1872 Nov 3,2,,Historical Observations,1873 Jan (?),-7.54,110.446,2910 m,Indonesia,Stratovolcano,"49,205","185,849","4,348,473","24,728,414"
Semeru,Confirmed Eruption,1872 Oct 23,2,,Historical Observations,1872 Oct 23,-8.108,112.922,3657 m,Indonesia,Stratovolcano,"2,686","8,375","1,022,197","20,098,931"
Mayon,Confirmed Eruption,1872 Sep 5,1,,Historical Observations,1872 Sep 9,13.257,123.685,2462 m,Philippines,Stratovolcano,"4,350","248,448","1,166,441","4,142,375"
Lamongan,Confirmed Eruption,1872 Aug 15,2,,Historical Observations,1872 Sep 18,-7.981,113.341,1641 m,Indonesia,Stratovolcano,"6,588","66,387","2,193,829","15,322,387"
Mauna Loa,Confirmed Eruption,1872 Aug 9,1,Mokuaweoweo,Historical Observations,1872 Sep,19.475,-155.608,4170 m,United States,Shield,45,45,"1,906","175,315"
"Chillan, Nevados de",Confirmed Eruption,1872 Jul 22,2,Volcán Chillán,Historical Observations,Unknown,-36.868,-71.378,3180 m,Chile,Stratovolcano,68,371,"3,733","512,325"
Farallon de Pajaros,Confirmed Eruption,1872 Jul 11,2,,Historical Observations,Unknown,20.546,144.893,337 m,United States,Stratovolcano,0,0,0,0
Llaima,Confirmed Eruption,1872 Jun 6,2,,Historical Observations,Unknown,-38.692,-71.729,3125 m,Chile,Stratovolcano,86,811,"18,568","630,458"
Quetrupillan,Uncertain Eruption,1872 Jun 6,2,, ,[ Unknown ],-39.496,-71.722,2360 m,Chile,Stratovolcano,129,518,"11,191","269,087"
Nikko-Shiranesan,Confirmed Eruption,1872 May 14,2,Shirane-san (SW flank),Historical Observations,Unknown,36.799,139.376,2578 m,Japan,Shield,513,"2,502","79,844","9,303,980"
Merapi,Confirmed Eruption,1872 Apr 15,4,,Historical Observations,1872 Apr 21,-7.54,110.446,2910 m,Indonesia,Stratovolcano,"49,205","185,849","4,348,473","24,728,414"
Colima,Confirmed Eruption,1872 Feb 26,3,El Volcancito and main crater,Historical Observations,1873 Mar 27,19.514,-103.62,3850 m,Mexico,Stratovolcano(es),76,746,"303,490","1,494,790"
"Fournaise, Piton de la",Uncertain Eruption,1872 Feb 1,0,, ,[ Unknown ],-21.244,55.708,2632 m,France,Shield,"55,859","55,859","246,792","717,820"
Raoul Island,Discredited Eruption,1872 Feb 1,--,, ,[ Unknown ],-29.27,-177.92,516 m,New Zealand,Stratovolcano,0,0,0,0
Bam,Confirmed Eruption,1872,3,,Historical Observations,Unknown,-3.613,144.818,685 m,Papua New Guinea,Stratovolcano,192,192,462,"103,203"
Karthala,Confirmed Eruption,1872,2,NW flank (Diboini Plateau),Historical Observations,Unknown,-11.75,43.38,2361 m,Comoros,Shield,"225,379","225,379","278,330","399,067"
Sinarka,Confirmed Eruption,1872,4,,Historical Observations,1878,48.873,154.182,911 m,Russia,Stratovolcano,0,3,3,57
Callaqui,Discredited Eruption,1872,--,, ,[ Unknown ],-37.92,-71.45,3164 m,Chile,Stratovolcano,56,294,"4,354","400,426"
Planchon-Peteroa,Uncertain Eruption,1872,--,, ,[ Unknown ],-35.223,-70.568,3977 m,Chile,Stratovolcano(es),6,48,"1,345","634,959"
Bardarbunga,Confirmed Eruption,1872,--,Volcano Uncertain: Dyngjuhals ?,Unknown,Unknown,64.633,-17.516,2000 m,Iceland,Stratovolcano,0,0,0,"1,348"
Shikotsu,Uncertain Eruption,1871 Dec 25,2,Tarumai, ,[ 1871 Dec 28 ],42.688,141.38,1320 m,Japan,Caldera,"130,474","130,474","316,816","3,096,376"
Mayon,Confirmed Eruption,1871 Dec 8,3,,Historical Observations,1872 Jan,13.257,123.685,2462 m,Philippines,Stratovolcano,"4,350","248,448","1,166,441","4,142,375"
Ragang,Confirmed Eruption,1871 Dec 8,2,,Historical Observations,Unknown,7.691,124.507,2790 m,Philippines,Stratovolcano,447,"2,646","331,796","6,423,725"
Marapi,Confirmed Eruption,1871 Sep 24,2,,Historical Observations,Unknown,-0.38,100.474,2885 m,Indonesia,Complex,706,"57,453","818,039","4,059,773"
Iya,Confirmed Eruption,1871 Sep 1,2,,Historical Observations,Unknown,-8.891,121.641,618 m,Indonesia,Stratovolcano,"10,837","46,835","62,974","535,387"
Mauna Loa,Confirmed Eruption,1871 Aug 10,0,Mokuaweoweo,Historical Observations,1871 Aug 30 (?),19.475,-155.608,4170 m,United States,Shield,45,45,"1,906","175,315"
Gamalama,Confirmed Eruption,1871 Aug 7,2,,Historical Observations,1871 Sep 25,0.8,127.33,1715 m,Indonesia,Stratovolcano(es),"103,429","204,820","308,691","536,972"
"Fournaise, Piton de la",Confirmed Eruption,1871 Jun 21,0,,Historical Observations,1871 Jul 5,-21.244,55.708,2632 m,France,Shield,"55,859","55,859","246,792","717,820"
Camiguin,Confirmed Eruption,1871 Apr 30,2,Lower NW flank of Hibok-Hibok (Mt. Vulcan),Historical Observations,1875,9.203,124.673,1552 m,Philippines,Stratovolcano(es),"12,173","51,587","92,178","2,871,353"
Marapi,Confirmed Eruption,1871 Apr 24,2,,Historical Observations,Unknown,-0.38,100.474,2885 m,Indonesia,Complex,706,"57,453","818,039","4,059,773"
Izu-Torishima,Confirmed Eruption,1871 Apr,0,,Historical Observations,Unknown,30.484,140.303,394 m,Japan,Stratovolcano,21,21,21,21
Nikko-Shiranesan,Uncertain Eruption,1871 Apr,--,Shirane-san, ,[ Unknown ],36.799,139.376,2578 m,Japan,Shield,513,"2,502","79,844","9,303,980"
Ruang,Confirmed Eruption,1871 Mar 2,2,,Historical Observations,1871 Mar 14,2.3,125.37,725 m,Indonesia,Stratovolcano,878,"1,652","2,766","149,159"
Reventador,Confirmed Eruption,1871 Jan 30,2,,Historical Observations,Unknown,-0.077,-77.656,3562 m,Ecuador,Stratovolcano,484,963,"4,403","2,619,647"
Deception Island,Confirmed Eruption,1871,--,SE side of caldera bay (Kroner Lake),Tephrochronology,Unknown,-63.001,-60.652,602 m,Antarctica,Caldera,0,0,0,0
"Barrier, The",Confirmed Eruption,1871,2,North flank (Teleki's Cone),Historical Observations,Unknown,2.32,36.57,1032 m,Kenya,Shield,17,112,"4,180","109,675"
Cameroon,Confirmed Eruption,1871,2,,Historical Observations,Unknown,4.203,9.17,4095 m,Cameroon,Stratovolcano,328,"26,053","417,460","3,079,036"
Nisyros,Confirmed Eruption,1871,2,Plegathon and Polyvotis,Historical Observations,Unknown,36.586,27.16,698 m,Greece,Stratovolcano,672,680,"14,285","461,031"
Ambrym,Confirmed Eruption,1871,2,,Historical Observations,Unknown,-16.25,168.12,1334 m,Vanuatu,Pyroclastic shield,9,186,"10,826","63,999"
Tinakula,Confirmed Eruption,1871,2,,Historical Observations,Unknown,-10.386,165.804,796 m,Solomon Islands,Stratovolcano,0,19,19,"20,155"
Myojinsho,Confirmed Eruption,1871,0,Volcano Uncertain,Unknown,Unknown,31.888,139.918,11 m,Japan,Submarine,0,0,0,242
Villarrica,Confirmed Eruption,1871,2,,Varve Count,Unknown,-39.42,-71.93,2847 m,Chile,Stratovolcano,477,"1,067","35,118","667,788"
Vesuvius,Confirmed Eruption,1870 Dec,3,Summit and upper NW and south flanks,Historical Observations,1872 Apr 30,40.821,14.426,1281 m,Italy,Stratovolcano,"19,162","675,705","3,907,941","6,009,961"
Purace,Confirmed Eruption,1870 Oct,2,,Historical Observations,Unknown,2.32,-76.4,4650 m,Colombia,Stratovolcano(es),"1,465","7,152","335,698","1,751,540"
Ruang,Confirmed Eruption,1870 Aug 27,3,,Historical Observations,1870 Aug 28,2.3,125.37,725 m,Indonesia,Stratovolcano,878,"1,652","2,766","149,159"
Lamongan,Confirmed Eruption,1870 Aug 18,2,Summit and SW flank,Historical Observations,1871 Feb 5 ± 1 days,-7.981,113.341,1641 m,Indonesia,Stratovolcano,"6,588","66,387","2,193,829","15,322,387"
Gede-Pangrango,Confirmed Eruption,1870 Aug,2,,Historical Observations,1870 Oct 3,-6.77,106.965,3008 m,Indonesia,Stratovolcano(es),"2,500","154,390","2,315,469","40,640,105"
Raoul Island,Confirmed Eruption,1870 Jun 20,3,"Denham caldera, Green Lake",Historical Observations,1870 Oct 3,-29.27,-177.92,516 m,New Zealand,Stratovolcano,0,0,0,0
Izalco,Uncertain Eruption,1870 May 19,2,, ,[ Unknown ],13.813,-89.633,1950 m,El Salvador,Stratovolcano,937,"55,665","1,272,308","6,415,818"
Sumisujima,Confirmed Eruption,1870 May,2,18 km SW of Smith Rock,Historical Observations,Unknown,31.44,140.051,136 m,Japan,Submarine,0,0,0,0
Tongariro,Confirmed Eruption,1870 Apr,2,Ngauruhoe (NW sub-crater),Historical Observations,1870 Aug,-39.157,175.632,1978 m,New Zealand,Stratovolcano(es),27,286,"7,591","81,567"
Lamongan,Confirmed Eruption,1870 Mar 2,2,,Historical Observations,1870 Mar 5,-7.981,113.341,1641 m,Indonesia,Stratovolcano,"6,588","66,387","2,193,829","15,322,387"
"Misti, El",Uncertain Eruption,1870 Mar,1,, ,[ Unknown ],-16.294,-71.409,5822 m,Peru,Stratovolcano,82,"1,507","918,280","1,052,408"
Ceboruco,Confirmed Eruption,1870 Feb 21,3,Upper west flank,Historical Observations,1875,21.125,-104.508,2280 m,Mexico,Stratovolcano,616,"30,319","93,057","1,282,014"
"Fournaise, Piton de la",Uncertain Eruption,1870 Feb 1,0,, ,[ Unknown ],-21.244,55.708,2632 m,France,Shield,"55,859","55,859","246,792","717,820"
Mauna Loa,Uncertain Eruption,1870 Jan 1,0,Mokuaweoweo, ,[ 1870 Jan 15 (?) ],19.475,-155.608,4170 m,United States,Shield,45,45,"1,906","175,315"
Colima,Confirmed Eruption,1870,0,NE flank (El Volcancito),Historical Observations,1871,19.514,-103.62,3850 m,Mexico,Stratovolcano(es),76,746,"303,490","1,494,790"
Rainier,Uncertain Eruption,1870,2,, ,[ Unknown ],46.853,-121.76,4392 m,United States,Stratovolcano,0,128,"3,187","2,667,609"
Baker,Confirmed Eruption,1870,2,Sherman Crater,Historical Observations,Unknown,48.777,-121.813,3285 m,United States,Stratovolcano(es),0,46,"8,568","1,990,504"
Izu-Oshima,Confirmed Eruption,1870,2,Mihara-yama,Historical Observations,Unknown,34.724,139.394,746 m,Japan,Stratovolcano,"2,381","8,037","8,375","11,837,468"
Ambrym,Uncertain Eruption,1870,--,, ,[ Unknown ],-16.25,168.12,1334 m,Vanuatu,Pyroclastic shield,9,186,"10,826","63,999"
Ambae,Confirmed Eruption,1870,2,SE side Lake Manaro Lakua; Lake Voui?,Historical Observations,Unknown,-15.389,167.835,1496 m,Vanuatu,Shield,73,"1,279","4,326","73,308"
Iliwerung,Confirmed Eruption,1870,3,Iliwerung (Iliadowajo),Historical Observations,Unknown,-8.532,123.573,583 m,Indonesia,Complex,968,"4,318","79,569","665,081"
Gamalama,Discredited Eruption,1870,--,, ,[ Unknown ],0.8,127.33,1715 m,Indonesia,Stratovolcano(es),"103,429","204,820","308,691","536,972"
San Pedro-San Pablo,Uncertain Eruption,1870,--,, ,[ Unknown ],-21.888,-68.391,6142 m,Chile,Stratovolcano(es),0,156,"2,349","150,795"
Momotombo,Confirmed Eruption,1870,2,,Historical Observations,Unknown,12.423,-86.539,1270 m,Nicaragua,Stratovolcano,100,"1,851","98,583","3,569,021"
Cotopaxi,Confirmed Eruption,1870,2,,Historical Observations,1876,-0.677,-78.436,5911 m,Ecuador,Stratovolcano,251,"7,299","152,139","3,631,492"
Purace,Confirmed Eruption,1869 Oct 4,3,,Historical Observations,1869 Nov,2.32,-76.4,4650 m,Colombia,Stratovolcano(es),"1,465","7,152","335,698","1,751,540"
Ubinas,Confirmed Eruption,1869 Oct,2,,Historical Observations,Unknown,-16.355,-70.903,5672 m,Peru,Stratovolcano,180,"1,195","14,607","1,136,785"
