volcanoName,eruptionCertainty,startDate,maxVEI,activityArea,evidenceMethod,stopDate,latitude,longitude,volcanoHeight,country,primaryVolcanoType,population5km,population10km,population30km,population100km
Copahue,Confirmed Eruption,0250 BCE,--,,Radiocarbon (uncorrected),Unknown,-37.856,-71.183,2953 m,Chile-Argentina,Stratovolcano,88,555,"3,042","138,414"
Deception Island,Confirmed Eruption,0250 BCE,--,Tephra layer AP-8,Radiocarbon (uncorrected),Unknown,-63.001,-60.652,602 m,Antarctica,Caldera,0,0,0,0
Hekla,Confirmed Eruption,0250 BCE,--,"NE flank, Vatnafjöll (Langviuhraun)",Tephrochronology,Unknown,63.983,-19.666,1490 m,Iceland,Stratovolcano,0,0,298,"22,845"
Katla,Confirmed Eruption,0250 BCE,--,,Tephrochronology,Unknown,63.633,-19.083,1490 m,Iceland,Subglacial,0,0,473,"11,326"
"Maule, Laguna del",Confirmed Eruption,0250 BCE,0,rcd,Ar/Ar,Unknown,-36.058,-70.492,2162 m,Chile,Caldera,"1,045","1,045","1,521","169,334"
Campi Flegrei del Mar di Sicilia,Confirmed Eruption,0253 BCE,--,,Historical Observations,Unknown,37.1,12.7,-8 m,Italy,Submarine,"230,578","230,578","230,578","633,350"
Methana,Confirmed Eruption,0258 BCE,3,Kameno Vouno,Historical Observations,Unknown,37.615,23.336,760 m,Greece,Lava dome(s),152,"1,683","48,917","4,220,783"
Craters of the Moon,Confirmed Eruption,0260 BCE,0,"Big Craters, Trench Mortar Flat",Radiocarbon (uncorrected),Unknown,43.42,-113.5,2005 m,United States,Pyroclastic cone(s),15,15,"1,459","93,300"
Acatenango,Confirmed Eruption,0260 BCE,--,Pico Central,Radiocarbon (uncorrected),Unknown,14.501,-90.876,3976 m,Guatemala,Stratovolcano(es),"4,329","60,730","1,042,836","7,634,778"
Cayambe,Confirmed Eruption,0260 BCE,--,,Tephrochronology,Unknown,0.029,-77.986,5790 m,Ecuador,Compound,70,"1,148","109,630","3,154,986"
Tungurahua,Confirmed Eruption,0270 BCE,--,,Radiocarbon (uncorrected),Unknown,-1.467,-78.442,5023 m,Ecuador,Stratovolcano,476,"20,990","183,640","1,571,744"
Arenal,Confirmed Eruption,0270 BCE,4,Tephra layer AR-11/ET-9A,Tephrochronology,Unknown,10.463,-84.703,1670 m,Costa Rica,Stratovolcano,"3,429","15,643","96,512","3,027,485"
Kilauea,Confirmed Eruption,0270 BCE,0,Kipuka Nene flows,Radiocarbon (corrected),Unknown,19.421,-155.287,1222 m,United States,Shield,"3,122","3,122","8,495","169,550"
Cleft Segment,Confirmed Eruption,0270 BCE,0,"S Cleft Segment, S Juan de Fuca Ridge",Uranium-series,Unknown,44.83,-130.3,-2140 m,Undersea Features,Submarine,0,0,0,0
Redoubt,Confirmed Eruption,0270 BCE,--,,Varve Count,Unknown,60.485,-152.742,3108 m,United States,Stratovolcano,0,0,1,"32,410"
Rausudake,Confirmed Eruption,0270 BCE,--,Ra3-Ra8 tephras,Radiocarbon (corrected),Unknown,44.076,145.122,1660 m,Japan,Stratovolcano,35,"4,623","8,574","218,325"
Bamus,Confirmed Eruption,0270 BCE,--,,Radiocarbon (uncorrected),Unknown,-5.2,151.23,2248 m,Papua New Guinea,Stratovolcano,50,630,"19,320","71,997"
Ata,Confirmed Eruption,0270 BCE,4,"Kaimon, Tephra set Km-lamda",Tephrochronology,Unknown,31.22,130.57,924 m,Japan,Caldera(s),"93,134","93,134","171,590","1,891,380"
Kikai,Confirmed Eruption,0280 BCE,--,Iwo-dake,Radiocarbon (uncorrected),Unknown,30.793,130.305,704 m,Japan,Caldera,152,152,152,"1,002,905"
St. Helens,Confirmed Eruption,0280 BCE,--,,Radiocarbon (corrected),Unknown,46.2,-122.18,2549 m,United States,Stratovolcano,78,427,"2,221","2,173,101"
Haleakala,Confirmed Eruption,0290 BCE,--,SW rift zone (~2400 m),Radiocarbon (corrected),Unknown,20.708,-156.25,3055 m,United States,Shield,"26,074","26,074","65,398","157,582"
Salton Buttes,Confirmed Eruption,0290 BCE,--,Mullet Island,Magnetism,Unknown,33.197,-115.616,-40 m,United States,Lava dome(s),227,408,"38,579","1,214,088"
Wapi Lava Field,Confirmed Eruption,0300 BCE,2,"Kings Bowl Rift, Wapi Lava Field",Tephrochronology,Unknown,42.88,-113.22,1604 m,United States,Shield,6,6,"1,394","172,539"
Mauna Loa,Confirmed Eruption,0300 BCE,0,NE rift zone,Radiocarbon (uncorrected),Unknown,19.475,-155.608,4170 m,United States,Shield,45,45,"1,906","175,315"
Adams,Confirmed Eruption,0300 BCE,2,Tephra layer 22,Tephrochronology,Unknown,46.206,-121.49,3742 m,United States,Stratovolcano,0,70,"4,019","393,303"
Sheveluch,Confirmed Eruption,0300 BCE,4,West flank (Karan),Radiocarbon (corrected),Unknown,56.653,161.36,3283 m,Russia,Stratovolcano,0,0,"1,718","11,613"
Akan,Confirmed Eruption,0300 BCE,--,"Akan-Fuji, AS-2-6, AL-1-3 tephras",Tephrochronology,Unknown,43.384,144.013,1499 m,Japan,Caldera,"2,062","2,062","9,756","929,538"
Khodutka,Confirmed Eruption,0300 BCE,0,,Tephrochronology,Unknown,52.062,157.711,2039 m,Russia,Stratovolcano(es),0,0,187,"3,525"
Okataina,Confirmed Eruption,0300 BCE,0,Mt. Edgecumbe,Tephrochronology,Unknown,-38.12,176.5,1111 m,New Zealand,Lava dome(s),18,579,"79,591","362,413"
Vulcano,Confirmed Eruption,0300 BCE,2,Fossa,Historical Observations,Unknown,38.404,14.962,500 m,Italy,Stratovolcano(es),"2,259","23,059","86,766","2,093,800"
Pelee,Confirmed Eruption,0300 BCE,--,,Radiocarbon (corrected),Unknown,14.809,-61.165,1394 m,France,Stratovolcano,251,"5,025","382,633","609,576"
Heidarspordar,Confirmed Eruption,0300 BCE,2,Threngslaborgir-Ludentsborgir crater row,Radiocarbon (corrected),Unknown,65.583,-16.817,490 m,Iceland,Fissure vent,,,,
"Misti, El",Confirmed Eruption,0310 BCE,--,,Radiocarbon (corrected),Unknown,-16.294,-71.409,5822 m,Peru,Stratovolcano,82,"1,507","918,280","1,052,408"
Augustine,Confirmed Eruption,0310 BCE,--,,Radiocarbon (corrected),Unknown,59.363,-153.43,1252 m,United States,Lava dome(s),0,0,0,759
Taapaca,Confirmed Eruption,0320 BCE,--,,Radiocarbon (uncorrected),Unknown,-18.1,-69.5,5860 m,Chile,Complex,3,87,"1,994","505,369"
"Chillan, Nevados de",Confirmed Eruption,0320 BCE,--,Volcán Viejo,Radiocarbon (uncorrected),Unknown,-36.868,-71.378,3180 m,Chile,Stratovolcano,68,371,"3,733","512,325"
Atacazo,Confirmed Eruption,0320 BCE,5,"Ninahuilca Chico II dome, N6 tephra",Radiocarbon (uncorrected),Unknown,-0.353,-78.617,4463 m,Ecuador,Stratovolcano,449,"212,988","1,837,303","3,769,593"
Unknown Source,Confirmed Eruption,0325 BCE,--,,,,,,,,,,,,
Calbuco,Confirmed Eruption,0330 BCE,--,,Radiocarbon (uncorrected),Unknown,-41.33,-72.618,1974 m,Chile,Stratovolcano,70,871,"32,265","575,233"
Taveuni,Confirmed Eruption,0330 BCE,2,,Radiocarbon (corrected),Unknown,-16.82,-179.97,1241 m,Fiji,Shield,692,"3,220","19,186","146,131"
Merapi,Confirmed Eruption,0340 BCE,3,Ngrangkah Tephra,Radiocarbon (corrected),Unknown,-7.54,110.446,2910 m,Indonesia,Stratovolcano,"49,205","185,849","4,348,473","24,728,414"
Unknown Source,Confirmed Eruption,0345 BCE,--,,,,,,,,,,,,
Bamus,Confirmed Eruption,0350 BCE,--,,Radiocarbon (uncorrected),Unknown,-5.2,151.23,2248 m,Papua New Guinea,Stratovolcano,50,630,"19,320","71,997"
Ambitle,Confirmed Eruption,0350 BCE,--,East side of caldera,Radiocarbon (uncorrected),Unknown,-4.08,153.65,450 m,Papua New Guinea,Stratovolcano,"1,643","9,195","9,779","24,367"
Stromboli,Confirmed Eruption,0350 BCE,2,,Historical Observations,Unknown,38.789,15.213,924 m,Italy,Stratovolcano,"2,225","2,225","3,894","1,347,563"
Etna,Discredited Eruption,0350 BCE,--,, ,[ Unknown ],37.748,14.999,3320 m,Italy,Stratovolcano(es),78,"3,291","1,016,540","3,052,770"
Augustine,Confirmed Eruption,0350 BCE,--,,Tephrochronology,Unknown,59.363,-153.43,1252 m,United States,Lava dome(s),0,0,0,759
Redoubt,Confirmed Eruption,0350 BCE,--,,Varve Count,Unknown,60.485,-152.742,3108 m,United States,Stratovolcano,0,0,1,"32,410"
Ukinrek Maars,Confirmed Eruption,0350 BCE,--,Gas Rocks,Radiocarbon (uncorrected),Unknown,57.832,-156.51,91 m,United States,Maar(s),0,0,0,739
Khangar,Confirmed Eruption,0350 BCE,--,,Radiocarbon (corrected),Unknown,54.761,157.407,1967 m,Russia,Stratovolcano,0,0,38,"11,805"
Three Sisters,Confirmed Eruption,0350 BCE,4,SW flank of South Sister (Rock Mesa),Radiocarbon (uncorrected),Unknown,44.133,-121.767,3159 m,United States,Complex,0,0,"5,672","279,885"
Craters of the Moon,Confirmed Eruption,0350 BCE,0,North Crater,Magnetism,Unknown,43.42,-113.5,2005 m,United States,Pyroclastic cone(s),15,15,"1,459","93,300"
Hualalai,Confirmed Eruption,0350 BCE,0,SE flank (1 km west of Waha Pehe),Radiocarbon (uncorrected),Unknown,19.692,-155.87,2523 m,United States,Shield,"35,906","35,906","46,959","166,240"
Gorely,Confirmed Eruption,0350 BCE,3,,Tephrochronology,Unknown,52.559,158.03,1799 m,Russia,Caldera,0,0,19,"250,293"
Krasheninnikov,Confirmed Eruption,0350 BCE,--,Northern cone,Radiocarbon (corrected),Unknown,54.596,160.27,1816 m,Russia,Caldera,308,308,814,"4,674"
Akita-Komagatake,Confirmed Eruption,0350 BCE,3,AK-3 tephra,Radiocarbon (corrected),Unknown,39.761,140.799,1637 m,Japan,Stratovolcano(es),376,"3,864","216,708","2,521,611"
Iwatesan,Confirmed Eruption,0350 BCE,--,Higashi-Iwate,Radiocarbon (uncorrected),Unknown,39.853,141.001,2038 m,Japan,Complex,439,"18,462","415,920","2,976,795"
Hachijojima,Confirmed Eruption,0350 BCE,3,NW flank of Higashi-yama,Tephrochronology,Unknown,33.137,139.766,854 m,Japan,Stratovolcano(es),"11,275","13,560","13,564","14,082"
Yakedake,Confirmed Eruption,0350 BCE,4,,Radiocarbon (corrected),Unknown,36.227,137.587,2455 m,Japan,Stratovolcano(es),995,"2,995","156,542","4,595,286"
Vulcano,Confirmed Eruption,0360 BCE,2,Fossa,Historical Observations,Unknown,38.404,14.962,500 m,Italy,Stratovolcano(es),"2,259","23,059","86,766","2,093,800"
Furnas,Confirmed Eruption,0360 BCE,--,Tephra layer B,Radiocarbon (uncorrected),Unknown,37.77,-25.32,805 m,Portugal,Stratovolcano,"1,333","7,310","87,865","153,182"
La Palma,Confirmed Eruption,0360 BCE,--,El Fraile,Radiocarbon (uncorrected),Unknown,28.57,-17.83,2426 m,Spain,Stratovolcano(es),442,,,
Katla,Confirmed Eruption,0370 BCE,--,,Tephrochronology,Unknown,63.633,-19.083,1490 m,Iceland,Subglacial,0,0,473,"11,326"
Ischia,Confirmed Eruption,0370 BCE,--,Ischia Porto (San Pietro),Magnetism,Unknown,40.73,13.897,789 m,Italy,Complex,"18,669","20,210","383,661","5,729,354"
Acatenango,Confirmed Eruption,0370 BCE,--,Pico Central,Radiocarbon (uncorrected),Unknown,14.501,-90.876,3976 m,Guatemala,Stratovolcano(es),"4,329","60,730","1,042,836","7,634,778"
Aniakchak,Confirmed Eruption,0370 BCE,--,,Radiocarbon (corrected),Unknown,56.88,-158.17,1341 m,United States,Caldera,0,0,36,479
Redoubt,Confirmed Eruption,0380 BCE,--,,Varve Count,Unknown,60.485,-152.742,3108 m,United States,Stratovolcano,0,0,1,"32,410"
Arenal,Confirmed Eruption,0380 BCE,4,Tephra layer AR-10/ET-9B,Radiocarbon (corrected),Unknown,10.463,-84.703,1670 m,Costa Rica,Stratovolcano,"3,429","15,643","96,512","3,027,485"
Redoubt,Confirmed Eruption,0390 BCE,--,,Varve Count,Unknown,60.485,-152.742,3108 m,United States,Stratovolcano,0,0,1,"32,410"
Haleakala,Confirmed Eruption,0390 BCE,--,North crater wall,Radiocarbon (uncorrected),Unknown,20.708,-156.25,3055 m,United States,Shield,"26,074","26,074","65,398","157,582"
Ebeko,Confirmed Eruption,0390 BCE,--,,Radiocarbon (uncorrected),Unknown,50.686,156.014,1103 m,Russia,Stratovolcano,0,267,"1,076","3,098"
Etna,Confirmed Eruption,0396 Apr 15 BCE,--,"SE flank (700 m, Monte Gorna)",Historical Observations,Unknown,37.748,14.999,3320 m,Italy,Stratovolcano(es),78,"3,291","1,016,540","3,052,770"
Taveuni,Confirmed Eruption,0400 BCE,2,,Radiocarbon (corrected),Unknown,-16.82,-179.97,1241 m,Fiji,Shield,692,"3,220","19,186","146,131"
Fukue,Confirmed Eruption,0400 BCE,--,Hino-take,Radiocarbon (corrected),Unknown,32.657,128.849,315 m,Japan,Shield(s),"18,334","40,407","61,450","704,523"
Matutum,Confirmed Eruption,0400 BCE,--,,Radiocarbon (uncorrected),Unknown,6.37,125.07,2286 m,Philippines,Stratovolcano,855,"10,431","822,372","5,316,209"
Yakedake,Confirmed Eruption,0400 BCE,--,Ykd-Tl2 tephra,Tephrochronology,Unknown,36.227,137.587,2455 m,Japan,Stratovolcano(es),995,"2,995","156,542","4,595,286"
Yokodake,Confirmed Eruption,0400 BCE,--,"Yoko-dake, NYk-2 tephra",Radiocarbon (corrected),Unknown,36.087,138.32,2480 m,Japan,Stratovolcano(es),"1,920","11,751","484,929","6,385,773"
Nikko-Shiranesan,Confirmed Eruption,0400 BCE,--,Nks-2 tephra,Tephrochronology,Unknown,36.799,139.376,2578 m,Japan,Shield,513,"2,502","79,844","9,303,980"
Hualalai,Confirmed Eruption,0400 BCE,0,NW rift zone (Luamakami),Radiocarbon (uncorrected),Unknown,19.692,-155.87,2523 m,United States,Shield,"35,906","35,906","46,959","166,240"
Mauna Loa,Confirmed Eruption,0400 BCE,0,SW rift zone,Radiocarbon (uncorrected),Unknown,19.475,-155.608,4170 m,United States,Shield,45,45,"1,906","175,315"
Adams,Confirmed Eruption,0400 BCE,2,Tephra layer 21,Tephrochronology,Unknown,46.206,-121.49,3742 m,United States,Stratovolcano,0,70,"4,019","393,303"
Rainier,Confirmed Eruption,0400 BCE,--,,Tephrochronology,Unknown,46.853,-121.76,4392 m,United States,Stratovolcano,0,128,"3,187","2,667,609"
Redoubt,Confirmed Eruption,0400 BCE,--,,Varve Count,Unknown,60.485,-152.742,3108 m,United States,Stratovolcano,0,0,1,"32,410"
Sheveluch,Confirmed Eruption,0400 BCE,3,West flank (Karan),Tephrochronology,Unknown,56.653,161.36,3283 m,Russia,Stratovolcano,0,0,"1,718","11,613"
Cotopaxi,Confirmed Eruption,0400 BCE,4,Tephra layer J,Tephrochronology,Unknown,-0.677,-78.436,5911 m,Ecuador,Stratovolcano,251,"7,299","152,139","3,631,492"
Reykjanes,Confirmed Eruption,0400 BCE,2,Sundhnukar,Radiocarbon (uncorrected),Unknown,63.817,-22.717,140 m,Iceland,Crater rows,"13,995","13,995","15,542","192,922"
Meager,Confirmed Eruption,0410 BCE,5,NE flank of Plinth Peak,Radiocarbon (corrected),Unknown,50.63,-123.5,2680 m,Canada,Complex,1,111,307,"17,662"
Kilauea,Confirmed Eruption,0410 BCE,0,East rift zone,Radiocarbon (uncorrected),Unknown,19.421,-155.287,1222 m,United States,Shield,"3,122","3,122","8,495","169,550"
Redoubt,Confirmed Eruption,0420 BCE,--,,Varve Count,Unknown,60.485,-152.742,3108 m,United States,Stratovolcano,0,0,1,"32,410"
Taranaki,Confirmed Eruption,0420 BCE,--,,Radiocarbon (uncorrected),Unknown,-39.3,174.07,2518 m,New Zealand,Stratovolcano,200,230,"77,381","104,499"
Etna,Confirmed Eruption,0425 Mar 15 BCE,--,South flank (Monte Arso),Historical Observations,0424 BCE (?),37.748,14.999,3320 m,Italy,Stratovolcano(es),78,"3,291","1,016,540","3,052,770"
"Plat Pays, Morne",Confirmed Eruption,0430 BCE,--,Morne Patates ?,Radiocarbon (uncorrected),Unknown,15.255,-61.341,940 m,Dominica,Stratovolcano,"11,227","38,372","57,856","557,207"
Katla,Confirmed Eruption,0430 BCE,--,,Tephrochronology,Unknown,63.633,-19.083,1490 m,Iceland,Subglacial,0,0,473,"11,326"
Unknown Source,Confirmed Eruption,0433 BCE,--,,,,,,,,,,,,
Pelee,Confirmed Eruption,0440 BCE,4,,Radiocarbon (uncorrected),Unknown,14.809,-61.165,1394 m,France,Stratovolcano,251,"5,025","382,633","609,576"
Hualalai,Confirmed Eruption,0440 BCE,0,North rift zone (3 km NE of Hainoa),Radiocarbon (uncorrected),Unknown,19.692,-155.87,2523 m,United States,Shield,"35,906","35,906","46,959","166,240"
Esan,Confirmed Eruption,0440 BCE,--,Es-3 tephra,Radiocarbon (corrected),Unknown,41.805,141.166,618 m,Japan,Lava dome(s),"1,734","5,831","33,197","916,560"
Popa,Uncertain Eruption,0442 BCE,--,, ,[ Unknown ],20.92,95.25,1518 m,Burma (Myanmar),Stratovolcano,"1,108","22,922","452,931","5,923,206"
Cameroon,Confirmed Eruption,0450 BCE,3,,Historical Observations,Unknown,4.203,9.17,4095 m,Cameroon,Stratovolcano,328,"26,053","417,460","3,079,036"
Mutnovsky,Confirmed Eruption,0450 BCE,2,,Tephrochronology,Unknown,52.449,158.196,2288 m,Russia,Complex,0,0,97,"250,858"
Iwatesan,Confirmed Eruption,0450 BCE,--,Nishi-Iwate (O-jigokudani area),Radiocarbon (corrected),Unknown,39.853,141.001,2038 m,Japan,Complex,439,"18,462","415,920","2,976,795"
Chokaisan,Confirmed Eruption,0450 BCE,--,OD-12 tephra,Tephrochronology,Unknown,39.099,140.049,2236 m,Japan,Stratovolcano(es),131,707,"185,681","2,301,576"
Redoubt,Confirmed Eruption,0450 BCE,--,,Varve Count,Unknown,60.485,-152.742,3108 m,United States,Stratovolcano,0,0,1,"32,410"
Iliamna,Confirmed Eruption,0450 BCE,--,,Radiocarbon (uncorrected),Unknown,60.032,-153.09,3053 m,United States,Stratovolcano,0,0,1,"7,564"
Bezymianny,Confirmed Eruption,0450 BCE,4,Tephra layer BZ,Radiocarbon (corrected),Unknown,55.972,160.595,2882 m,Russia,Stratovolcano,0,0,47,"11,728"
Pululahua,Confirmed Eruption,0450 BCE,4,,Radiocarbon (uncorrected),Unknown,0.038,-78.463,3356 m,Ecuador,Caldera,"534,403","534,403","1,192,411","3,330,856"
Cayambe,Confirmed Eruption,0460 BCE,--,,Tephrochronology,Unknown,0.029,-77.986,5790 m,Ecuador,Compound,70,"1,148","109,630","3,154,986"
Redoubt,Confirmed Eruption,0470 BCE,--,,Varve Count,Unknown,60.485,-152.742,3108 m,United States,Stratovolcano,0,0,1,"32,410"
Ischia,Confirmed Eruption,0470 BCE,--,Bosco dei Conti and Fondo Ferraro ?,Historical Observations,Unknown,40.73,13.897,789 m,Italy,Complex,"18,669","20,210","383,661","5,729,354"
Vulcano,Confirmed Eruption,0475 BCE,--,Fossa,Historical Observations,Unknown,38.404,14.962,500 m,Italy,Stratovolcano(es),"2,259","23,059","86,766","2,093,800"
Etna,Confirmed Eruption,0479 Aug BCE,--,South flank ?,Historical Observations,0475 BCE (?),37.748,14.999,3320 m,Italy,Stratovolcano(es),78,"3,291","1,016,540","3,052,770"
Savai'i,Confirmed Eruption,0480 BCE,--,,Radiocarbon (corrected),Unknown,-13.612,-172.525,1858 m,Samoa,Shield,0,59,"34,215","188,465"
Ischia,Confirmed Eruption,0490 BCE,--,"Case Balestrieri?, Cava Nocelle?",Magnetism,Unknown,40.73,13.897,789 m,Italy,Complex,"18,669","20,210","383,661","5,729,354"
Galeras,Confirmed Eruption,0490 BCE,2,,Radiocarbon (corrected),Unknown,1.22,-77.37,4276 m,Colombia,Complex,705,"120,817","630,777","1,700,248"
Puyehue-Cordon Caulle,Confirmed Eruption,0490 BCE,--,,Radiocarbon (corrected),Unknown,-40.59,-72.117,2236 m,Chile,Stratovolcano,129,783,"7,163","515,357"
Tungurahua,Confirmed Eruption,0500 BCE,3,,Radiocarbon (uncorrected),Unknown,-1.467,-78.442,5023 m,Ecuador,Stratovolcano,476,"20,990","183,640","1,571,744"
Krafla,Confirmed Eruption,0500 BCE,0,North of Hverfjall,Tephrochronology,Unknown,65.715,-16.728,800 m,Iceland,Caldera,384,384,"1,258","25,667"
Dieng Volcanic Complex,Confirmed Eruption,0500 BCE,--,Sikidang-Siterus (Telaga Lumut),Radiocarbon (uncorrected),Unknown,-7.2,109.879,2565 m,Indonesia,Complex,"1,092,929","1,092,929","1,886,942","24,381,814"
Mageik,Confirmed Eruption,0500 BCE,--,Between East and Central Mageik,Radiocarbon (uncorrected),Unknown,58.195,-155.253,2165 m,United States,Stratovolcano,0,0,0,376
Sheveluch,Confirmed Eruption,0500 BCE,4,,Radiocarbon (corrected),Unknown,56.653,161.36,3283 m,Russia,Stratovolcano,0,0,"1,718","11,613"
Mauna Loa,Confirmed Eruption,0500 BCE,0,SW rift zone,Radiocarbon (uncorrected),Unknown,19.475,-155.608,4170 m,United States,Shield,45,45,"1,906","175,315"
Rainier,Confirmed Eruption,0500 BCE,--,Tephra layer SL5,Tephrochronology,Unknown,46.853,-121.76,4392 m,United States,Stratovolcano,0,128,"3,187","2,667,609"
Picos Fissural Volcanic System,Confirmed Eruption,0510 BCE,--,North-central part (Furna),Radiocarbon (uncorrected),Unknown,37.78,-25.67,350 m,Portugal,Pyroclastic cone(s),"115,732","115,732","123,990","139,730"
Cayambe,Confirmed Eruption,0510 BCE,--,,Tephrochronology,Unknown,0.029,-77.986,5790 m,Ecuador,Compound,70,"1,148","109,630","3,154,986"
Tenerife,Confirmed Eruption,0520 BCE,--,Teide-Pico Viejo complex,Radiocarbon (uncorrected),Unknown,28.271,-16.641,3715 m,Spain,Stratovolcano,0,156,"337,660","766,276"
Jingbo,Confirmed Eruption,0520 BCE,--,,Radiocarbon (uncorrected),Unknown,44.08,128.83,1000 m,China,Volcanic field,"35,038","35,038","149,132","2,372,857"
Fujisan,Confirmed Eruption,0520 BCE,--,Tephra layer S-18,Radiocarbon (corrected),Unknown,35.361,138.728,3776 m,Japan,Stratovolcano,570,"1,759","906,969","25,022,187"
St. Helens,Confirmed Eruption,0530 BCE,5,Pine Creek tephra layers Ps and Pu,Radiocarbon (corrected),Unknown,46.2,-122.18,2549 m,United States,Stratovolcano,78,427,"2,221","2,173,101"
Katla,Confirmed Eruption,0530 BCE,--,,Tephrochronology,Unknown,63.633,-19.083,1490 m,Iceland,Subglacial,0,0,473,"11,326"
Soufriere St. Vincent,Confirmed Eruption,0530 BCE,--,,Radiocarbon (uncorrected),Unknown,13.33,-61.18,1220 m,Saint Vincent and the Grenadines,Stratovolcano,"1,491","15,327","103,882","291,476"
Nemrut Dagi,Confirmed Eruption,0531 BCE,--,,Varve Count,Unknown,38.654,42.229,2948 m,Turkey,Stratovolcano,608,"7,399","230,531","1,618,263"
Colli Albani,Discredited Eruption,0540 BCE,--,, ,[ Unknown ],41.73,12.7,949 m,Italy,Caldera,"897,039","897,039","2,962,194","5,330,273"
Tenduruk Dagi,Confirmed Eruption,0550 BCE,--,Lower SE flank,Radiocarbon (uncorrected),Unknown,39.356,43.874,3514 m,Turkey,Shield,550,"5,060","173,581","1,938,900"
Ararat,Confirmed Eruption,0550 BCE,--,Summit (?) and north flank,Anthropology,Unknown,39.7,44.3,5165 m,Turkey,Stratovolcano,25,"1,239","135,563","2,811,646"
Tongariro,Confirmed Eruption,0550 BCE,5,Ngauruhoe and Red Crater,Radiocarbon (uncorrected),Unknown,-39.157,175.632,1978 m,New Zealand,Stratovolcano(es),27,286,"7,591","81,567"
Adams,Confirmed Eruption,0550 BCE,2,Tephra layers 19-20,Tephrochronology,Unknown,46.206,-121.49,3742 m,United States,Stratovolcano,0,70,"4,019","393,303"
Shasta,Confirmed Eruption,0550 BCE,--,,Tephrochronology,Unknown,41.409,-122.193,4317 m,United States,Stratovolcano,0,35,"19,785","265,016"
Tanaga,Confirmed Eruption,0550 BCE,--,Sajaka One,Tephrochronology,Unknown,51.885,-178.146,1806 m,United States,Stratovolcano(es),0,0,0,0
Titila,Confirmed Eruption,0550 BCE,--,,Radiocarbon (uncorrected),Unknown,57.406,160.108,1523 m,Russia,Shield(s),0,0,72,"2,877"
Mageik,Confirmed Eruption,0550 BCE,--,East Mageik,Radiocarbon (uncorrected),Unknown,58.195,-155.253,2165 m,United States,Stratovolcano,0,0,0,376
Makushin,Confirmed Eruption,0550 BCE,--,,Tephrochronology,Unknown,53.891,-166.923,1800 m,United States,Stratovolcano,0,0,"3,437","3,850"
Kusatsu-Shiranesan,Confirmed Eruption,0550 BCE,3,"Yu-gama, Tephra layer 13D",Tephrochronology,Unknown,36.618,138.528,2165 m,Japan,Stratovolcano(es),"4,485","14,296","434,049","5,947,593"
Iwakisan,Confirmed Eruption,0550 BCE,--,Torinoumi lava dome,Tephrochronology,Unknown,40.656,140.303,1625 m,Japan,Stratovolcano,918,"13,229","465,065","1,617,801"
Bandaisan,Confirmed Eruption,0550 BCE,--,"Numanotaira, RE3 tephra",Tephrochronology,Unknown,37.601,140.072,1816 m,Japan,Stratovolcano,"5,923","17,608","327,454","4,709,782"
Nemo Peak,Confirmed Eruption,0550 BCE,--,,Tephrochronology,Unknown,49.57,154.808,1018 m,Russia,Caldera,15,15,46,582
Gamchen,Confirmed Eruption,0550 BCE,--,"SE flank (Barany, Lukovitsa)",Tephrochronology,Unknown,54.974,160.703,2539 m,Russia,Complex,0,0,382,"3,829"
Vysoky,Confirmed Eruption,0550 BCE,0,,Radiocarbon (uncorrected),Unknown,55.064,160.765,2129 m,Russia,Stratovolcano,0,0,123,"3,657"
Taunshits,Confirmed Eruption,0550 BCE,--,,Radiocarbon (uncorrected),Unknown,54.528,159.804,2301 m,Russia,Stratovolcano,0,0,186,"11,110"
Maly Semyachik,Confirmed Eruption,0550 BCE,--,Ceno-Semiachik,Radiocarbon (corrected),Unknown,54.135,159.674,1527 m,Russia,Caldera,98,98,497,"10,182"
Bakening,Confirmed Eruption,0550 BCE,2,Western flank,Tephrochronology,Unknown,53.905,158.07,2278 m,Russia,Stratovolcano,0,10,"1,583","87,139"
Akan,Confirmed Eruption,0550 BCE,--,"Akan-Fuji, AS-1 tephra",Tephrochronology,Unknown,43.384,144.013,1499 m,Japan,Caldera,"2,062","2,062","9,756","929,538"
Taisetsuzan,Confirmed Eruption,0550 BCE,--,"Asahi-dake, Ash-b tephra",Tephrochronology,Unknown,43.664,142.854,2291 m,Japan,Stratovolcano(es),19,119,"16,391","1,304,267"
Shikotsu,Confirmed Eruption,0550 BCE,5,"Tarumai, Ta-c1, Ta-c2  tephras",Radiocarbon (uncorrected),Unknown,42.688,141.38,1320 m,Japan,Caldera,"130,474","130,474","316,816","3,096,376"
"Quill, The",Confirmed Eruption,0550 BCE,--,,Radiocarbon (uncorrected),Unknown,17.478,-62.96,601 m,Netherlands,Stratovolcano,"2,195","2,195","8,361","134,936"
"Azul, Cerro",Confirmed Eruption,0550 BCE,0,,Surface Exposure,Unknown,-0.92,-91.408,1640 m,Ecuador,Shield,220,220,314,"1,936"
Nejapa-Miraflores,Confirmed Eruption,0550 BCE,--,PM5 tephra,Tephrochronology,Unknown,12.12,-86.32,360 m,Nicaragua,Fissure vent(s),"295,906","870,837","1,610,426","3,062,823"
Katla,Confirmed Eruption,0550 BCE,--,,Tephrochronology,Unknown,63.633,-19.083,1490 m,Iceland,Subglacial,0,0,473,"11,326"
Hierro,Confirmed Eruption,0550 BCE,--,Montañas Chamuscada-Entremontañas,Radiocarbon (uncorrected),Unknown,27.73,-18.03,1500 m,Spain,Shield,"20,321","20,321","20,321","43,696"
Deception Island,Confirmed Eruption,0550 BCE,--,Tephra layer AP-9,Radiocarbon (uncorrected),Unknown,-63.001,-60.652,602 m,Antarctica,Caldera,0,0,0,0
Katla,Confirmed Eruption,0560 BCE,--,,Tephrochronology,Unknown,63.633,-19.083,1490 m,Iceland,Subglacial,0,0,473,"11,326"
Cayambe,Confirmed Eruption,0560 BCE,--,,Tephrochronology,Unknown,0.029,-77.986,5790 m,Ecuador,Compound,70,"1,148","109,630","3,154,986"
Etna,Uncertain Eruption,0565 BCE,--,, ,[ Unknown ],37.748,14.999,3320 m,Italy,Stratovolcano(es),78,"3,291","1,016,540","3,052,770"
Nabukelevu,Confirmed Eruption,0580 BCE,--,Summit lava dome,Radiocarbon (corrected),Unknown,-19.12,177.98,805 m,Fiji,Lava dome(s),269,"1,379","4,523","21,730"
Haleakala,Confirmed Eruption,0580 BCE,--,Haleakala crater,Radiocarbon (uncorrected),Unknown,20.708,-156.25,3055 m,United States,Shield,"26,074","26,074","65,398","157,582"
Soufriere Guadeloupe,Confirmed Eruption,0580 BCE,2,South flank (Morne Lenglet),Radiocarbon (uncorrected),Unknown,16.044,-61.664,1467 m,France,Stratovolcano,"8,839","71,345","256,899","482,449"
Tenerife,Confirmed Eruption,0580 BCE,--,NW flank of Teide (El Boquerón),Radiocarbon (corrected),Unknown,28.271,-16.641,3715 m,Spain,Stratovolcano,0,156,"337,660","766,276"
Gran Canaria,Confirmed Eruption,0580 BCE,--,Doramas and El Lentiscal,Radiocarbon (corrected),Unknown,28,-15.58,1950 m,Spain,Fissure vent(s),"1,101","8,049","697,199","1,119,998"
Unknown Source,Confirmed Eruption,0585 BCE,--,,,,,,,,,,,,
Gran Canaria,Confirmed Eruption,0590 BCE,--,Sima de Jinámar,Radiocarbon (corrected),Unknown,28,-15.58,1950 m,Spain,Fissure vent(s),"1,101","8,049","697,199","1,119,998"
Pelee,Confirmed Eruption,0590 BCE,4,Tephra layers NAB2 and P4,Radiocarbon (corrected),Unknown,14.809,-61.165,1394 m,France,Stratovolcano,251,"5,025","382,633","609,576"
Lanin,Confirmed Eruption,0590 BCE,--,,Radiocarbon (corrected),Unknown,-39.637,-71.502,3776 m,Chile-Argentina,Stratovolcano,13,352,"3,007","202,987"
Adatarayama,Confirmed Eruption,0590 BCE,3,"Numanotaira, Ad-NT6 tephra",Radiocarbon (corrected),Unknown,37.647,140.281,1728 m,Japan,Stratovolcano(es),428,"3,936","717,078","5,024,654"
Taranaki,Confirmed Eruption,0590 BCE,--,,Tephrochronology,Unknown,-39.3,174.07,2518 m,New Zealand,Stratovolcano,200,230,"77,381","104,499"
Apagado,Confirmed Eruption,0590 BCE,4,Ap1 tephra,Radiocarbon (corrected),Unknown,-41.88,-72.58,1210 m,Chile,Pyroclastic cone,5,44,"4,474","354,002"
Pelee,Confirmed Eruption,0600 BCE,--,,Radiocarbon (uncorrected),Unknown,14.809,-61.165,1394 m,France,Stratovolcano,251,"5,025","382,633","609,576"
Katla,Confirmed Eruption,0600 BCE,--,,Tephrochronology,Unknown,63.633,-19.083,1490 m,Iceland,Subglacial,0,0,473,"11,326"
Taveuni,Confirmed Eruption,0600 BCE,2,,Tephrochronology,Unknown,-16.82,-179.97,1241 m,Fiji,Shield,692,"3,220","19,186","146,131"
Colli Albani,Uncertain Eruption,0600 BCE,--,Ariccia crater, ,[ Unknown ],41.73,12.7,949 m,Italy,Caldera,"897,039","897,039","2,962,194","5,330,273"
Vesuvius,Confirmed Eruption,0600 BCE,3,,Anthropology,Unknown,40.821,14.426,1281 m,Italy,Stratovolcano,"19,162","675,705","3,907,941","6,009,961"
Aogashima,Confirmed Eruption,0600 BCE,4,SE flank (Kintagaura),Radiocarbon (uncorrected),Unknown,32.458,139.759,423 m,Japan,Stratovolcano,232,232,232,"8,559"
Miyakejima,Confirmed Eruption,0600 BCE,3,IZS scoria,Tephrochronology,Unknown,34.094,139.526,775 m,Japan,Stratovolcano,"1,848","3,189","3,474","95,663"
Izu-Oshima,Confirmed Eruption,0600 BCE,3,Tephra layers O9 to O5,Tephrochronology,Unknown,34.724,139.394,746 m,Japan,Stratovolcano,"2,381","8,037","8,375","11,837,468"
Mauna Loa,Confirmed Eruption,0600 BCE,0,NE rift zone,Radiocarbon (uncorrected),Unknown,19.475,-155.608,4170 m,United States,Shield,45,45,"1,906","175,315"
Redoubt,Confirmed Eruption,0600 BCE,--,,Varve Count,Unknown,60.485,-152.742,3108 m,United States,Stratovolcano,0,0,1,"32,410"
Ichinsky,Confirmed Eruption,0600 BCE,--,,Tephrochronology,Unknown,55.678,157.718,3596 m,Russia,Stratovolcano,0,0,34,"2,670"
Rinjani,Confirmed Eruption,0600 BCE,--,,Radiocarbon (uncorrected),Unknown,-8.42,116.47,3726 m,Indonesia,Stratovolcano,"10,289","55,594","1,374,441","3,555,330"
Redoubt,Confirmed Eruption,0610 BCE,--,,Varve Count,Unknown,60.485,-152.742,3108 m,United States,Stratovolcano,0,0,1,"32,410"
Rainier,Confirmed Eruption,0610 BCE,--,Tephra layers SL3 and SL4,Radiocarbon (corrected),Unknown,46.853,-121.76,4392 m,United States,Stratovolcano,0,128,"3,187","2,667,609"
"Tolima, Nevado del",Confirmed Eruption,0610 BCE,3,,Radiocarbon (corrected),Unknown,4.658,-75.33,5215 m,Colombia,Stratovolcano,"1,660","6,563","441,916","4,258,333"
Pelee,Confirmed Eruption,0620 BCE,--,,Radiocarbon (uncorrected),Unknown,14.809,-61.165,1394 m,France,Stratovolcano,251,"5,025","382,633","609,576"
Gran Canaria,Confirmed Eruption,0620 BCE,--,Montaña Negra de Jinámar,Radiocarbon (corrected),Unknown,28,-15.58,1950 m,Spain,Fissure vent(s),"1,101","8,049","697,199","1,119,998"
Iskut-Unuk River Cones,Confirmed Eruption,0620 BCE,--,Iskut River,Radiocarbon (uncorrected),Unknown,56.58,-130.55,1880 m,Canada,Pyroclastic cone(s),0,0,0,663
Redoubt,Confirmed Eruption,0620 BCE,--,,Varve Count,Unknown,60.485,-152.742,3108 m,United States,Stratovolcano,0,0,1,"32,410"
Asosan,Confirmed Eruption,0630 BCE,--,,Radiocarbon (uncorrected),Unknown,32.884,131.104,1592 m,Japan,Caldera,"75,559","75,559","234,591","6,507,519"
Ijen,Confirmed Eruption,0640 BCE,--,Kawah Ijen,Radiocarbon (uncorrected),Unknown,-8.058,114.242,2769 m,Indonesia,Stratovolcano(es),"1,098","5,504","664,199","6,846,855"
Irazu,Confirmed Eruption,0640 BCE,3,,Radiocarbon (corrected),Unknown,9.979,-83.852,3432 m,Costa Rica,Stratovolcano,"1,978","25,442","1,667,528","3,432,860"
Witori,Confirmed Eruption,0640 BCE,--,,Radiocarbon (uncorrected),Unknown,-5.576,150.516,724 m,Papua New Guinea,Caldera,"24,509","24,509","37,824","145,382"
Aira,Confirmed Eruption,0650 BCE,--,Minami-dake,Radiocarbon (uncorrected),Unknown,31.593,130.657,1117 m,Japan,Caldera,"4,918","113,874","905,254","2,610,033"
Ata,Confirmed Eruption,0650 BCE,4,"Kaimon, Tephra set Km-mu",Tephrochronology,Unknown,31.22,130.57,924 m,Japan,Caldera(s),"93,134","93,134","171,590","1,891,380"
Mageik,Confirmed Eruption,0650 BCE,--,East Mageik,Radiocarbon (uncorrected),Unknown,58.195,-155.253,2165 m,United States,Stratovolcano,0,0,0,376
Alney-Chashakondzha,Confirmed Eruption,0650 BCE,3,East flank of Alney (Kireunsky),Radiocarbon (uncorrected),Unknown,56.656,159.647,2570 m,Russia,Stratovolcano,0,0,3,"10,679"
Sheveluch,Confirmed Eruption,0650 BCE,3,,Tephrochronology,Unknown,56.653,161.36,3283 m,Russia,Stratovolcano,0,0,"1,718","11,613"
Rainier,Confirmed Eruption,0650 BCE,--,Tephra layer SL2,Tephrochronology,Unknown,46.853,-121.76,4392 m,United States,Stratovolcano,0,128,"3,187","2,667,609"
Shasta,Confirmed Eruption,0650 BCE,--,,Radiocarbon (uncorrected),Unknown,41.409,-122.193,4317 m,United States,Stratovolcano,0,35,"19,785","265,016"
Colima,Confirmed Eruption,0650 BCE,--,,Radiocarbon (corrected),Unknown,19.514,-103.62,3850 m,Mexico,Stratovolcano(es),76,746,"303,490","1,494,790"
Chokaisan,Confirmed Eruption,0650 BCE,--,Higashi-Chokai,Radiocarbon (uncorrected),Unknown,39.099,140.049,2236 m,Japan,Stratovolcano(es),131,707,"185,681","2,301,576"
Maly Semyachik,Confirmed Eruption,0650 BCE,--,Ceno-Semiachik,Radiocarbon (corrected),Unknown,54.135,159.674,1527 m,Russia,Caldera,98,98,497,"10,182"
Krasheninnikov,Confirmed Eruption,0650 BCE,--,Northern cone and southern cone flank,Radiocarbon (corrected),Unknown,54.596,160.27,1816 m,Russia,Caldera,308,308,814,"4,674"
Machin,Confirmed Eruption,0650 BCE,--,,Radiocarbon (uncorrected),Unknown,4.487,-75.389,2749 m,Colombia,Stratovolcano,"2,150","15,212","570,836","4,165,071"
Katla,Confirmed Eruption,0650 BCE,--,,Tephrochronology,Unknown,63.633,-19.083,1490 m,Iceland,Subglacial,0,0,473,"11,326"
Hekla,Confirmed Eruption,0650 BCE,--,Vatnafjöll (Svalaskardshraun),Tephrochronology,Unknown,63.983,-19.666,1490 m,Iceland,Stratovolcano,0,0,298,"22,845"
Krafla,Confirmed Eruption,0650 BCE,4,"Hverfjall, Jarbadsholar",Tephrochronology,Unknown,65.715,-16.728,800 m,Iceland,Caldera,384,384,"1,258","25,667"
Nemrut Dagi,Confirmed Eruption,0657 BCE,--,,Varve Count,Unknown,38.654,42.229,2948 m,Turkey,Stratovolcano,608,"7,399","230,531","1,618,263"
Alney-Chashakondzha,Confirmed Eruption,0660 BCE,3,E of Chashakondzha (Levaya Belaya),Radiocarbon (uncorrected),Unknown,56.656,159.647,2570 m,Russia,Stratovolcano,0,0,3,"10,679"
Ljosufjoll,Confirmed Eruption,0665 BCE,2,Ytri and Stóri Raudamelskula,Radiocarbon (uncorrected),Unknown,64.9,-22.483,1063 m,Iceland,Fissure vent(s),713,713,"1,511","192,797"
Villarrica,Confirmed Eruption,0670 BCE,4,Pedregoso pyroclastic surge,Radiocarbon (uncorrected),Unknown,-39.42,-71.93,2847 m,Chile,Stratovolcano,477,"1,067","35,118","667,788"
Terceira,Confirmed Eruption,0670 BCE,--,"Guilherme Moniz, Biscoito Rachado deposit",Radiocarbon (uncorrected),Unknown,38.73,-27.32,1023 m,Portugal,Stratovolcano(es),"2,928","12,299","55,425","81,512"
Tenerife,Confirmed Eruption,0670 BCE,--,NW rift zone (Volcán el Ciego),Radiocarbon (corrected),Unknown,28.271,-16.641,3715 m,Spain,Stratovolcano,0,156,"337,660","766,276"
Redoubt,Confirmed Eruption,0670 BCE,--,,Varve Count,Unknown,60.485,-152.742,3108 m,United States,Stratovolcano,0,0,1,"32,410"
Taveuni,Confirmed Eruption,0680 BCE,2,,Tephrochronology,Unknown,-16.82,-179.97,1241 m,Fiji,Shield,692,"3,220","19,186","146,131"
Pululahua,Confirmed Eruption,0690 BCE,5,,Radiocarbon (uncorrected),Unknown,0.038,-78.463,3356 m,Ecuador,Caldera,"534,403","534,403","1,192,411","3,330,856"
Etna,Confirmed Eruption,0695 BCE,--,"South ?, Mt. Mompilieri ?",Historical Observations,Unknown,37.748,14.999,3320 m,Italy,Stratovolcano(es),78,"3,291","1,016,540","3,052,770"
Ischia,Confirmed Eruption,0700 BCE,--,Costa del Lenzuolo,Tephrochronology,Unknown,40.73,13.897,789 m,Italy,Complex,"18,669","20,210","383,661","5,729,354"
Ata,Confirmed Eruption,0700 BCE,2,"Kaimon, Tephra layer Km-nu",Tephrochronology,Unknown,31.22,130.57,924 m,Japan,Caldera(s),"93,134","93,134","171,590","1,891,380"
Merapi,Confirmed Eruption,0700 BCE,--,,Radiocarbon (corrected),Unknown,-7.54,110.446,2910 m,Indonesia,Stratovolcano,"49,205","185,849","4,348,473","24,728,414"
Tolbachik,Confirmed Eruption,0700 BCE,--,SW flank (Buraya),Tephrochronology,Unknown,55.832,160.326,3611 m,Russia,Shield,0,0,225,"10,487"
"Chichon, El",Confirmed Eruption,0700 BCE,--,Tephra unit I,Radiocarbon (corrected),Unknown,17.36,-93.228,1150 m,Mexico,Lava dome(s),"3,759","11,000","143,015","3,570,632"
Mono-Inyo Craters,Confirmed Eruption,0700 BCE,--,Central Mono Craters,Hydration Rind,Unknown,37.804,-119.029,2796 m,United States,Lava dome(s),558,"7,393","9,048","82,160"
Rainier,Confirmed Eruption,0700 BCE,--,Tephra layer SL1,Tephrochronology,Unknown,46.853,-121.76,4392 m,United States,Stratovolcano,0,128,"3,187","2,667,609"
Gorely,Confirmed Eruption,0700 BCE,0,,Tephrochronology,Unknown,52.559,158.03,1799 m,Russia,Caldera,0,0,19,"250,293"
Nasudake,Confirmed Eruption,0700 BCE,3,"Chausu-dake, CH5 tephra",Radiocarbon (corrected),Unknown,37.125,139.963,1915 m,Japan,Stratovolcano(es),639,"5,802","298,717","5,725,203"
Niigata-Yakeyama,Confirmed Eruption,0700 BCE,3,Koyaike Ash; tephra layer KG-d,Radiocarbon (corrected),Unknown,36.921,138.036,2400 m,Japan,Lava dome,73,610,"226,866","3,920,252"
Huambo,Confirmed Eruption,0700 BCE,--,Cerro Keyocc,Radiocarbon (uncorrected),Unknown,-15.78,-72.08,4554 m,Peru,Volcanic field,301,"1,157","7,271","1,028,814"
Deception Island,Confirmed Eruption,0700 BCE,--,Tephra layer AP-10,Radiocarbon (uncorrected),Unknown,-63.001,-60.652,602 m,Antarctica,Caldera,0,0,0,0
Katla,Confirmed Eruption,0700 BCE,--,,Tephrochronology,Unknown,63.633,-19.083,1490 m,Iceland,Subglacial,0,0,473,"11,326"
Hualalai,Confirmed Eruption,0720 BCE,0,North rift zone (700 m ENE of Hainoa),Radiocarbon (uncorrected),Unknown,19.692,-155.87,2523 m,United States,Shield,"35,906","35,906","46,959","166,240"
Pelee,Confirmed Eruption,0730 BCE,--,,Radiocarbon (uncorrected),Unknown,14.809,-61.165,1394 m,France,Stratovolcano,251,"5,025","382,633","609,576"
"Bravo, Cerro",Confirmed Eruption,0730 BCE,4,CB5 tephra,Radiocarbon (uncorrected),Unknown,5.091,-75.293,3985 m,Colombia,Stratovolcano,"1,679","4,916","538,690","3,929,468"
Etna,Uncertain Eruption,0735 BCE,--,, ,[ Unknown ],37.748,14.999,3320 m,Italy,Stratovolcano(es),78,"3,291","1,016,540","3,052,770"
Porak,Uncertain Eruption,0740 BCE,--,, ,[ Unknown ],40.028,45.74,3029 m,Armenia-Azerbaijan,Stratovolcano,194,955,"62,882","1,713,373"
Katla,Confirmed Eruption,0740 BCE,--,,Tephrochronology,Unknown,63.633,-19.083,1490 m,Iceland,Subglacial,0,0,473,"11,326"
Hekla,Confirmed Eruption,0750 BCE,--,"NE flank, Vatnafjöll (Langviuhraun)",Tephrochronology,Unknown,63.983,-19.666,1490 m,Iceland,Stratovolcano,0,0,298,"22,845"
Sete Cidades,Confirmed Eruption,0750 BCE,--,SE flank (Eguas),Radiocarbon (uncorrected),Unknown,37.865,-25.785,842 m,Portugal,Stratovolcano,"3,515","10,365","102,848","127,154"
Deception Island,Confirmed Eruption,0750 BCE,--,Tephra layer AP-11,Radiocarbon (uncorrected),Unknown,-63.001,-60.652,602 m,Antarctica,Caldera,0,0,0,0
Soufriere St. Vincent,Confirmed Eruption,0750 BCE,--,,Radiocarbon (uncorrected),Unknown,13.33,-61.18,1220 m,Saint Vincent and the Grenadines,Stratovolcano,"1,491","15,327","103,882","291,476"
Kazbek,Confirmed Eruption,0750 BCE,--,,Tephrochronology,Unknown,42.7,44.5,5050 m,Georgia,Stratovolcano,0,9,"7,693","1,749,897"
San Martin,Confirmed Eruption,0750 BCE,--,,Radiocarbon (uncorrected),Unknown,18.57,-95.2,1650 m,Mexico,Shield,280,"3,581","259,640","1,645,811"
Edziza,Confirmed Eruption,0750 BCE,--,,Tephrochronology,Unknown,57.72,-130.63,2786 m,Canada,Stratovolcano,0,0,0,898
Tolbachik,Confirmed Eruption,0750 BCE,--,"SW flank (Tsepochka, Malishi)",Tephrochronology,Unknown,55.832,160.326,3611 m,Russia,Shield,0,0,225,"10,487"
Myokosan,Confirmed Eruption,0750 BCE,--,,Tephrochronology,Unknown,36.891,138.114,2454 m,Japan,Stratovolcano,"1,563","11,033","561,142","4,118,863"
Izu-Tobu,Confirmed Eruption,0750 BCE,3,"Iwano-yama, Iyuzan, and other vents",Tephrochronology,Unknown,34.9,139.098,1406 m,Japan,Pyroclastic cone(s),"5,886","61,727","447,660","17,928,355"
Towada,Confirmed Eruption,0750 BCE,4,"Nakanoumi, To-B tephra",Radiocarbon (corrected),Unknown,40.51,140.88,1011 m,Japan,Caldera,"12,366","12,366","103,631","2,237,010"
Kozushima,Confirmed Eruption,0750 BCE,--,"N tip of island (Anano-yama, Hanatabe)",Hydration Rind,Unknown,34.219,139.153,572 m,Japan,Lava dome(s),"2,406","2,406","5,716","442,731"
Poas,Confirmed Eruption,0760 BCE,--,North flank (Bosque Alegre),Radiocarbon (corrected),Unknown,10.2,-84.233,2697 m,Costa Rica,Stratovolcano,"1,947","11,107","950,796","3,411,023"
Concepcion,Confirmed Eruption,0770 BCE,4,"East flank (Las Pilas, Sintiope)",Radiocarbon (uncorrected),Unknown,11.538,-85.622,1700 m,Nicaragua,Stratovolcano,"14,072","28,900","92,378","2,266,903"
Redoubt,Confirmed Eruption,0770 BCE,--,,Varve Count,Unknown,60.485,-152.742,3108 m,United States,Stratovolcano,0,0,1,"32,410"
Porak,Confirmed Eruption,0778 BCE,--,SW flank,Anthropology,Unknown,40.028,45.74,3029 m,Armenia-Azerbaijan,Stratovolcano,194,955,"62,882","1,713,373"
Sheveluch,Confirmed Eruption,0780 BCE,4,Tephra layer SH5,Radiocarbon (corrected),Unknown,56.653,161.36,3283 m,Russia,Stratovolcano,0,0,"1,718","11,613"
"Orizaba, Pico de",Confirmed Eruption,0780 BCE,3,,Radiocarbon (uncorrected),Unknown,19.03,-97.27,5564 m,Mexico,Stratovolcano,413,"4,469","759,747","5,962,920"
Fujisan,Confirmed Eruption,0780 BCE,--,Tephra layer SPY4,Radiocarbon (corrected),Unknown,35.361,138.728,3776 m,Japan,Stratovolcano,570,"1,759","906,969","25,022,187"
Katla,Confirmed Eruption,0780 BCE,--,,Tephrochronology,Unknown,63.633,-19.083,1490 m,Iceland,Subglacial,0,0,473,"11,326"
Nemrut Dagi,Confirmed Eruption,0787 BCE,--,,Varve Count,Unknown,38.654,42.229,2948 m,Turkey,Stratovolcano,608,"7,399","230,531","1,618,263"
Redoubt,Confirmed Eruption,0790 BCE,--,,Varve Count,Unknown,60.485,-152.742,3108 m,United States,Stratovolcano,0,0,1,"32,410"
"Hudson, Cerro",Confirmed Eruption,0790 BCE,--,Tephra layer HW6,Radiocarbon (corrected),Unknown,-45.9,-72.97,1905 m,Chile,Stratovolcano,0,12,28,"81,642"
"Burney, Monte",Confirmed Eruption,0800 BCE,--,,Tephrochronology,Unknown,-52.33,-73.4,1758 m,Chile,Stratovolcano,0,0,0,"3,309"
Momotombo,Confirmed Eruption,0800 BCE,4,,Radiocarbon (uncorrected),Unknown,12.423,-86.539,1270 m,Nicaragua,Stratovolcano,100,"1,851","98,583","3,569,021"
Deception Island,Confirmed Eruption,0800 BCE,--,Tephra layer AP-12,Radiocarbon (uncorrected),Unknown,-63.001,-60.652,602 m,Antarctica,Caldera,0,0,0,0
Martin,Confirmed Eruption,0800 BCE,--,,Radiocarbon (uncorrected),Unknown,58.172,-155.361,1863 m,United States,Stratovolcano,0,0,0,914
Yantarni,Confirmed Eruption,0800 BCE,5,,Tephrochronology,Unknown,57.019,-157.185,1345 m,United States,Stratovolcano,0,0,0,190
Terpuk,Confirmed Eruption,0800 BCE,--,,Radiocarbon (uncorrected),Unknown,57.2,159.83,765 m,Russia,Shield,0,2,33,"4,551"
Tolbachik,Confirmed Eruption,0800 BCE,--,"SW flank (Serga, Starichky)",Tephrochronology,Unknown,55.832,160.326,3611 m,Russia,Shield,0,0,225,"10,487"
St. Helens,Confirmed Eruption,0800 BCE,--,,Radiocarbon (corrected),Unknown,46.2,-122.18,2549 m,United States,Stratovolcano,78,427,"2,221","2,173,101"
Three Sisters,Confirmed Eruption,0800 BCE,2,North of North Sister (Yapoah Cone),Tephrochronology,Unknown,44.133,-121.767,3159 m,United States,Complex,0,0,"5,672","279,885"
Belknap,Confirmed Eruption,0800 BCE,2,South Belknap and Twin Craters,Radiocarbon (corrected),Unknown,44.285,-121.841,2095 m,United States,Shield(s),0,0,"6,518","362,091"
Kilauea,Confirmed Eruption,0800 BCE,0,,Radiocarbon (corrected),Unknown,19.421,-155.287,1222 m,United States,Shield,"3,122","3,122","8,495","169,550"
Naruko,Confirmed Eruption,0800 BCE,--,,Radiocarbon (corrected),Unknown,38.729,140.734,470 m,Japan,Caldera,"54,771","54,771","210,262","4,417,058"
Zavaritsky,Confirmed Eruption,0800 BCE,2,14 km WNW of Zavaritsky,Tephrochronology,Unknown,53.905,158.385,1567 m,Russia,Pyroclastic cone(s),0,0,37,"223,868"
Akan,Confirmed Eruption,0800 BCE,--,Me-Akan (Ponmachineshiri),Radiocarbon (uncorrected),Unknown,43.384,144.013,1499 m,Japan,Caldera,"2,062","2,062","9,756","929,538"
Oshima-Oshima,Confirmed Eruption,0800 BCE,--,Nishi-yama,Radiocarbon (uncorrected),Unknown,41.51,139.367,732 m,Japan,Stratovolcano,6,6,6,"88,023"
Taupo,Confirmed Eruption,0800 BCE,2,"Ouaha Hills, Unit W",Tephrochronology,Unknown,-38.82,176,760 m,New Zealand,Caldera,"21,456","21,456","26,674","161,966"
Soufriere Guadeloupe,Confirmed Eruption,0820 BCE,3,Morne Amic ?,Radiocarbon (corrected),Unknown,16.044,-61.664,1467 m,France,Stratovolcano,"8,839","71,345","256,899","482,449"
Melimoyu,Confirmed Eruption,0820 BCE,--,MEL1 tephra,Radiocarbon (uncorrected),Unknown,-44.08,-72.88,2400 m,Chile,Stratovolcano,0,6,211,"12,944"
Arenal,Confirmed Eruption,0830 BCE,0,A4 lava flows,Tephrochronology,Unknown,10.463,-84.703,1670 m,Costa Rica,Stratovolcano,"3,429","15,643","96,512","3,027,485"
Turrialba,Confirmed Eruption,0830 BCE,--,,Radiocarbon (corrected),Unknown,10.025,-83.767,3340 m,Costa Rica,Stratovolcano,"1,891","6,867","672,428","3,390,544"
Tengger Caldera,Confirmed Eruption,0830 BCE,4,Sandsea caldera,Radiocarbon (uncorrected),Unknown,-7.942,112.95,2329 m,Indonesia,Stratovolcano(es),"27,826","69,451","1,420,878","22,628,278"
St. Helens,Confirmed Eruption,0830 BCE,--,,Radiocarbon (uncorrected),Unknown,46.2,-122.18,2549 m,United States,Stratovolcano,78,427,"2,221","2,173,101"
Redoubt,Confirmed Eruption,0830 BCE,--,,Varve Count,Unknown,60.485,-152.742,3108 m,United States,Stratovolcano,0,0,1,"32,410"
Glacier Peak,Confirmed Eruption,0850 BCE,--,,Radiocarbon (uncorrected),Unknown,48.112,-121.113,3213 m,United States,Stratovolcano,0,0,23,"1,340,896"
Shasta,Confirmed Eruption,0850 BCE,--,,Radiocarbon (uncorrected),Unknown,41.409,-122.193,4317 m,United States,Stratovolcano,0,35,"19,785","265,016"
Ioto,Confirmed Eruption,0850 BCE,--,Motoyama,Radiocarbon (corrected),Unknown,24.751,141.289,169 m,Japan,Caldera,"1,179","1,179","1,189","1,370"
Zavaritsky,Confirmed Eruption,0850 BCE,4,Mt. Peschanaya and adjacent cones,Radiocarbon (uncorrected),Unknown,53.905,158.385,1567 m,Russia,Pyroclastic cone(s),0,0,37,"223,868"
Karymsky,Confirmed Eruption,0850 BCE,3,Tephra layer SC,Radiocarbon (corrected),Unknown,54.049,159.443,1513 m,Russia,Stratovolcano,0,0,291,"10,848"
Krasheninnikov,Confirmed Eruption,0850 BCE,--,Northern cone and southern cone flank,Radiocarbon (corrected),Unknown,54.596,160.27,1816 m,Russia,Caldera,308,308,814,"4,674"
Maly Semyachik,Confirmed Eruption,0850 BCE,--,Ceno-Semiachik,Radiocarbon (corrected),Unknown,54.135,159.674,1527 m,Russia,Caldera,98,98,497,"10,182"
Yakedake,Confirmed Eruption,0850 BCE,--,Ykd-Tl1 tephra,Tephrochronology,Unknown,36.227,137.587,2455 m,Japan,Stratovolcano(es),995,"2,995","156,542","4,595,286"
Santa Isabel,Confirmed Eruption,0850 BCE,--,,Radiocarbon (corrected),Unknown,4.818,-75.365,4944 m,Colombia,Shield,"4,793","12,226","302,952","4,137,147"
"Ruiz, Nevado del",Confirmed Eruption,0850 BCE,4,"Arenas Crater, R8 tephra",Tephrochronology,Unknown,4.892,-75.324,5279 m,Colombia,Stratovolcano,"3,849","20,146","507,608","4,252,435"
Katla,Confirmed Eruption,0850 BCE,4,Tephra layer UN,Radiocarbon (corrected),Unknown,63.633,-19.083,1490 m,Iceland,Subglacial,0,0,473,"11,326"
Hekla,Confirmed Eruption,0850 BCE,--,"NE flank (Raudkembingahraun), Vatnafjöll",Tephrochronology,Unknown,63.983,-19.666,1490 m,Iceland,Stratovolcano,0,0,298,"22,845"
Picos Fissural Volcanic System,Confirmed Eruption,0850 BCE,--,North-central part (Aflitos),Radiocarbon (uncorrected),Unknown,37.78,-25.67,350 m,Portugal,Pyroclastic cone(s),"115,732","115,732","123,990","139,730"
Katla,Confirmed Eruption,0860 BCE,--,,Tephrochronology,Unknown,63.633,-19.083,1490 m,Iceland,Subglacial,0,0,473,"11,326"
Redoubt,Confirmed Eruption,0870 BCE,--,,Varve Count,Unknown,60.485,-152.742,3108 m,United States,Stratovolcano,0,0,1,"32,410"
Karkar,Confirmed Eruption,0870 BCE,--,,Radiocarbon (uncorrected),Unknown,-4.649,145.964,1839 m,Papua New Guinea,Stratovolcano,5,"4,159","20,127","189,841"
Vesuvius,Confirmed Eruption,0880 BCE,4,AP3 tephra,Radiocarbon (corrected),Unknown,40.821,14.426,1281 m,Italy,Stratovolcano,"19,162","675,705","3,907,941","6,009,961"
Pelee,Confirmed Eruption,0890 BCE,--,Tephra layer NAB1,Radiocarbon (corrected),Unknown,14.809,-61.165,1394 m,France,Stratovolcano,251,"5,025","382,633","609,576"
Theistareykir,Confirmed Eruption,0900 BCE,0,Storihver (Theistareykjahraun),Tephrochronology,Unknown,65.883,-16.967,563 m,Iceland,Shield,0,36,"3,711","25,779"
Kuchinoshima,Confirmed Eruption,0900 BCE,--,,Radiocarbon (uncorrected),Unknown,29.968,129.926,628 m,Japan,Stratovolcano(es),93,101,291,"11,002"
Sheveluch,Confirmed Eruption,0900 BCE,3,,Tephrochronology,Unknown,56.653,161.36,3283 m,Russia,Stratovolcano,0,0,"1,718","11,613"
Midagahara,Confirmed Eruption,0900 BCE,--,Jigoku-dani,Tephrochronology,Unknown,36.571,137.59,2621 m,Japan,Stratovolcano,401,521,"143,935","4,455,560"
Izu-Oshima,Confirmed Eruption,0900 BCE,2,"SE flank, Tephra layer O10",Radiocarbon (corrected),Unknown,34.724,139.394,746 m,Japan,Stratovolcano,"2,381","8,037","8,375","11,837,468"
Katla,Confirmed Eruption,0920 BCE,--,,Tephrochronology,Unknown,63.633,-19.083,1490 m,Iceland,Subglacial,0,0,473,"11,326"
Gran Canaria,Confirmed Eruption,0920 BCE,--,Jabalobos,Radiocarbon (corrected),Unknown,28,-15.58,1950 m,Spain,Fissure vent(s),"1,101","8,049","697,199","1,119,998"
Sollipulli,Confirmed Eruption,0920 BCE,5,SW caldera rim (Alpehué crater),Radiocarbon (uncorrected),Unknown,-38.97,-71.52,2282 m,Chile,Caldera,"2,971","2,971","8,904","510,741"
Azufral,Confirmed Eruption,0930 BCE,4,,Radiocarbon (uncorrected),Unknown,1.08,-77.68,4070 m,Colombia,Stratovolcano,"4,334","40,657","387,292","1,817,609"
Fujisan,Confirmed Eruption,0930 BCE,5,"Upper SE flank, Tephra layer Zu",Radiocarbon (uncorrected),Unknown,35.361,138.728,3776 m,Japan,Stratovolcano,570,"1,759","906,969","25,022,187"
Khodutka,Confirmed Eruption,0930 BCE,5,"WNW flank (Khodutkinsky maar), KHD tephra",Radiocarbon (corrected),Unknown,52.062,157.711,2039 m,Russia,Stratovolcano(es),0,0,187,"3,525"
Ischia,Confirmed Eruption,0930 BCE,--,"SE of Selva del Napolitano, CaT tephra",Radiocarbon (corrected),Unknown,40.73,13.897,789 m,Italy,Complex,"18,669","20,210","383,661","5,729,354"
Andahua-Orcopampa,Confirmed Eruption,0940 BCE,--,Cerro Maurus I,Radiocarbon (uncorrected),Unknown,-15.42,-72.33,4713 m,Peru,Pyroclastic cone(s),"10,317","10,317","16,541","171,897"
Terceira,Confirmed Eruption,0940 BCE,--,Santa Barbara NW flank (Lagoinha dome),Radiocarbon (uncorrected),Unknown,38.73,-27.32,1023 m,Portugal,Stratovolcano(es),"2,928","12,299","55,425","81,512"
Flores,Confirmed Eruption,0950 BCE,--,Caldeira Comprida,Radiocarbon (uncorrected),Unknown,39.462,-31.216,914 m,Portugal,Stratovolcano(es),"1,054","4,560","5,825","5,865"
Hierro,Confirmed Eruption,0950 BCE,--,East flank (Soliman),Radiocarbon (uncorrected),Unknown,27.73,-18.03,1500 m,Spain,Shield,"20,321","20,321","20,321","43,696"
"Azul, Cerro",Confirmed Eruption,0950 BCE,0,,Surface Exposure,Unknown,-0.92,-91.408,1640 m,Ecuador,Shield,220,220,314,"1,936"
"Watt, Morne",Confirmed Eruption,0950 BCE,--,NE of Watt Mtn (Valley of Desolation),Radiocarbon (uncorrected),Unknown,15.307,-61.305,1224 m,Dominica,Stratovolcano(es),"1,818","35,821","63,178","545,352"
Cuicocha,Confirmed Eruption,0950 BCE,--,,Radiocarbon (uncorrected),Unknown,0.308,-78.364,3246 m,Ecuador,Caldera,"178,815","178,815","364,146","3,193,683"
Vulcano,Confirmed Eruption,0950 BCE,0,Fossa,Uranium-series,Unknown,38.404,14.962,500 m,Italy,Stratovolcano(es),"2,259","23,059","86,766","2,093,800"
Akademia Nauk,Confirmed Eruption,0950 BCE,--,"North of Karymsky Lake, Tephra layer SC",Radiocarbon (corrected),Unknown,53.98,159.45,1180 m,Russia,Stratovolcano(es),3,3,615,"12,484"
Miyakejima,Confirmed Eruption,0950 BCE,4,"Hatchodaira caldera, S flank (Furumio maar)",Tephrochronology,Unknown,34.094,139.526,775 m,Japan,Stratovolcano,"1,848","3,189","3,474","95,663"
Azumayama,Confirmed Eruption,0950 BCE,--,"Issaikyo, Az-JP4 tephra",Radiocarbon (corrected),Unknown,37.735,140.244,1949 m,Japan,Stratovolcano(es),128,907,"548,195","4,877,648"
Sheveluch,Confirmed Eruption,0950 BCE,5,,Radiocarbon (corrected),Unknown,56.653,161.36,3283 m,Russia,Stratovolcano,0,0,"1,718","11,613"
Mauna Loa,Confirmed Eruption,0950 BCE,0,Mokuaweoweo,Radiocarbon (uncorrected),Unknown,19.475,-155.608,4170 m,United States,Shield,45,45,"1,906","175,315"
Sand Mountain Field,Confirmed Eruption,0950 BCE,4,,Magnetism,Unknown,44.38,-121.93,1664 m,United States,Pyroclastic cone(s),89,89,"1,574","519,291"
Tecuamburro,Confirmed Eruption,0960 BCE,--,NW flank (Ixpaco Crater),Radiocarbon (uncorrected),Unknown,14.156,-90.407,1845 m,Guatemala,Stratovolcano,"1,939","29,560","313,834","6,874,746"
Antillanca Volcanic Complex,Confirmed Eruption,0960 BCE,5,,Radiocarbon (corrected),Unknown,-40.783,-72.15,1979 m,Chile,Stratovolcano(es),87,521,"5,986","530,586"
Soufriere Guadeloupe,Confirmed Eruption,0980 BCE,--,,Radiocarbon (corrected),Unknown,16.044,-61.664,1467 m,France,Stratovolcano,"8,839","71,345","256,899","482,449"
Puyehue-Cordon Caulle,Confirmed Eruption,0990 BCE,--,,Tephrochronology,Unknown,-40.59,-72.117,2236 m,Chile,Stratovolcano,129,783,"7,163","515,357"
Katla,Confirmed Eruption,0990 BCE,--,,Tephrochronology,Unknown,63.633,-19.083,1490 m,Iceland,Subglacial,0,0,473,"11,326"
Kujusan,Confirmed Eruption,0990 BCE,4,"Komekubo crater, Tephra layer KA",Radiocarbon (corrected),Unknown,33.086,131.249,1791 m,Japan,Stratovolcano(es),"1,667","11,771","181,541","7,815,706"
Krasheninnikov,Confirmed Eruption,1000 BCE,3,Northern cone,Radiocarbon (corrected),Unknown,54.596,160.27,1816 m,Russia,Caldera,308,308,814,"4,674"
Medicine Lake,Confirmed Eruption,1000 BCE,--,"SE flank, Burnt Lava flow",Radiocarbon (corrected),Unknown,41.611,-121.554,2412 m,United States,Shield,0,0,254,"120,685"
Changbaishan,Uncertain Eruption,1000 BCE,--,, ,[ Unknown ],41.98,128.08,2744 m,China-North Korea,Stratovolcano,268,"1,833","29,476","1,660,355"
Snaefellsjokull,Confirmed Eruption,1000 BCE,2,NW flank (Raudhólar),Radiocarbon (uncorrected),Unknown,64.8,-23.783,1446 m,Iceland,Stratovolcano,9,129,"2,264","11,820"
Tungurahua,Confirmed Eruption,1010 BCE,5,,Radiocarbon (uncorrected),Unknown,-1.467,-78.442,5023 m,Ecuador,Stratovolcano,476,"20,990","183,640","1,571,744"
Gran Canaria,Confirmed Eruption,1010 BCE,--,Pinos de Gáldar,Radiocarbon (corrected),Unknown,28,-15.58,1950 m,Spain,Fissure vent(s),"1,101","8,049","697,199","1,119,998"
Sheveluch,Confirmed Eruption,1010 BCE,3,,Tephrochronology,Unknown,56.653,161.36,3283 m,Russia,Stratovolcano,0,0,"1,718","11,613"
St. Helens,Confirmed Eruption,1010 BCE,--,,Radiocarbon (corrected),Unknown,46.2,-122.18,2549 m,United States,Stratovolcano,78,427,"2,221","2,173,101"
Kizimen,Confirmed Eruption,1010 BCE,--,,Tephrochronology,Unknown,55.131,160.32,2334 m,Russia,Stratovolcano,0,26,197,"5,564"
Fujisan,Confirmed Eruption,1010 BCE,--,Tephra unit SYP3,Radiocarbon (corrected),Unknown,35.361,138.728,3776 m,Japan,Stratovolcano,570,"1,759","906,969","25,022,187"
Taupo,Confirmed Eruption,1010 BCE,4,"4 km NW of Te Kohaiakahu Point, Unit V",Radiocarbon (corrected),Unknown,-38.82,176,760 m,New Zealand,Caldera,"21,456","21,456","26,674","161,966"
Merapi,Confirmed Eruption,1010 BCE,--,,Radiocarbon (corrected),Unknown,-7.54,110.446,2910 m,Indonesia,Stratovolcano,"49,205","185,849","4,348,473","24,728,414"
Taveuni,Confirmed Eruption,1020 BCE,2,,Tephrochronology,Unknown,-16.82,-179.97,1241 m,Fiji,Shield,692,"3,220","19,186","146,131"
Atitlan,Confirmed Eruption,1020 BCE,--,,Radiocarbon (uncorrected),Unknown,14.583,-91.186,3535 m,Guatemala,Stratovolcano(es),"2,303","70,431","664,649","8,029,695"
Belknap,Confirmed Eruption,1030 BCE,0,Little Belknap,Radiocarbon (corrected),Unknown,44.285,-121.841,2095 m,United States,Shield(s),0,0,"6,518","362,091"
Fujisan,Confirmed Eruption,1030 BCE,4,NW flank (Omuro-yama),Tephrochronology,Unknown,35.361,138.728,3776 m,Japan,Stratovolcano,570,"1,759","906,969","25,022,187"
Redoubt,Confirmed Eruption,1040 BCE,--,,Varve Count,Unknown,60.485,-152.742,3108 m,United States,Stratovolcano,0,0,1,"32,410"
San Salvador,Discredited Eruption,1040 BCE,--,, ,[ Unknown ],13.734,-89.294,1893 m,El Salvador,Stratovolcano,"29,514","800,780","2,857,563","6,366,833"
Brennisteinsfjoll,Confirmed Eruption,1040 BCE,2,Eldborg at Brennisteinsfjöllum,Radiocarbon (uncorrected),Unknown,63.933,-21.783,610 m,Iceland,Crater rows,"33,526","33,526","163,469","203,012"
Apoyeque,Confirmed Eruption,1050 BCE,4,Los Cedros Tephra,Tephrochronology,Unknown,12.242,-86.342,518 m,Nicaragua,Pyroclastic shield,"2,369","116,718","1,342,581","3,445,854"
Cotopaxi,Confirmed Eruption,1050 BCE,4,Tephra layer I2,Tephrochronology,Unknown,-0.677,-78.436,5911 m,Ecuador,Stratovolcano,251,"7,299","152,139","3,631,492"
"Bravo, Cerro",Confirmed Eruption,1050 BCE,4,CB6 tephra,Tephrochronology,Unknown,5.091,-75.293,3985 m,Colombia,Stratovolcano,"1,679","4,916","538,690","3,929,468"
Tenerife,Confirmed Eruption,1050 BCE,--,NW rift zone (Montaña de Cascajo),Tephrochronology,Unknown,28.271,-16.641,3715 m,Spain,Stratovolcano,0,156,"337,660","766,276"
"Pleiades, The",Confirmed Eruption,1050 BCE,--,NE of Mount Pleiones (Taygete Cone),Potassium-Argon,Unknown,-72.67,165.5,3040 m,Antarctica,Stratovolcano,0,0,0,0
Redoubt,Confirmed Eruption,1050 BCE,--,,Varve Count,Unknown,60.485,-152.742,3108 m,United States,Stratovolcano,0,0,1,"32,410"
Tanaga,Confirmed Eruption,1050 BCE,0,Sajaka One,Ar/Ar,Unknown,51.885,-178.146,1806 m,United States,Stratovolcano(es),0,0,0,0
Klyuchevskoy,Confirmed Eruption,1050 BCE,--,,Tephrochronology,Unknown,56.056,160.642,4754 m,Russia,Stratovolcano,0,0,292,"12,406"
Buzzard Creek,Confirmed Eruption,1050 BCE,2,,Radiocarbon (uncorrected),Unknown,64.062,-148.433,830 m,United States,Tuff ring(s),0,0,12,"79,489"
Adams Seamount,Confirmed Eruption,1050 BCE,0,,Potassium-Argon,Unknown,-25.37,-129.27,-39 m,Undersea Features,Submarine,0,0,0,44
Northern EPR at 9.8°N,Confirmed Eruption,1050 BCE,0,East Pacific Rise (9.5 deg N),Uranium-series,Unknown,9.83,-104.3,-2500 m,Undersea Features,Submarine,0,0,0,0
Hakoneyama,Confirmed Eruption,1050 BCE,--,"NE of Kamiyama, Hk-Ow1 tephra",Tephrochronology,Unknown,35.233,139.021,1438 m,Japan,Complex,"14,140","53,755","1,543,563","30,282,197"
Chokaisan,Confirmed Eruption,1050 BCE,0,West flank (Saruana crater),Tephrochronology,Unknown,39.099,140.049,2236 m,Japan,Stratovolcano(es),131,707,"185,681","2,301,576"
Iwakisan,Confirmed Eruption,1050 BCE,--,Summit and central lava dome,Tephrochronology,Unknown,40.656,140.303,1625 m,Japan,Stratovolcano,918,"13,229","465,065","1,617,801"
Izu-Oshima,Confirmed Eruption,1050 BCE,--,Tephra layers O13 to O11,Tephrochronology,Unknown,34.724,139.394,746 m,Japan,Stratovolcano,"2,381","8,037","8,375","11,837,468"
Krasheninnikov,Confirmed Eruption,1050 BCE,--,Northern cone,Radiocarbon (corrected),Unknown,54.596,160.27,1816 m,Russia,Caldera,308,308,814,"4,674"
Khodutka,Confirmed Eruption,1050 BCE,4,NW flank of Priemysh volcano,Tephrochronology,Unknown,52.062,157.711,2039 m,Russia,Stratovolcano(es),0,0,187,"3,525"
Esan,Confirmed Eruption,1050 BCE,--,"NW E-san, Es-2 tephra",Tephrochronology,Unknown,41.805,141.166,618 m,Japan,Lava dome(s),"1,734","5,831","33,197","916,560"
Yoteizan,Confirmed Eruption,1050 BCE,--,NW flank (Hangetsu-ko),Tephrochronology,Unknown,42.827,140.812,1888 m,Japan,Stratovolcano,205,"19,419","80,006","2,988,960"
Taupo,Confirmed Eruption,1050 BCE,4,"5 km NE of Motutaiko Island, Unit U",Radiocarbon (corrected),Unknown,-38.82,176,760 m,New Zealand,Caldera,"21,456","21,456","26,674","161,966"
Loloru,Confirmed Eruption,1050 BCE,--,,Radiocarbon (uncorrected),Unknown,-6.52,155.62,1887 m,Papua New Guinea,Pyroclastic shield,1,173,"26,075","97,088"
Tinakula,Confirmed Eruption,1050 BCE,--,,Radiocarbon (uncorrected),Unknown,-10.386,165.804,796 m,Solomon Islands,Stratovolcano,0,19,19,"20,155"
Etna,Confirmed Eruption,1050 BCE,--,South flank (Monte Salto del Cane),Radiocarbon (uncorrected),Unknown,37.748,14.999,3320 m,Italy,Stratovolcano(es),78,"3,291","1,016,540","3,052,770"
Pinatubo,Confirmed Eruption,1050 BCE,6,,Radiocarbon (corrected),Unknown,15.13,120.35,1486 m,Philippines,Stratovolcano,725,"3,808","1,148,684","21,875,048"
Aira,Confirmed Eruption,1050 BCE,--,Kannonzaki lava,Magnetism,Unknown,31.593,130.657,1117 m,Japan,Caldera,"4,918","113,874","905,254","2,610,033"
Marsili,Confirmed Eruption,1050 BCE,--,TEPH01,Radiocarbon (corrected),Unknown,39.284,14.399,-779 m,Italy,Submarine,,,,
Krysuvik-Trolladyngja,Confirmed Eruption,1060 BCE,0,Sandfellskofagigir,Radiocarbon (uncorrected),Unknown,63.917,-22.067,360 m,Iceland,Crater rows,"29,070","29,070","164,484","195,915"
Bliznetsy,Confirmed Eruption,1060 BCE,1,,Radiocarbon (uncorrected),Unknown,57.35,161.37,265 m,Russia,Lava cone,0,4,155,"3,822"
Redoubt,Confirmed Eruption,1080 BCE,--,,Tephrochronology,Unknown,60.485,-152.742,3108 m,United States,Stratovolcano,0,0,1,"32,410"
Hualalai,Confirmed Eruption,1080 BCE,0,,Radiocarbon (uncorrected),Unknown,19.692,-155.87,2523 m,United States,Shield,"35,906","35,906","46,959","166,240"
Tacana,Confirmed Eruption,1080 BCE,--,,Radiocarbon (corrected),Unknown,15.132,-92.109,4064 m,Mexico-Guatemala,Stratovolcano,"3,032","20,932","598,594","4,523,701"
Pantelleria,Confirmed Eruption,1080 BCE,--,Hingeline vent system,Radiocarbon (uncorrected),Unknown,36.77,12.02,836 m,Italy,Shield,"6,561","10,985","12,403","142,817"
Villarrica,Confirmed Eruption,1080 BCE,--,FP-B unit,Radiocarbon (uncorrected),Unknown,-39.42,-71.93,2847 m,Chile,Stratovolcano,477,"1,067","35,118","667,788"
Unknown Source,Confirmed Eruption,1084 BCE,--,,,,,,,,,,,,
Kikai,Confirmed Eruption,1090 BCE,2,Inamura-dake,Radiocarbon (uncorrected),Unknown,30.793,130.305,704 m,Japan,Caldera,152,152,152,"1,002,905"
Taveuni,Confirmed Eruption,1100 BCE,2,,Tephrochronology,Unknown,-16.82,-179.97,1241 m,Fiji,Shield,692,"3,220","19,186","146,131"
St. Helens,Confirmed Eruption,1100 BCE,--,,Radiocarbon (corrected),Unknown,46.2,-122.18,2549 m,United States,Stratovolcano,78,427,"2,221","2,173,101"
Redoubt,Confirmed Eruption,1100 BCE,--,,Varve Count,Unknown,60.485,-152.742,3108 m,United States,Stratovolcano,0,0,1,"32,410"
Karymsky,Confirmed Eruption,1100 BCE,--,,Radiocarbon (corrected),Unknown,54.049,159.443,1513 m,Russia,Stratovolcano,0,0,291,"10,848"
Aogashima,Confirmed Eruption,1100 BCE,--,NNW flank,Tephrochronology,Unknown,32.458,139.759,423 m,Japan,Stratovolcano,232,232,232,"8,559"
Hekla,Confirmed Eruption,1100 BCE,5,H3 tephra,Radiocarbon (corrected),Unknown,63.983,-19.666,1490 m,Iceland,Stratovolcano,0,0,298,"22,845"
Parinacota,Confirmed Eruption,1100 BCE,--,South flank (lower Volcanes de Ajata),Surface Exposure,Unknown,-18.166,-69.142,6336 m,Chile-Bolivia,Stratovolcano,18,123,"3,442","63,717"
Turrialba,Confirmed Eruption,1120 BCE,--,,Tephrochronology,Unknown,10.025,-83.767,3340 m,Costa Rica,Stratovolcano,"1,891","6,867","672,428","3,390,544"
Kusatsu-Shiranesan,Confirmed Eruption,1120 BCE,4,Moto-Shirane,Radiocarbon (uncorrected),Unknown,36.618,138.528,2165 m,Japan,Stratovolcano(es),"4,485","14,296","434,049","5,947,593"
Asamayama,Confirmed Eruption,1130 BCE,--,,Tephrochronology,Unknown,36.406,138.523,2568 m,Japan,Complex,583,"22,371","457,576","7,629,353"
Medicine Lake,Confirmed Eruption,1130 BCE,0,Lower north flank (Black Crater),Radiocarbon (corrected),Unknown,41.611,-121.554,2412 m,United States,Shield,0,0,254,"120,685"
Taranaki,Confirmed Eruption,1130 BCE,--,"Fanthams Peak, Manganui Tephra",Tephrochronology,Unknown,-39.3,174.07,2518 m,New Zealand,Stratovolcano,200,230,"77,381","104,499"
Kuchinoerabujima,Confirmed Eruption,1140 BCE,--,Furudake,Radiocarbon (corrected),Unknown,30.443,130.217,657 m,Japan,Stratovolcano(es),"1,544","1,698","5,348","149,518"
Haleakala,Confirmed Eruption,1140 BCE,--,"SW rift zone, Auwahi flow",Radiocarbon (uncorrected),Unknown,20.708,-156.25,3055 m,United States,Shield,"26,074","26,074","65,398","157,582"
Colima,Confirmed Eruption,1140 BCE,--,,Radiocarbon (uncorrected),Unknown,19.514,-103.62,3850 m,Mexico,Stratovolcano(es),76,746,"303,490","1,494,790"
Michoacan-Guanajuato,Confirmed Eruption,1140 BCE,--,Cerro el Zoyate,Radiocarbon (corrected),Unknown,19.85,-101.75,3860 m,Mexico,Pyroclastic cone(s),"5,783,287","5,783,287","5,783,287","5,783,287"
Hualalai,Confirmed Eruption,1150 BCE,0,NW rift zone (0.7 km NW of Luamakami),Radiocarbon (uncorrected),Unknown,19.692,-155.87,2523 m,United States,Shield,"35,906","35,906","46,959","166,240"
Shasta,Confirmed Eruption,1150 BCE,--,,Radiocarbon (uncorrected),Unknown,41.409,-122.193,4317 m,United States,Stratovolcano,0,35,"19,785","265,016"
Redoubt,Confirmed Eruption,1150 BCE,--,,Varve Count,Unknown,60.485,-152.742,3108 m,United States,Stratovolcano,0,0,1,"32,410"
Koniuji,Confirmed Eruption,1150 BCE,--,,Ar/Ar,Unknown,52.22,-175.13,273 m,United States,Stratovolcano,0,0,0,173
Izu-Tobu,Confirmed Eruption,1150 BCE,4,Kawagodaira,Radiocarbon (corrected),Unknown,34.9,139.098,1406 m,Japan,Pyroclastic cone(s),"5,886","61,727","447,660","17,928,355"
Hachijojima,Confirmed Eruption,1150 BCE,--,SE flank of Nishi-yama (Kanda-yama),Tephrochronology,Unknown,33.137,139.766,854 m,Japan,Stratovolcano(es),"11,275","13,560","13,564","14,082"
Hakkodasan,Confirmed Eruption,1150 BCE,1,"O-dake, Hk-3 tephra",Radiocarbon (corrected),Unknown,40.659,140.877,1585 m,Japan,Stratovolcano(es),225,730,"476,624","1,921,667"
Iwatesan,Confirmed Eruption,1150 BCE,--,Nishi-Iwate,Radiocarbon (uncorrected),Unknown,39.853,141.001,2038 m,Japan,Complex,439,"18,462","415,920","2,976,795"
Krasheninnikov,Confirmed Eruption,1150 BCE,--,Northern cone,Radiocarbon (corrected),Unknown,54.596,160.27,1816 m,Russia,Caldera,308,308,814,"4,674"
Unzendake,Confirmed Eruption,1150 BCE,--,Fugendake-Sancho,Thermoluminescence,Unknown,32.761,130.299,1483 m,Japan,Complex,"6,979","76,424","444,737","7,313,362"
Savai'i,Confirmed Eruption,1150 BCE,--,,Radiocarbon (corrected),Unknown,-13.612,-172.525,1858 m,Samoa,Shield,0,59,"34,215","188,465"
Cuicocha,Confirmed Eruption,1150 BCE,5,,Radiocarbon (uncorrected),Unknown,0.308,-78.364,3246 m,Ecuador,Caldera,"178,815","178,815","364,146","3,193,683"
Hekla,Confirmed Eruption,1150 BCE,--,Vatnafjöll (Hraunhalsshraun),Tephrochronology,Unknown,63.983,-19.666,1490 m,Iceland,Stratovolcano,0,0,298,"22,845"
Torfajokull,Confirmed Eruption,1150 BCE,--,N of caldera (Domadalshraun),Tephrochronology,Unknown,63.892,-19.122,1280 m,Iceland,Stratovolcano,0,0,7,"16,304"
Unknown Source,Confirmed Eruption,1150 BCE,--,,,,,,,,,,,,
Tenerife,Confirmed Eruption,1150 BCE,--,Teide SW flank (Los Gemelos),Tephrochronology,Unknown,28.271,-16.641,3715 m,Spain,Stratovolcano,0,156,"337,660","766,276"
Katla,Confirmed Eruption,1160 BCE,--,,Tephrochronology,Unknown,63.633,-19.083,1490 m,Iceland,Subglacial,0,0,473,"11,326"
Galeras,Confirmed Eruption,1160 BCE,2,,Radiocarbon (corrected),Unknown,1.22,-77.37,4276 m,Colombia,Complex,705,"120,817","630,777","1,700,248"
Zuni-Bandera,Confirmed Eruption,1170 BCE,0,McCartys flow,Radiocarbon (corrected),Unknown,34.8,-108,2550 m,United States,Volcanic field,18,18,246,"54,738"
Colima,Confirmed Eruption,1170 BCE,--,,Radiocarbon (corrected),Unknown,19.514,-103.62,3850 m,Mexico,Stratovolcano(es),76,746,"303,490","1,494,790"
"Malinche, La",Confirmed Eruption,1170 BCE,--,,Radiocarbon (uncorrected),Unknown,19.231,-98.032,4461 m,Mexico,Stratovolcano,46,"2,769","2,324,232","8,225,539"
Cobb Segment,Confirmed Eruption,1180 BCE,--,,Uranium-series,Unknown,46.88,-129.33,-2100 m,Canada,Submarine,0,0,0,0
St. Helens,Confirmed Eruption,1180 BCE,--,Pm layer,Radiocarbon (corrected),Unknown,46.2,-122.18,2549 m,United States,Stratovolcano,78,427,"2,221","2,173,101"
Merapi,Confirmed Eruption,1180 BCE,4,Bakalan tephra,Radiocarbon (uncorrected),Unknown,-7.54,110.446,2910 m,Indonesia,Stratovolcano,"49,205","185,849","4,348,473","24,728,414"
Gran Canaria,Confirmed Eruption,1180 BCE,--,Montañón Negro,Radiocarbon (corrected),Unknown,28,-15.58,1950 m,Spain,Fissure vent(s),"1,101","8,049","697,199","1,119,998"
Katla,Confirmed Eruption,1190 BCE,--,,Tephrochronology,Unknown,63.633,-19.083,1490 m,Iceland,Subglacial,0,0,473,"11,326"
Taranaki,Confirmed Eruption,1190 BCE,--,,Radiocarbon (uncorrected),Unknown,-39.3,174.07,2518 m,New Zealand,Stratovolcano,200,230,"77,381","104,499"
Unknown Source,Confirmed Eruption,1192 BCE,--,,,,,,,,,,,,
Flores,Confirmed Eruption,1200 BCE,--,Caldeira Funda de Lajes,Radiocarbon (uncorrected),Unknown,39.462,-31.216,914 m,Portugal,Stratovolcano(es),"1,054","4,560","5,825","5,865"
Fremrinamar,Confirmed Eruption,1200 BCE,--,Kraeduborgir (Burfellshraun),Tephrochronology,Unknown,65.416,-16.666,970 m,Iceland,Stratovolcano,0,0,476,"19,143"
Bardarbunga,Confirmed Eruption,1200 BCE,--,"Veidivötn (Burfellshraun, Drekahraun)",Tephrochronology,Unknown,64.633,-17.516,2000 m,Iceland,Stratovolcano,0,0,0,"1,348"
Taveuni,Confirmed Eruption,1200 BCE,2,,Tephrochronology,Unknown,-16.82,-179.97,1241 m,Fiji,Shield,692,"3,220","19,186","146,131"
Raoul Island,Confirmed Eruption,1200 BCE,4,"SW part of Raoul caldera, Oneraki tephra",Radiocarbon (uncorrected),Unknown,-29.27,-177.92,516 m,New Zealand,Stratovolcano,0,0,0,0
"Haylan, Jabal",Confirmed Eruption,1200 BCE,0,West of Sirwan,Anthropology,Unknown,15.4,45.1,1550 m,Yemen,Volcanic field,"225,754","225,754","225,754","4,164,209"
Naolinco Volcanic Field,Confirmed Eruption,1200 BCE,--,Rincón de Chapultepec,Radiocarbon (corrected),Unknown,19.67,-96.75,2000 m,Mexico,Pyroclastic cone(s),"108,824","108,824","739,767","4,184,323"
Ichinsky,Confirmed Eruption,1200 BCE,--,,Tephrochronology,Unknown,55.678,157.718,3596 m,Russia,Stratovolcano,0,0,34,"2,670"
Izu-Oshima,Confirmed Eruption,1200 BCE,--,Tephra layer O14,Tephrochronology,Unknown,34.724,139.394,746 m,Japan,Stratovolcano,"2,381","8,037","8,375","11,837,468"
Aogashima,Confirmed Eruption,1200 BCE,--,,Radiocarbon (corrected),Unknown,32.458,139.759,423 m,Japan,Stratovolcano,232,232,232,"8,559"
Hakoneyama,Confirmed Eruption,1200 BCE,2,NW side of Kami-yama (Kanmuriga-take),Radiocarbon (corrected),Unknown,35.233,139.021,1438 m,Japan,Complex,"14,140","53,755","1,543,563","30,282,197"
Myokosan,Confirmed Eruption,1200 BCE,--,,Tephrochronology,Unknown,36.891,138.114,2454 m,Japan,Stratovolcano,"1,563","11,033","561,142","4,118,863"
Redoubt,Confirmed Eruption,1210 BCE,--,,Varve Count,Unknown,60.485,-152.742,3108 m,United States,Stratovolcano,0,0,1,"32,410"
Katla,Confirmed Eruption,1220 BCE,3,Tephra layer MN,Radiocarbon (corrected),Unknown,63.633,-19.083,1490 m,Iceland,Subglacial,0,0,473,"11,326"
Guagua Pichincha,Confirmed Eruption,1230 BCE,--,,Radiocarbon (corrected),Unknown,-0.171,-78.598,4784 m,Ecuador,Stratovolcano,449,"32,488","2,064,475","3,581,801"
Villarrica,Confirmed Eruption,1230 BCE,4,Chaimilla,Radiocarbon (uncorrected),Unknown,-39.42,-71.93,2847 m,Chile,Stratovolcano,477,"1,067","35,118","667,788"
Haleakala,Confirmed Eruption,1240 BCE,--,Upper SW rift zone (~2800 m),Radiocarbon (corrected),Unknown,20.708,-156.25,3055 m,United States,Shield,"26,074","26,074","65,398","157,582"
"Ruiz, Nevado del",Confirmed Eruption,1245 BCE,--,ENE flank ? (Alto la Piramide ?),Radiocarbon (uncorrected),Unknown,4.892,-75.324,5279 m,Colombia,Stratovolcano,"3,849","20,146","507,608","4,252,435"
Arenal,Confirmed Eruption,1250 BCE,4,Tephra layer AR-9/ET-9,Radiocarbon (corrected),Unknown,10.463,-84.703,1670 m,Costa Rica,Stratovolcano,"3,429","15,643","96,512","3,027,485"
Aguilera,Confirmed Eruption,1250 BCE,5,A1 tephra,Radiocarbon (corrected),Unknown,-50.33,-73.75,2546 m,Chile,Stratovolcano,0,0,103,"5,698"
"Negra, Sierra",Confirmed Eruption,1250 BCE,0,SE flank,Radiocarbon (uncorrected),Unknown,-0.83,-91.17,1124 m,Ecuador,Shield,408,408,983,"9,884"
Hekla,Confirmed Eruption,1250 BCE,--,"NE flank, Vatnafjöll",Tephrochronology,Unknown,63.983,-19.666,1490 m,Iceland,Stratovolcano,0,0,298,"22,845"
Askja,Confirmed Eruption,1250 BCE,0,Litladynga and Askja,Tephrochronology,Unknown,65.033,-16.783,1080 m,Iceland,Stratovolcano,0,0,0,"13,028"
Gran Canaria,Confirmed Eruption,1250 BCE,--,Fagajesto,Radiocarbon (corrected),Unknown,28,-15.58,1950 m,Spain,Fissure vent(s),"1,101","8,049","697,199","1,119,998"
Candlemas Island,Confirmed Eruption,1250 BCE,--,S Sandwich Is (probably Candlemass),Ice Core,Unknown,-57.08,-26.67,550 m,United Kingdom,Stratovolcano,0,0,0,0
Jordan Craters,Confirmed Eruption,1250 BCE,2,Coffeepot Crater,Radiocarbon (uncorrected),Unknown,43.147,-117.46,1473 m,United States,Volcanic field,0,0,28,"232,946"
Hachijojima,Confirmed Eruption,1250 BCE,--,Nishi-yama,Tephrochronology,Unknown,33.137,139.766,854 m,Japan,Stratovolcano(es),"11,275","13,560","13,564","14,082"
Miyakejima,Confirmed Eruption,1250 BCE,3,TBS tephra,Tephrochronology,Unknown,34.094,139.526,775 m,Japan,Stratovolcano,"1,848","3,189","3,474","95,663"
Niijima,Confirmed Eruption,1250 BCE,--,Wakago tephra,Tephrochronology,Unknown,34.397,139.27,432 m,Japan,Lava dome(s),"3,060","3,349","6,139","1,347,661"
Iwatesan,Confirmed Eruption,1250 BCE,3,Higashi-Iwate,Radiocarbon (corrected),Unknown,39.853,141.001,2038 m,Japan,Complex,439,"18,462","415,920","2,976,795"
Akita-Yakeyama,Confirmed Eruption,1250 BCE,--,,Radiocarbon (corrected),Unknown,39.964,140.757,1366 m,Japan,Stratovolcano,127,721,"55,493","3,122,037"
Taranaki,Confirmed Eruption,1250 BCE,--,Southern Beehive,Tephrochronology,Unknown,-39.3,174.07,2518 m,New Zealand,Stratovolcano,200,230,"77,381","104,499"
Taupo,Confirmed Eruption,1250 BCE,3,"4 km W of Te Kohaiakahu Point, Unit T",Radiocarbon (corrected),Unknown,-38.82,176,760 m,New Zealand,Caldera,"21,456","21,456","26,674","161,966"
Loloru,Confirmed Eruption,1260 BCE,--,,Radiocarbon (uncorrected),Unknown,-6.52,155.62,1887 m,Papua New Guinea,Pyroclastic shield,1,173,"26,075","97,088"
Asosan,Confirmed Eruption,1270 BCE,--,,Radiocarbon (uncorrected),Unknown,32.884,131.104,1592 m,Japan,Caldera,"75,559","75,559","234,591","6,507,519"
Baru,Confirmed Eruption,1270 BCE,--,,Radiocarbon (corrected),Unknown,8.808,-82.543,3474 m,Panama,Stratovolcano,118,"6,983","79,933","756,597"
Katla,Confirmed Eruption,1280 BCE,--,,Tephrochronology,Unknown,63.633,-19.083,1490 m,Iceland,Subglacial,0,0,473,"11,326"
St. Paul Island,Confirmed Eruption,1280 BCE,--,West side (Fox Hill),Radiocarbon (uncorrected),Unknown,57.18,-170.3,203 m,United States,Shield,582,582,582,783
Katla,Confirmed Eruption,1290 BCE,--,,Tephrochronology,Unknown,63.633,-19.083,1490 m,Iceland,Subglacial,0,0,473,"11,326"
Agua de Pau,Confirmed Eruption,1290 BCE,4,Lagoa do Fogo caldera,Radiocarbon (uncorrected),Unknown,37.77,-25.47,947 m,Portugal,Stratovolcano,406,"17,272","113,131","119,653"
Cayambe,Confirmed Eruption,1300 BCE,--,,Tephrochronology,Unknown,0.029,-77.986,5790 m,Ecuador,Compound,70,"1,148","109,630","3,154,986"
Mauna Loa,Confirmed Eruption,1300 BCE,0,Mokuaweoweo and NE rift zone,Radiocarbon (uncorrected),Unknown,19.475,-155.608,4170 m,United States,Shield,45,45,"1,906","175,315"
Fujisan,Confirmed Eruption,1300 BCE,--,Tephra unit SYP2,Radiocarbon (corrected),Unknown,35.361,138.728,3776 m,Japan,Stratovolcano,570,"1,759","906,969","25,022,187"
Taveuni,Confirmed Eruption,1300 BCE,2,,Tephrochronology,Unknown,-16.82,-179.97,1241 m,Fiji,Shield,692,"3,220","19,186","146,131"
Vulcano,Confirmed Eruption,1300 BCE,3,Fossa,Tephrochronology,Unknown,38.404,14.962,500 m,Italy,Stratovolcano(es),"2,259","23,059","86,766","2,093,800"
Haleakala,Confirmed Eruption,1310 BCE,--,Upper SW rift zone (~2600 m),Radiocarbon (corrected),Unknown,20.708,-156.25,3055 m,United States,Shield,"26,074","26,074","65,398","157,582"
Redoubt,Confirmed Eruption,1310 BCE,--,,Varve Count,Unknown,60.485,-152.742,3108 m,United States,Stratovolcano,0,0,1,"32,410"
"Bravo, Cerro",Confirmed Eruption,1310 BCE,4,CB7 tephra,Radiocarbon (uncorrected),Unknown,5.091,-75.293,3985 m,Colombia,Stratovolcano,"1,679","4,916","538,690","3,929,468"
Soufriere Guadeloupe,Confirmed Eruption,1310 BCE,3,Morne Amic,Radiocarbon (corrected),Unknown,16.044,-61.664,1467 m,France,Stratovolcano,"8,839","71,345","256,899","482,449"
Yucamane,Confirmed Eruption,1320 BCE,5,,Radiocarbon (uncorrected),Unknown,-17.184,-70.196,5495 m,Peru,Stratovolcano(es),51,692,"10,396","467,713"
La Palma,Confirmed Eruption,1320 BCE,--,La Fajana (Volcán Fuego),Radiocarbon (uncorrected),Unknown,28.57,-17.83,2426 m,Spain,Stratovolcano(es),442,,,
Colima,Confirmed Eruption,1320 BCE,--,,Radiocarbon (uncorrected),Unknown,19.514,-103.62,3850 m,Mexico,Stratovolcano(es),76,746,"303,490","1,494,790"
San Martin,Confirmed Eruption,1320 BCE,--,South flank (Cerro Mono Blanco),Radiocarbon (uncorrected),Unknown,18.57,-95.2,1650 m,Mexico,Shield,280,"3,581","259,640","1,645,811"
Sheveluch,Confirmed Eruption,1330 BCE,3,,Radiocarbon (corrected),Unknown,56.653,161.36,3283 m,Russia,Stratovolcano,0,0,"1,718","11,613"
Longonot,Confirmed Eruption,1330 BCE,--,,Radiocarbon (uncorrected),Unknown,-0.914,36.446,2776 m,Kenya,Stratovolcano,809,"17,893","410,677","8,750,154"
Okataina,Confirmed Eruption,1330 BCE,--,Mt. Edgecumbe,Radiocarbon (corrected),Unknown,-38.12,176.5,1111 m,New Zealand,Lava dome(s),18,579,"79,591","362,413"
"Chichon, El",Confirmed Eruption,1340 BCE,--,Tephra unit J,Radiocarbon (corrected),Unknown,17.36,-93.228,1150 m,Mexico,Lava dome(s),"3,759","11,000","143,015","3,570,632"
"Toluca, Nevado de",Confirmed Eruption,1350 BCE,--,,Radiocarbon (uncorrected),Unknown,19.108,-99.758,4680 m,Mexico,Stratovolcano,126,"1,240","1,626,432","25,247,342"
Bezymianny,Confirmed Eruption,1350 BCE,--,,Tephrochronology,Unknown,55.972,160.595,2882 m,Russia,Stratovolcano,0,0,47,"11,728"
Redoubt,Confirmed Eruption,1350 BCE,--,,Varve Count,Unknown,60.485,-152.742,3108 m,United States,Stratovolcano,0,0,1,"32,410"
Fujisan,Confirmed Eruption,1350 BCE,5,Tephra layer Os,Tephrochronology,Unknown,35.361,138.728,3776 m,Japan,Stratovolcano,570,"1,759","906,969","25,022,187"
Naruko,Confirmed Eruption,1350 BCE,--,,Radiocarbon (corrected),Unknown,38.729,140.734,470 m,Japan,Caldera,"54,771","54,771","210,262","4,417,058"
Krasheninnikov,Confirmed Eruption,1350 BCE,3,N (Zametny) & S (Duga) flank fissures,Radiocarbon (corrected),Unknown,54.596,160.27,1816 m,Russia,Caldera,308,308,814,"4,674"
Avachinsky,Confirmed Eruption,1350 BCE,5,Tephra layer IIAV3,Radiocarbon (uncorrected),Unknown,53.256,158.836,2717 m,Russia,Stratovolcano,0,0,"180,016","270,205"
Koshelev,Confirmed Eruption,1350 BCE,--,Northern flank,Radiocarbon (uncorrected),Unknown,51.356,156.753,1822 m,Russia,Stratovolcano,0,2,855,"4,390"
Tokachidake,Confirmed Eruption,1350 BCE,3,Ground Crater,Radiocarbon (corrected),Unknown,43.418,142.686,2077 m,Japan,Stratovolcano(es),12,227,"60,382","1,373,264"
Asosan,Confirmed Eruption,1350 BCE,3,Komezuka,Radiocarbon (corrected),Unknown,32.884,131.104,1592 m,Japan,Caldera,"75,559","75,559","234,591","6,507,519"
Hekla,Confirmed Eruption,1350 BCE,--,Vatnafjöll,Tephrochronology,Unknown,63.983,-19.666,1490 m,Iceland,Stratovolcano,0,0,298,"22,845"
Witori,Confirmed Eruption,1370 BCE,6,W-K2 tephra,Radiocarbon (corrected),Unknown,-5.576,150.516,724 m,Papua New Guinea,Caldera,"24,509","24,509","37,824","145,382"
Pelee,Confirmed Eruption,1390 BCE,--,Tephra layer NRS3,Radiocarbon (corrected),Unknown,14.809,-61.165,1394 m,France,Stratovolcano,251,"5,025","382,633","609,576"
Nemrut Dagi,Confirmed Eruption,1396 BCE,--,,Varve Count,Unknown,38.654,42.229,2948 m,Turkey,Stratovolcano,608,"7,399","230,531","1,618,263"
Karymsky,Confirmed Eruption,1400 BCE,2,Tephra layer PM4,Radiocarbon (corrected),Unknown,54.049,159.443,1513 m,Russia,Stratovolcano,0,0,291,"10,848"
Naruko,Confirmed Eruption,1400 BCE,--,,Tephrochronology,Unknown,38.729,140.734,470 m,Japan,Caldera,"54,771","54,771","210,262","4,417,058"
Hakoneyama,Confirmed Eruption,1400 BCE,--,NW side of Kami-yama (Kanmuriga-take),Radiocarbon (corrected),Unknown,35.233,139.021,1438 m,Japan,Complex,"14,140","53,755","1,543,563","30,282,197"
Tenerife,Confirmed Eruption,1400 BCE,--,NW rift zone (Montaña Samara),Tephrochronology,Unknown,28.271,-16.641,3715 m,Spain,Stratovolcano,0,156,"337,660","766,276"
Merapi,Confirmed Eruption,1410 BCE,--,,Radiocarbon (corrected),Unknown,-7.54,110.446,2910 m,Indonesia,Stratovolcano,"49,205","185,849","4,348,473","24,728,414"
Etna,Confirmed Eruption,1420 BCE,--,FL tephra layer,Radiocarbon (corrected),Unknown,37.748,14.999,3320 m,Italy,Stratovolcano(es),78,"3,291","1,016,540","3,052,770"
Turrialba,Confirmed Eruption,1420 BCE,--,,Radiocarbon (corrected),Unknown,10.025,-83.767,3340 m,Costa Rica,Stratovolcano,"1,891","6,867","672,428","3,390,544"
Vesuvius,Confirmed Eruption,1430 BCE,4,AP2 tephra,Radiocarbon (corrected),Unknown,40.821,14.426,1281 m,Italy,Stratovolcano,"19,162","675,705","3,907,941","6,009,961"
Nasudake,Confirmed Eruption,1440 BCE,2,Chausu-dake,Tephrochronology,Unknown,37.125,139.963,1915 m,Japan,Stratovolcano(es),639,"5,802","298,717","5,725,203"
Katla,Confirmed Eruption,1440 BCE,4,Tephra layer LN,Radiocarbon (corrected),Unknown,63.633,-19.083,1490 m,Iceland,Subglacial,0,0,473,"11,326"
Arenal,Confirmed Eruption,1450 BCE,4,Tephra layer AR-8/ET-10,Tephrochronology,Unknown,10.463,-84.703,1670 m,Costa Rica,Stratovolcano,"3,429","15,643","96,512","3,027,485"
Akita-Komagatake,Confirmed Eruption,1450 BCE,--,"AK-5, AK-4 tephra layers",Radiocarbon (corrected),Unknown,39.761,140.799,1637 m,Japan,Stratovolcano(es),376,"3,864","216,708","2,521,611"
Miyakejima,Confirmed Eruption,1450 BCE,--,NW flank (NGS scoria layer),Tephrochronology,Unknown,34.094,139.526,775 m,Japan,Stratovolcano,"1,848","3,189","3,474","95,663"
Izu-Oshima,Confirmed Eruption,1450 BCE,--,Tephra layer O15,Tephrochronology,Unknown,34.724,139.394,746 m,Japan,Stratovolcano,"2,381","8,037","8,375","11,837,468"
Fujisan,Confirmed Eruption,1450 BCE,--,Tephra layer S-10,Tephrochronology,Unknown,35.361,138.728,3776 m,Japan,Stratovolcano,570,"1,759","906,969","25,022,187"
Taisetsuzan,Confirmed Eruption,1450 BCE,--,"Asahi-dake, As-B tephra",Radiocarbon (corrected),Unknown,43.664,142.854,2291 m,Japan,Stratovolcano(es),19,119,"16,391","1,304,267"
Colima,Confirmed Eruption,1450 BCE,--,,Radiocarbon (uncorrected),Unknown,19.514,-103.62,3850 m,Mexico,Stratovolcano(es),76,746,"303,490","1,494,790"
Newberry,Confirmed Eruption,1450 BCE,--,South of East Lake,Hydration Rind,Unknown,43.722,-121.229,2434 m,United States,Shield,0,0,"16,437","180,091"
Taveuni,Confirmed Eruption,1450 BCE,2,,Tephrochronology,Unknown,-16.82,-179.97,1241 m,Fiji,Shield,692,"3,220","19,186","146,131"
Unzendake,Confirmed Eruption,1450 BCE,--,Fugen-dake (Kazaana),Thermoluminescence,Unknown,32.761,130.299,1483 m,Japan,Complex,"6,979","76,424","444,737","7,313,362"
Kuchinoerabujima,Confirmed Eruption,1450 BCE,--,"Shindake, N-m tephra",Radiocarbon (corrected),Unknown,30.443,130.217,657 m,Japan,Stratovolcano(es),"1,544","1,698","5,348","149,518"
Ata,Confirmed Eruption,1450 BCE,--,"Mizunashi, Kagami, Ikezoko maars",Tephrochronology,Unknown,31.22,130.57,924 m,Japan,Caldera(s),"93,134","93,134","171,590","1,891,380"
Unknown Source,Confirmed Eruption,1454 BCE,--,,,,,,,,,,,,
Unknown Source,Confirmed Eruption,1459 BCE,--,,,,,,,,,,,,
Taupo,Confirmed Eruption,1460 BCE,6,"Horomatangi Reefs?, Unit S",Radiocarbon (corrected),Unknown,-38.82,176,760 m,New Zealand,Caldera,"21,456","21,456","26,674","161,966"
Etna,Discredited Eruption,1470 BCE,--,, ,[ Unknown ],37.748,14.999,3320 m,Italy,Stratovolcano(es),78,"3,291","1,016,540","3,052,770"
Ischia,Confirmed Eruption,1480 BCE,--,Castiglione,Magnetism,Unknown,40.73,13.897,789 m,Italy,Complex,"18,669","20,210","383,661","5,729,354"
Puyehue-Cordon Caulle,Confirmed Eruption,1490 BCE,--,,Radiocarbon (corrected),Unknown,-40.59,-72.117,2236 m,Chile,Stratovolcano,129,783,"7,163","515,357"
Etna,Confirmed Eruption,1500 BCE,5,,Historical Observations,Unknown,37.748,14.999,3320 m,Italy,Stratovolcano(es),78,"3,291","1,016,540","3,052,770"
Ata,Confirmed Eruption,1500 BCE,4,"Kaimon, Tephra layer Km-xi",Tephrochronology,Unknown,31.22,130.57,924 m,Japan,Caldera(s),"93,134","93,134","171,590","1,891,380"
"Orizaba, Pico de",Confirmed Eruption,1500 BCE,3,,Radiocarbon (uncorrected),Unknown,19.03,-97.27,5564 m,Mexico,Stratovolcano,413,"4,469","759,747","5,962,920"
Sheveluch,Confirmed Eruption,1500 BCE,3,,Tephrochronology,Unknown,56.653,161.36,3283 m,Russia,Stratovolcano,0,0,"1,718","11,613"
Avachinsky,Confirmed Eruption,1500 BCE,5,Tephra layer AV1,Radiocarbon (corrected),Unknown,53.256,158.836,2717 m,Russia,Stratovolcano,0,0,"180,016","270,205"
Iwatesan,Confirmed Eruption,1500 BCE,--,Higashi-Iwate,Tephrochronology,Unknown,39.853,141.001,2038 m,Japan,Complex,439,"18,462","415,920","2,976,795"
Chikurachki,Confirmed Eruption,1500 BCE,4,OSC6 tephra,Tephrochronology,Unknown,50.324,155.461,1781 m,Russia,Stratovolcano(es),0,65,527,"2,492"
Fujisan,Confirmed Eruption,1510 BCE,--,Tephra unit SYP1,Radiocarbon (corrected),Unknown,35.361,138.728,3776 m,Japan,Stratovolcano,570,"1,759","906,969","25,022,187"
Redoubt,Confirmed Eruption,1510 BCE,--,,Varve Count,Unknown,60.485,-152.742,3108 m,United States,Stratovolcano,0,0,1,"32,410"
"Chillan, Nevados de",Confirmed Eruption,1510 BCE,--,Volcán Viejo,Radiocarbon (uncorrected),Unknown,-36.868,-71.378,3180 m,Chile,Stratovolcano,68,371,"3,733","512,325"
Cotopaxi,Confirmed Eruption,1510 BCE,--,,Radiocarbon (uncorrected),Unknown,-0.677,-78.436,5911 m,Ecuador,Stratovolcano,251,"7,299","152,139","3,631,492"
Katla,Confirmed Eruption,1540 BCE,--,,Tephrochronology,Unknown,63.633,-19.083,1490 m,Iceland,Subglacial,0,0,473,"11,326"
Redoubt,Confirmed Eruption,1540 BCE,--,,Varve Count,Unknown,60.485,-152.742,3108 m,United States,Stratovolcano,0,0,1,"32,410"
Jingbo,Confirmed Eruption,1540 BCE,--,,Radiocarbon (uncorrected),Unknown,44.08,128.83,1000 m,China,Volcanic field,"35,038","35,038","149,132","2,372,857"
Kanaga,Confirmed Eruption,1550 BCE,--,T7 tephra,Radiocarbon (corrected),Unknown,51.923,-177.168,1307 m,United States,Stratovolcano,0,0,0,0
Severny,Confirmed Eruption,1550 BCE,--,WSW flank (Tobeltsen),Radiocarbon (uncorrected),Unknown,58.28,160.87,1936 m,Russia,Shield,0,0,4,"3,152"
Bezymianny,Confirmed Eruption,1550 BCE,--,Expeditsii and Exstrusivny Greben,Tephrochronology,Unknown,55.972,160.595,2882 m,Russia,Stratovolcano,0,0,47,"11,728"
Redoubt,Confirmed Eruption,1550 BCE,--,,Radiocarbon (uncorrected),Unknown,60.485,-152.742,3108 m,United States,Stratovolcano,0,0,1,"32,410"
Hayes,Confirmed Eruption,1550 BCE,5,,Tephrochronology,Unknown,61.64,-152.411,3034 m,United States,Stratovolcano,0,0,0,151
Kilauea,Confirmed Eruption,1550 BCE,0,SW rift zone,Radiocarbon (uncorrected),Unknown,19.421,-155.287,1222 m,United States,Shield,"3,122","3,122","8,495","169,550"
Adatarayama,Confirmed Eruption,1550 BCE,--,"Numanotaira, Ad-p1, p2 tephras",Tephrochronology,Unknown,37.647,140.281,1728 m,Japan,Stratovolcano(es),428,"3,936","717,078","5,024,654"
Opala,Confirmed Eruption,1550 BCE,--,,Radiocarbon (uncorrected),Unknown,52.543,157.339,2439 m,Russia,Caldera,22,22,50,"58,949"
Koryaksky,Confirmed Eruption,1550 BCE,--,South and SW flanks,Radiocarbon (uncorrected),Unknown,53.321,158.712,3430 m,Russia,Stratovolcano,0,13,"142,050","257,322"
Bakening,Confirmed Eruption,1550 BCE,--,SE flank,Tephrochronology,Unknown,53.905,158.07,2278 m,Russia,Stratovolcano,0,10,"1,583","87,139"
Uzon,Confirmed Eruption,1550 BCE,--,Bannoe Lake,Tephrochronology,Unknown,54.5,159.97,1617 m,Russia,Caldera(s),0,0,294,"9,144"
Kussharo,Confirmed Eruption,1550 BCE,--,Atosanupuri,Tephrochronology,Unknown,43.615,144.427,574 m,Japan,Caldera,"8,331","8,331","26,476","680,109"
Ata,Confirmed Eruption,1550 BCE,--,Nabeshima-dake,Tephrochronology,Unknown,31.22,130.57,924 m,Japan,Caldera(s),"93,134","93,134","171,590","1,891,380"
Vesuvius,Confirmed Eruption,1550 BCE,4,AP1 tephra,Radiocarbon (corrected),Unknown,40.821,14.426,1281 m,Italy,Stratovolcano,"19,162","675,705","3,907,941","6,009,961"
"Lengai, Ol Doinyo",Confirmed Eruption,1550 BCE,--,,Tephrochronology,Unknown,-2.764,35.914,2962 m,Tanzania,Stratovolcano,186,"1,855","18,074","545,305"
Hekla,Confirmed Eruption,1550 BCE,4,Seslund pumice,Tephrochronology,Unknown,63.983,-19.666,1490 m,Iceland,Stratovolcano,0,0,298,"22,845"
Torfajokull,Confirmed Eruption,1550 BCE,--,W side of caldera (Markafljot domes),Tephrochronology,Unknown,63.892,-19.122,1280 m,Iceland,Stratovolcano,0,0,7,"16,304"
Deception Island,Confirmed Eruption,1550 BCE,--,Tephra layer AP-13,Radiocarbon (uncorrected),Unknown,-63.001,-60.652,602 m,Antarctica,Caldera,0,0,0,0
"Maule, Laguna del",Confirmed Eruption,1550 BCE,0,rsl and rcl,Ar/Ar,Unknown,-36.058,-70.492,2162 m,Chile,Caldera,"1,045","1,045","1,521","169,334"
Taranaki,Confirmed Eruption,1560 BCE,--,,Radiocarbon (uncorrected),Unknown,-39.3,174.07,2518 m,New Zealand,Stratovolcano,200,230,"77,381","104,499"
Redoubt,Confirmed Eruption,1560 BCE,--,,Varve Count,Unknown,60.485,-152.742,3108 m,United States,Stratovolcano,0,0,1,"32,410"
Fuego,Confirmed Eruption,1580 BCE,--,,Radiocarbon (uncorrected),Unknown,14.473,-90.88,3763 m,Guatemala,Stratovolcano(es),"1,373","54,332","1,016,339","7,677,809"
Taapaca,Confirmed Eruption,1580 BCE,--,,Radiocarbon (uncorrected),Unknown,-18.1,-69.5,5860 m,Chile,Complex,3,87,"1,994","505,369"
Chacana,Confirmed Eruption,1580 BCE,--,,Radiocarbon (uncorrected),Unknown,-0.375,-78.25,4643 m,Ecuador,Caldera,"81,716","81,716","348,743","3,292,546"
Fuss Peak,Confirmed Eruption,1590 BCE,3,HPM2 tephra,Radiocarbon (corrected),Unknown,50.267,155.246,1742 m,Russia,Stratovolcano,0,62,354,"1,891"
Zaozan [Zaosan],Confirmed Eruption,1600 BCE,--,Goshiki-dake,Radiocarbon (corrected),Unknown,38.144,140.44,1841 m,Japan,Complex,632,"4,681","550,409","4,956,958"
Moffett,Confirmed Eruption,1600 BCE,--,Sandwich Ash deposit,Radiocarbon (corrected),Unknown,51.944,-176.747,1196 m,United States,Stratovolcano,0,0,0,0
Soufriere St. Vincent,Confirmed Eruption,1600 BCE,--,,Radiocarbon (uncorrected),Unknown,13.33,-61.18,1220 m,Saint Vincent and the Grenadines,Stratovolcano,"1,491","15,327","103,882","291,476"
St. Helens,Confirmed Eruption,1610 BCE,--,,Radiocarbon (corrected),Unknown,46.2,-122.18,2549 m,United States,Stratovolcano,78,427,"2,221","2,173,101"
Santorini,Confirmed Eruption,1610 BCE,7,,Radiocarbon (corrected),Unknown,36.404,25.396,367 m,Greece,Shield(s),"5,176","12,266","12,336","67,468"
Ata,Confirmed Eruption,1610 BCE,3,"Kaimon, Tephra layer Km-omicron",Tephrochronology,Unknown,31.22,130.57,924 m,Japan,Caldera(s),"93,134","93,134","171,590","1,891,380"
Unknown Source,Confirmed Eruption,1623 BCE,--,,,,,,,,,,,,
Unknown Source,Confirmed Eruption,1628 BCE,--,,,,,,,,,,,,
Katla,Confirmed Eruption,1640 BCE,--,,Tephrochronology,Unknown,63.633,-19.083,1490 m,Iceland,Subglacial,0,0,473,"11,326"
Aniakchak,Confirmed Eruption,1645 BCE,6,,Ice Core,Unknown,56.88,-158.17,1341 m,United States,Caldera,0,0,36,479
Mageik,Confirmed Eruption,1650 BCE,--,East Mageik,Radiocarbon (uncorrected),Unknown,58.195,-155.253,2165 m,United States,Stratovolcano,0,0,0,376
Sheveluch,Confirmed Eruption,1650 BCE,3,,Tephrochronology,Unknown,56.653,161.36,3283 m,Russia,Stratovolcano,0,0,"1,718","11,613"
Tolbachik,Confirmed Eruption,1650 BCE,--,SW flank (Istochniky),Tephrochronology,Unknown,55.832,160.326,3611 m,Russia,Shield,0,0,225,"10,487"
Kilauea,Confirmed Eruption,1650 BCE,0,SW rift zone,Radiocarbon (uncorrected),Unknown,19.421,-155.287,1222 m,United States,Shield,"3,122","3,122","8,495","169,550"
Mauna Loa,Confirmed Eruption,1650 BCE,0,NE and SW rift zones,Radiocarbon (uncorrected),Unknown,19.475,-155.608,4170 m,United States,Shield,45,45,"1,906","175,315"
Hualalai,Confirmed Eruption,1650 BCE,0,,Radiocarbon (uncorrected),Unknown,19.692,-155.87,2523 m,United States,Shield,"35,906","35,906","46,959","166,240"
Iwatesan,Confirmed Eruption,1650 BCE,--,Nishi-Iwate (O-jigokudani area),Radiocarbon (corrected),Unknown,39.853,141.001,2038 m,Japan,Complex,439,"18,462","415,920","2,976,795"
Krasheninnikov,Confirmed Eruption,1650 BCE,--,Northern cone,Radiocarbon (corrected),Unknown,54.596,160.27,1816 m,Russia,Caldera,308,308,814,"4,674"
Gamchen,Confirmed Eruption,1650 BCE,--,SE flank (Barany),Tephrochronology,Unknown,54.974,160.703,2539 m,Russia,Complex,0,0,382,"3,829"
Asosan,Confirmed Eruption,1650 BCE,3,"Ojo-dake, OjS tephra",Radiocarbon (corrected),Unknown,32.884,131.104,1592 m,Japan,Caldera,"75,559","75,559","234,591","6,507,519"
Campi Flegrei,Confirmed Eruption,1650 BCE,4,Fossa Lupara (Monte Senga),Tephrochronology,Unknown,40.827,14.139,458 m,Italy,Caldera,"2,234,109","2,234,109","3,006,865","6,019,697"
Hekla,Confirmed Eruption,1650 BCE,--,Vatnafjöll,Tephrochronology,Unknown,63.983,-19.666,1490 m,Iceland,Stratovolcano,0,0,298,"22,845"
Tenerife,Confirmed Eruption,1650 BCE,--,Teide SW flank (La Mancha Ruana),Tephrochronology,Unknown,28.271,-16.641,3715 m,Spain,Stratovolcano,0,156,"337,660","766,276"
Cayambe,Confirmed Eruption,1650 BCE,--,,Tephrochronology,Unknown,0.029,-77.986,5790 m,Ecuador,Compound,70,"1,148","109,630","3,154,986"
Azufral,Confirmed Eruption,1650 BCE,--,,Radiocarbon (uncorrected),Unknown,1.08,-77.68,4070 m,Colombia,Stratovolcano,"4,334","40,657","387,292","1,817,609"
Arenal,Confirmed Eruption,1650 BCE,4,Tephra layer AR-7/ET-11,Tephrochronology,Unknown,10.463,-84.703,1670 m,Costa Rica,Stratovolcano,"3,429","15,643","96,512","3,027,485"
Nemrut Dagi,Confirmed Eruption,1662 BCE,--,,Varve Count,Unknown,38.654,42.229,2948 m,Turkey,Stratovolcano,608,"7,399","230,531","1,618,263"
Furnas,Confirmed Eruption,1670 BCE,--,Tephra layer A,Tephrochronology,Unknown,37.77,-25.32,805 m,Portugal,Stratovolcano,"1,333","7,310","87,865","153,182"
Katla,Confirmed Eruption,1670 BCE,--,,Tephrochronology,Unknown,63.633,-19.083,1490 m,Iceland,Subglacial,0,0,473,"11,326"
Craters of the Moon,Confirmed Eruption,1680 BCE,0,Vermillion Chasm to Minidoka-Larkspur,Radiocarbon (uncorrected),Unknown,43.42,-113.5,2005 m,United States,Pyroclastic cone(s),15,15,"1,459","93,300"
St. Helens,Confirmed Eruption,1680 BCE,--,Tephra layer ya,Radiocarbon (corrected),Unknown,46.2,-122.18,2549 m,United States,Stratovolcano,78,427,"2,221","2,173,101"
Redoubt,Confirmed Eruption,1690 BCE,--,,Varve Count,Unknown,60.485,-152.742,3108 m,United States,Stratovolcano,0,0,1,"32,410"
Unknown Source,Confirmed Eruption,1695 BCE,--,,,,,,,,,,,,
Tenerife,Confirmed Eruption,1700 BCE,--,NW rift zone (Montaña Botija),Tephrochronology,Unknown,28.271,-16.641,3715 m,Spain,Stratovolcano,0,156,"337,660","766,276"
Katla,Confirmed Eruption,1700 BCE,--,,Tephrochronology,Unknown,63.633,-19.083,1490 m,Iceland,Subglacial,0,0,473,"11,326"
Redoubt,Confirmed Eruption,1700 BCE,--,,Varve Count,Unknown,60.485,-152.742,3108 m,United States,Stratovolcano,0,0,1,"32,410"
Sheveluch,Confirmed Eruption,1700 BCE,4,,Tephrochronology,Unknown,56.653,161.36,3283 m,Russia,Stratovolcano,0,0,"1,718","11,613"
Mauna Loa,Confirmed Eruption,1700 BCE,0,SW rift zone,Radiocarbon (uncorrected),Unknown,19.475,-155.608,4170 m,United States,Shield,45,45,"1,906","175,315"
Avachinsky,Confirmed Eruption,1700 BCE,--,,Tephrochronology,Unknown,53.256,158.836,2717 m,Russia,Stratovolcano,0,0,"180,016","270,205"
Maruyama,Confirmed Eruption,1700 BCE,2,"Maru-yama, My-b tephra",Radiocarbon (corrected),Unknown,43.418,143.031,2013 m,Japan,Stratovolcano(es),0,6,"3,682","1,260,920"
Taranaki,Confirmed Eruption,1700 BCE,5,Inglewood Tephra,Radiocarbon (uncorrected),Unknown,-39.3,174.07,2518 m,New Zealand,Stratovolcano,200,230,"77,381","104,499"
Taveuni,Confirmed Eruption,1700 BCE,2,,Tephrochronology,Unknown,-16.82,-179.97,1241 m,Fiji,Shield,692,"3,220","19,186","146,131"
Osorno,Confirmed Eruption,1710 BCE,--,,Radiocarbon (uncorrected),Unknown,-41.105,-72.496,2659 m,Chile,Stratovolcano,88,674,"11,964","655,492"
Kujusan,Confirmed Eruption,1720 BCE,--,Taisen-Minami,Tephrochronology,Unknown,33.086,131.249,1791 m,Japan,Stratovolcano(es),"1,667","11,771","181,541","7,815,706"
Hengill,Confirmed Eruption,1730 BCE,0,Thjófahraun,Radiocarbon (corrected),Unknown,64.083,-21.416,803 m,Iceland,Crater rows,"5,722","5,722","124,106","204,855"
Hekla,Confirmed Eruption,1750 BCE,--,,Tephrochronology,Unknown,63.983,-19.666,1490 m,Iceland,Stratovolcano,0,0,298,"22,845"
Ljosufjoll,Confirmed Eruption,1750 BCE,2,Grábrók,Radiocarbon (uncorrected),Unknown,64.9,-22.483,1063 m,Iceland,Fissure vent(s),713,713,"1,511","192,797"
Niigata-Yakeyama,Confirmed Eruption,1750 BCE,--,,Radiocarbon (corrected),Unknown,36.921,138.036,2400 m,Japan,Lava dome,73,610,"226,866","3,920,252"
Tokachidake,Confirmed Eruption,1750 BCE,--,,Radiocarbon (corrected),Unknown,43.418,142.686,2077 m,Japan,Stratovolcano(es),12,227,"60,382","1,373,264"
Mauna Loa,Confirmed Eruption,1750 BCE,0,NE rift zone,Radiocarbon (uncorrected),Unknown,19.475,-155.608,4170 m,United States,Shield,45,45,"1,906","175,315"
Tolbachik,Confirmed Eruption,1750 BCE,3,SW flank (Mokhnataya),Tephrochronology,Unknown,55.832,160.326,3611 m,Russia,Shield,0,0,225,"10,487"
Martin,Confirmed Eruption,1750 BCE,--,,Radiocarbon (uncorrected),Unknown,58.172,-155.361,1863 m,United States,Stratovolcano,0,0,0,914
Veniaminof,Confirmed Eruption,1750 BCE,6,,Radiocarbon (uncorrected),Unknown,56.17,-159.38,2507 m,United States,Stratovolcano,0,0,0,542
Makushin,Confirmed Eruption,1750 BCE,--,,Radiocarbon (uncorrected),Unknown,53.891,-166.923,1800 m,United States,Stratovolcano,0,0,"3,437","3,850"
Okataina,Confirmed Eruption,1750 BCE,4,Haroharo (Rotokawau to Rotoatua),Radiocarbon (corrected),Unknown,-38.12,176.5,1111 m,New Zealand,Lava dome(s),18,579,"79,591","362,413"
Chikurachki,Confirmed Eruption,1750 BCE,3,OSC7 tephra,Tephrochronology,Unknown,50.324,155.461,1781 m,Russia,Stratovolcano(es),0,65,527,"2,492"
St. Helens,Confirmed Eruption,1770 BCE,5,Tephra layer Ye,Tephrochronology,Unknown,46.2,-122.18,2549 m,United States,Stratovolcano,78,427,"2,221","2,173,101"
Merapi,Confirmed Eruption,1770 BCE,--,,Radiocarbon (corrected),Unknown,-7.54,110.446,2910 m,Indonesia,Stratovolcano,"49,205","185,849","4,348,473","24,728,414"
Arenal,Confirmed Eruption,1770 BCE,--,Cerro Chato,Radiocarbon (corrected),Unknown,10.463,-84.703,1670 m,Costa Rica,Stratovolcano,"3,429","15,643","96,512","3,027,485"
Ata,Confirmed Eruption,1780 BCE,4,"Kaimon, Tephra set Km-pi",Tephrochronology,Unknown,31.22,130.57,924 m,Japan,Caldera(s),"93,134","93,134","171,590","1,891,380"
"Fournaise, Piton de la",Confirmed Eruption,1790 BCE,--,,Radiocarbon (uncorrected),Unknown,-21.244,55.708,2632 m,France,Shield,"55,859","55,859","246,792","717,820"
Griggs,Confirmed Eruption,1790 BCE,--,,Radiocarbon (corrected),Unknown,58.354,-155.092,2317 m,United States,Stratovolcano,0,0,0,654
Mauna Loa,Confirmed Eruption,1800 BCE,0,NW and SW rift zones,Radiocarbon (uncorrected),Unknown,19.475,-155.608,4170 m,United States,Shield,45,45,"1,906","175,315"
Haleakala,Confirmed Eruption,1800 BCE,--,Haleakala crater,Radiocarbon (uncorrected),Unknown,20.708,-156.25,3055 m,United States,Shield,"26,074","26,074","65,398","157,582"
Maly Semyachik,Confirmed Eruption,1800 BCE,--,Ceno-Semiachik (SW flank),Radiocarbon (corrected),Unknown,54.135,159.674,1527 m,Russia,Caldera,98,98,497,"10,182"
Azumayama,Confirmed Eruption,1800 BCE,--,"Issaikyo, Az-JP3 tephra",Radiocarbon (corrected),Unknown,37.735,140.244,1949 m,Japan,Stratovolcano(es),128,907,"548,195","4,877,648"
Bandaisan,Confirmed Eruption,1800 BCE,--,"Numanotaira, RE4 tephra",Tephrochronology,Unknown,37.601,140.072,1816 m,Japan,Stratovolcano,"5,923","17,608","327,454","4,709,782"
Miyakejima,Confirmed Eruption,1800 BCE,3,South flank (Mizutamari maar),Tephrochronology,Unknown,34.094,139.526,775 m,Japan,Stratovolcano,"1,848","3,189","3,474","95,663"
Aogashima,Confirmed Eruption,1800 BCE,2,Northwest flank,Radiocarbon (corrected),Unknown,32.458,139.759,423 m,Japan,Stratovolcano,232,232,232,"8,559"
Cayambe,Confirmed Eruption,1800 BCE,--,,Tephrochronology,Unknown,0.029,-77.986,5790 m,Ecuador,Compound,70,"1,148","109,630","3,154,986"
Reykjanes,Confirmed Eruption,1800 BCE,2,"Reykjaneshryggur, Stampar, R-2, R-3 tephras",Tephrochronology,Unknown,63.817,-22.717,140 m,Iceland,Crater rows,"13,995","13,995","15,542","192,922"
"Watt, Morne",Confirmed Eruption,1800 BCE,--,NE of Watt Mtn (Valley of Desolation),Radiocarbon (uncorrected),Unknown,15.307,-61.305,1224 m,Dominica,Stratovolcano(es),"1,818","35,821","63,178","545,352"
Soufriere Guadeloupe,Confirmed Eruption,1810 BCE,--,,Radiocarbon (corrected),Unknown,16.044,-61.664,1467 m,France,Stratovolcano,"8,839","71,345","256,899","482,449"
Villarrica,Confirmed Eruption,1810 BCE,5,Pucón Ignimbrite,Radiocarbon (uncorrected),Unknown,-39.42,-71.93,2847 m,Chile,Stratovolcano,477,"1,067","35,118","667,788"
Redoubt,Confirmed Eruption,1810 BCE,--,,Varve Count,Unknown,60.485,-152.742,3108 m,United States,Stratovolcano,0,0,1,"32,410"
Augustine,Confirmed Eruption,1820 BCE,--,,Radiocarbon (corrected),Unknown,59.363,-153.43,1252 m,United States,Lava dome(s),0,0,0,759
Rincon de la Vieja,Confirmed Eruption,1820 BCE,4,Río Blanco tephra,Radiocarbon (corrected),Unknown,10.83,-85.324,1916 m,Costa Rica,Complex,271,"1,428","78,668","659,105"
